     3.03           OBSERVATION DATA    M: Mixed            RINEX VERSION / TYPE
Emlid RGL 1.2.7                         20241128 101602 UTC PGM / RUN BY / DATE 
format: u-blox                                              COMMENT             
                                                            MARKER NAME         
                                                            MARKER NUMBER       
                                                            MARKER TYPE         
                                                            OBSERVER / AGENCY   
                    EMLID REACH M+                          REC # / TYPE / VERS 
                                                            ANT # / TYPE        
 -3035458.8324  4047962.3016  3870444.2311                  APPROX POSITION XYZ 
        0.0000        0.0000        0.0000                  ANTENNA: DELTA H/E/N
G    4 C1C L1C D1C S1C                                      SYS / # / OBS TYPES 
R    4 C1C L1C D1C S1C                                      SYS / # / OBS TYPES 
E    4 C1C L1C D1C S1C                                      SYS / # / OBS TYPES 
J    4 C1C L1C D1C S1C                                      SYS / # / OBS TYPES 
C    4 C1I L1I D1I S1I                                      SYS / # / OBS TYPES 
  2024    11    28    10    15   45.8020000     GPS         TIME OF FIRST OBS   
  2024    11    28    10    16   20.8010000     GPS         TIME OF LAST OBS    
G                                                           SYS / PHASE SHIFT   
R                                                           SYS / PHASE SHIFT   
E                                                           SYS / PHASE SHIFT   
J                                                           SYS / PHASE SHIFT   
C                                                           SYS / PHASE SHIFT   
  0                                                         GLONASS SLOT / FRQ #
 C1C    0.000 C1P    0.000 C2C    0.000 C2P    0.000        GLONASS COD/PHS/BIS 
                                                            END OF HEADER       
> 2024 11 28 10 15 45.8020000  0 18                     
G 2  22655581.831 6 119055923.13516      3133.651          40.000  
G10  25725476.958 6 135188298.182 6      1679.887          39.000  
G16  23420040.499 6 123073154.87316     -2499.800          40.000  
G21  21152358.615 7 111156435.36117      2274.654          42.000  
G23  25909842.086 5 136157114.79615       178.299          32.000  
G26  25913886.261 6 136178406.38816     -2929.559          36.000  
G27  21937295.585 7 115281246.40617     -2479.065          46.000  
R14  22521921.860 5 120054464.648 5     -3001.273          31.000  
R15  19833659.325 6 105985010.336 6       -35.353          39.000  
R17  19823919.983 5 106081769.52015     -1170.023          30.000  
R24  23452010.673 6 125408433.65516     -3986.370          39.000  
E10  25232978.998 7 132600202.548 7      -547.323          47.000  
E11  24285703.281 6 127622247.164 6      1042.403          40.000  
E12  26817628.315 7 140927565.546 7     -1724.818          43.000  
E24  26305455.508 6 138236101.481 6     -1543.597          40.000  
J 2  39415955.539 6 207132242.85516       399.768          36.000  
J 3  37891911.648 7 199123334.42417      -215.223          43.000  
J 4  38213394.532 5 200812740.35325       -42.728          33.000  
> 2024 11 28 10 15 46.0020000  0 18                     
G 2  22655462.576 6 119055296.438 6      3133.249          40.000  
G10  25725412.793 6 135187962.136 6      1679.933          39.000  
G16  23420135.672 6 123073654.926 6     -2500.291          40.000  
G21  21152272.185 7 111155980.474 7      2274.309          42.000  
G23  25909835.402 5 136157079.147 5       177.740          32.000  
G26  25913997.820 6 136178992.314 6     -2929.551          36.000  
G27  21937390.025 7 115281742.263 7     -2479.424          46.000  
R14  22522034.327 5 120055065.069 5     -3002.043          31.000  
R15  19833660.617 6 105985017.439 6       -35.644          39.000  
R17  19823961.759 5 106082003.458 5     -1170.041          30.000  
R24  23452159.733 6 125409230.986 6     -3986.928          39.000  
E10  25232999.834 7 132600312.020 7      -547.415          47.000  
E11  24285663.652 6 127622038.795 6      1041.710          40.000  
E12  26817693.876 7 140927910.543 7     -1725.120          43.000  
E24  26305514.280 6 138236410.163 6     -1543.424          40.000  
J 2  39415940.392 6 207132162.875 6       399.683          36.000  
J 3  37891920.024 7 199123377.543 7      -215.644          43.000  
J 4  38213396.190 5 200812748.86825       -42.396          33.000  
> 2024 11 28 10 15 46.2020000  0 18                     
G 2  22655343.234 6 119054669.716 6      3133.748          40.000  
G10  25725348.751 6 135187626.074 6      1680.245          39.000  
G16  23420230.759 6 123074154.921 6     -2500.169          40.000  
G21  21152185.614 7 111155525.580 7      2274.419          42.000  
G23  25909828.562 5 136157043.477 5       178.284          32.000  
G26  25914109.205 6 136179578.187 6     -2929.628          36.000  
G27  21937484.501 7 115282238.074 7     -2479.167          46.000  
R14  22522146.985 5 120055665.472 5     -3002.228          31.000  
R15  19833662.065 6 105985024.539 6       -35.583          39.000  
R17  19824004.704 5 106082237.401 5     -1169.525          30.000  
R24  23452308.863 6 125410028.268 6     -3986.865          40.000  
E10  25233020.687 7 132600421.484 7      -547.355          47.000  
E11  24285623.796 6 127621830.396 6      1041.828          40.000  
E12  26817759.523 7 140928255.535 7     -1724.875          43.000  
E24  26305572.947 6 138236718.857 6     -1543.492          40.000  
J 2  39415925.123 6 207132082.880 6       399.841          36.000  
J 3  37891928.226 7 199123420.616 7      -215.470          43.000  
J 4  38213397.551 5 200812757.38025       -42.159          33.000  
> 2024 11 28 10 15 46.4020000  0 18                     
G 2  22655223.962 6 119054043.055 6      3133.210          40.000  
G10  25725284.517 6 135187290.035 6      1680.268          39.000  
G16  23420325.670 6 123074654.945 6     -2500.083          40.000  
G21  21152099.043 6 111155070.729 6      2274.132          41.000  
G23  25909821.686 5 136157007.858 5       178.188          32.000  
G26  25914220.677 6 136180164.078 6     -2929.528          36.000  
G27  21937578.802 7 115282733.903 7     -2479.230          46.000  
R14  22522259.609 5 120056265.874 5     -3002.420          31.000  
R15  19833663.339 6 105985031.666 6       -35.703          40.000  
R17  19824047.457 5 106082471.383 5     -1169.839          30.000  
R24  23452457.957 6 125410825.541 6     -3986.478          40.000  
E10  25233041.522 7 132600530.974 7      -547.611          47.000  
E11  24285584.254 6 127621622.019 6      1041.715          41.000  
E12  26817825.206 7 140928600.543 7     -1725.193          43.000  
E24  26305631.755 6 138237027.541 6     -1543.587          40.000  
J 2  39415910.081 6 207132002.861 6       399.847          36.000  
J 3  37891936.445 7 199123463.698 7      -215.411          43.000  
J 4  38213399.313 5 200812765.87925       -42.402          33.000  
> 2024 11 28 10 15 46.6020000  0 18                     
G 2  22655104.760 6 119053416.381 6      3133.247          40.000  
G10  25725220.527 6 135186954.035 6      1679.896          39.000  
G16  23420420.914 6 123075155.000 6     -2500.567          40.000  
G21  21152012.682 6 111154615.890 6      2274.212          41.000  
G23  25909814.846 5 136156972.260 5       178.123          32.000  
G26  25914332.271 6 136180750.012 6     -2929.963          36.000  
G27  21937673.190 7 115283229.769 7     -2479.215          46.000  
R14  22522372.267 5 120056866.320 5     -3002.283          31.000  
R15  19833664.857 6 105985038.837 6       -36.072          40.000  
R17  19824088.308 5 106082705.453 5     -1170.011          30.000  
R24  23452607.139 6 125411622.869 6     -3986.676          40.000  
E10  25233062.323 7 132600640.497 7      -547.765          47.000  
E11  24285544.642 6 127621413.680 6      1041.502          41.000  
E12  26817890.924 7 140928945.578 7     -1725.288          43.000  
E24  26305690.510 6 138237336.244 6     -1543.548          40.000  
J 2  39415894.882 6 207131922.894 6       399.762          36.000  
J 3  37891944.612 7 199123506.812 7      -215.642          43.000  
J 4  38213401.058 5 200812774.42225       -43.450          33.000  
> 2024 11 28 10 15 46.8020000  0 18                     
G 2  22654985.470 6 119052789.735 6      3133.325          40.000  
G10  25725156.432 6 135186618.046 6      1680.120          39.000  
G16  23420516.139 6 123075655.045 6     -2500.188          40.000  
G21  21151926.059 6 111154161.088 6      2274.258          41.000  
G23  25909808.040 5 136156936.729 5       177.698          32.000  
G26  25914443.830 6 136181335.936 6     -2929.746          36.000  
G27  21937767.543 7 115283725.666 7     -2479.482          46.000  
R14  22522484.839 5 120057466.774 5     -3002.329          31.000  
R15  19833666.358 6 105985046.035 6       -35.963          39.000  
R17  19824129.927 5 106082939.473 5     -1168.527          30.000  
R24  23452756.234 6 125412420.198 6     -3986.669          40.000  
E10  25233083.106 7 132600750.047 7      -547.681          47.000  
E11  24285505.134 6 127621205.365 6      1041.925          41.000  
E12  26817956.659 7 140929290.650 7     -1725.202          43.000  
E24  26305749.160 6 138237644.983 6     -1543.345          40.000  
J 2  39415879.718 6 207131842.896 6       399.762          37.000  
J 3  37891952.970 7 199123549.904 7      -215.359          43.000  
J 4  38213402.716 5 200812782.89025       -42.460          33.000  
> 2024 11 28 10 15 47.0020000  0 18                     
G 2  22654866.111 6 119052163.059 6      3133.152          40.000  
G10  25725092.285 6 135186282.022 6      1680.056          39.000  
G16  23420611.121 6 123076155.057 6     -2500.007          40.000  
G21  21151839.594 6 111153706.263 6      2273.910          41.000  
G23  25909801.322 5 136156901.125 5       178.059          32.000  
G26  25914555.250 6 136181921.802 6     -2929.300          36.000  
G27  21937861.879 7 115284221.485 7     -2479.308          46.000  
R14  22522597.480 5 120058067.185 5     -3001.693          31.000  
R15  19833667.702 6 105985053.202 6       -36.141          39.000  
R17  19824173.465 5 106083173.552 5     -1169.892          30.000  
R24  23452905.398 6 125413217.493 6     -3986.443          40.000  
E10  25233103.837 7 132600859.562 7      -547.596          47.000  
E11  24285465.400 6 127620997.025 6      1041.575          41.000  
E12  26818022.254 7 140929635.680 7     -1725.180          43.000  
E24  26305807.723 6 138237953.653 6     -1543.491          40.000  
J 2  39415864.519 6 207131762.842 6       400.403          37.000  
J 3  37891961.137 7 199123592.956 7      -215.341          43.000  
J 4  38213404.374 5 200812791.30525       -41.507          33.000  
> 2024 11 28 10 15 47.2020000  0 18                     
G 2  22654746.769 6 119051536.401 6      3132.961          40.000  
G10  25725028.208 6 135185946.025 6      1680.120          38.000  
G16  23420706.364 6 123076655.097 6     -2500.045          40.000  
G21  21151752.988 6 111153251.448 6      2274.140          41.000  
G23  25909794.446 5 136156865.595 5       177.925          32.000  
G26  25914666.530 6 136182507.679 6     -2929.204          36.000  
G27  21937956.233 7 115284717.340 7     -2479.333          46.000  
R14  22522710.156 5 120058667.637 5     -3002.115          31.000  
R15  19833669.063 6 105985060.396 6       -36.284          40.000  
R17  19824217.963 5 106083407.702 5     -1170.971          30.000  
R24  23453054.545 6 125414014.805 6     -3986.556          40.000  
E10  25233124.725 7 132600969.104 7      -547.746          47.000  
E11  24285425.928 6 127620788.705 6      1041.464          41.000  
E12  26818087.971 7 140929980.732 7     -1725.404          43.000  
E24  26305866.425 6 138238262.341 6     -1543.385          40.000  
J 2  39415849.180 6 207131682.813 6       400.012          37.000  
J 3  37891969.269 7 199123636.014 7      -215.176          43.000  
J 4  38213405.979 5 200812799.75625       -41.406          33.000  
> 2024 11 28 10 15 47.4020000  0 18                     
G 2  22654627.775 6 119050909.696 6      3133.188          40.000  
G10  25724964.113 6 135185609.989 6      1679.858          38.000  
G16  23420801.677 6 123077155.081 6     -2500.171          40.000  
G21  21151666.487 6 111152796.639 6      2273.807          41.000  
G23  25909787.588 5 136156829.972 5       178.352          31.000  
G26  25914778.124 6 136183093.523 6     -2929.419          36.000  
G27  21938050.533 7 115285213.148 7     -2479.291          46.000  
R14  22522822.710 5 120059268.077 5     -3002.237          31.000  
R15  19833670.511 6 105985067.557 6       -36.054          40.000  
R17  19824262.112 5 106083641.750 5     -1170.566          30.000  
R24  23453203.588 6 125414812.072 6     -3986.512          40.000  
E10  25233145.578 7 132601078.620 7      -547.806          47.000  
E11  24285386.124 6 127620580.360 6      1041.496          41.000  
E12  26818153.759 7 140930325.736 7     -1725.264          43.000  
E24  26305925.110 6 138238570.981 6     -1543.208          40.000  
J 2  39415833.928 6 207131602.713 6       399.988          37.000  
J 3  37891977.505 7 199123679.038 7      -215.248          43.000  
J 4  38213407.689 5 200812808.18525       -42.272          33.000  
> 2024 11 28 10 15 47.6020000  0 18                     
G 2  22654508.556 6 119050282.983 6      3133.908          40.000  
G10  25724899.844 6 135185273.945 6      1680.298          38.000  
G16  23420896.921 6 123077655.044 6     -2499.521          40.000  
G21  21151579.952 6 111152341.818 6      2274.077          41.000  
G23  25909780.818 5 136156794.420 5       178.396          31.000  
G26  25914889.544 6 136183679.331 6     -2928.346          36.000  
G27  21938144.974 7 115285708.945 7     -2478.585          46.000  
R14  22522935.438 5 120059868.520 5     -3003.035          31.000  
R15  19833671.820 6 105985074.733 6       -35.685          40.000  
R17  19824305.040 5 106083875.816 5     -1169.436          30.000  
R24  23453352.770 6 125415609.325 6     -3986.252          40.000  
E10  25233166.518 7 132601188.137 7      -547.456          47.000  
E11  24285346.669 6 127620372.007 6      1041.898          41.000  
E12  26818219.546 7 140930670.750 7     -1724.806          43.000  
E24  26305983.918 6 138238879.636 6     -1543.261          40.000  
J 2  39415818.694 6 207131522.595 6       400.952          37.000  
J 3  37891985.794 7 199123722.047 7      -214.834          43.000  
J 4  38213409.417 5 200812816.62525       -42.629          33.000  
> 2024 11 28 10 15 47.8020000  0 18                     
G 2  22654389.266 6 119049656.291 6      3133.592          40.000  
G10  25724835.627 6 135184937.874 6      1680.568          38.000  
G16  23420992.129 6 123078154.992 6     -2499.841          40.000  
G21  21151493.538 6 111151886.996 6      2274.268          41.000  
G23  25909774.012 5 136156758.844 5       177.758          31.000  
G26  25915000.981 5 136184265.143 5     -2928.582          35.000  
G27  21938239.327 7 115286204.711 7     -2478.566          46.000  
R14  22523048.080 5 120060468.887 5     -3002.857          31.000  
R15  19833673.355 6 105985081.899 6       -35.873          40.000  
R17  19824346.781 5 106084109.897 5     -1169.557          30.000  
R24  23453501.795 6 125416406.549 6     -3986.008          40.000  
E10  25233187.424 7 132601297.630 7      -547.399          47.000  
E11  24285306.952 6 127620163.649 6      1041.885          41.000  
E12  26818285.054 7 140931015.740 7     -1724.857          43.000  
E24  26306042.550 6 138239188.201 6     -1542.549          40.000  
J 2  39415803.495 6 207131442.447 6       401.074          37.000  
J 3  37891994.031 7 199123765.024 7      -214.774          43.000  
J 4  38213411.040 5 200812824.96825       -41.993          33.000  
> 2024 11 28 10 15 48.0020000  0 18                     
G 2  22654269.924 6 119049029.601 6      3133.707          40.000  
G10  25724771.480 6 135184601.833 6      1680.366          38.000  
G16  23421087.529 6 123078654.965 6     -2499.888          40.000  
G21  21151407.125 6 111151432.226 6      2273.970          41.000  
G23  25909767.329 5 136156723.298 5       177.426          31.000  
G26  25915112.575 5 136184850.960 5     -2928.882          35.000  
G27  21938333.751 7 115286700.518 7     -2478.939          46.000  
R14  22523160.686 5 120061069.305 5     -3002.449          31.000  
R15  19833674.821 6 105985089.099 6       -35.890          40.000  
R17  19824391.593 5 106084344.115 5     -1171.296          30.000  
R24  23453650.942 6 125417203.787 6     -3986.009          40.000  
E10  25233208.224 7 132601407.170 7      -547.730          47.000  
E11  24285267.201 6 127619955.315 6      1041.791          41.000  
E12  26818350.684 7 140931360.758 7     -1724.973          43.000  
E24  26306101.148 6 138239496.835 6     -1542.960          40.000  
J 2  39415788.244 6 207131362.316 6       400.745          37.000  
J 3  37892002.215 7 199123808.032 7      -214.919          43.000  
J 4  38213412.680 5 200812833.36725       -42.961          33.000  
> 2024 11 28 10 15 48.2020000  0 18                     
G 2  22654150.687 6 119048402.953 6      3133.418          40.000  
G10  25724707.368 6 135184265.819 6      1679.917          38.000  
G16  23421182.616 6 123079154.944 6     -2499.888          41.000  
G21  21151320.537 6 111150977.495 6      2273.473          41.000  
G23  25909760.506 5 136156687.697 5       177.872          31.000  
G26  25915224.134 5 136185436.788 5     -2929.338          35.000  
G27  21938428.017 7 115287196.334 7     -2479.174          46.000  
R14  22523273.414 5 120061669.762 5     -3003.126          31.000  
R15  19833676.165 6 105985096.342 6       -36.376          40.000  
R17  19824435.969 5 106084578.288 5     -1171.901          30.000  
R24  23453800.001 6 125418001.040 6     -3986.320          40.000  
E10  25233228.920 7 132601516.737 7      -548.067          47.000  
E11  24285227.431 6 127619747.013 6      1041.557          41.000  
E12  26818416.280 7 140931705.816 7     -1725.512          43.000  
E24  26306159.763 6 138239805.471 6     -1543.253          40.000  
J 2  39415773.080 6 207131284.68436       400.916          37.000  
J 3  37892010.312 7 199123857.54337      -215.126          43.000  
J 4  38213414.268 5 200812841.68125       -41.235          33.000  
> 2024 11 28 10 15 48.4020000  0 18                     
G 2  22654031.554 6 119047776.251 6      3133.314          40.000  
G10  25724643.099 6 135183929.755 6      1679.979          38.000  
G16  23421277.876 6 123079654.883 6     -2499.897          41.000  
G21  21151234.001 7 111150522.687 7      2273.665          42.000  
G23  25909753.787 5 136156652.162 5       178.142          31.000  
G26  25915335.501 5 136186022.554 5     -2928.715          35.000  
G27  21938522.492 7 115287692.100 7     -2478.983          46.000  
R14  22523386.038 5 120062270.150 5     -3002.382          31.000  
R15  19833677.386 6 105985103.535 6       -36.299          40.000  
R17  19824477.396 5 106084812.429 5     -1170.874          30.000  
R24  23453948.921 6 125418798.262 6     -3985.954          40.000  
E10  25233249.686 7 132601626.243 7      -547.588          47.000  
E11  24285187.802 6 127619538.663 6      1041.621          41.000  
E12  26818481.788 7 140932050.825 7     -1725.219          43.000  
E24  26306218.344 6 138240114.066 6     -1543.047          40.000  
J 2  39415757.741 6 207131204.48426       401.038          37.000  
J 3  37892018.548 7 199123900.47827      -214.883          43.000  
J 4  38213415.873 5 200812850.00925       -41.776          33.000  
> 2024 11 28 10 15 48.6020000  0 18                     
G 2  22653912.247 6 119047149.606 6      3133.162          40.000  
G10  25724578.882 6 135183593.780 6      1679.989          38.000  
G16  23421373.120 6 123080154.875 6     -2500.130          41.000  
G21  21151147.588 7 111150067.965 7      2273.676          42.000  
G23  25909747.087 5 136156616.693 5       177.414          31.000  
G26  25915447.008 5 136186608.405 5     -2929.497          35.000  
G27  21938616.811 7 115288187.920 7     -2478.936          46.000  
R14  22523498.696 5 120062870.609 5     -3002.380          31.000  
R15  19833678.765 6 105985110.803 6       -36.349          40.000  
R17  19824521.841 5 106085046.610 5     -1171.224          30.000  
R24  23454098.103 6 125419595.545 6     -3986.384          40.000  
E10  25233270.469 7 132601735.849 7      -548.020          47.000  
E11  24285148.295 6 127619330.395 6      1041.326          41.000  
E12  26818547.296 7 140932395.901 7     -1725.417          43.000  
E24  26306277.064 6 138240422.713 6     -1543.136          40.000  
J 2  39415742.646 6 207131124.35826       400.629          37.000  
J 3  37892026.820 7 199123943.46627      -214.853          44.000  
J 4  38213417.479 5 200812858.32325       -41.390          33.000  
> 2024 11 28 10 15 48.8020000  0 18                     
G 2  22653792.922 6 119046522.956 6      3133.421          40.000  
G10  25724514.700 6 135183257.805 6      1679.758          38.000  
G16  23421468.380 6 123080654.869 6     -2499.699          41.000  
G21  21151061.174 7 111149613.273 7      2273.609          42.000  
G23  25909740.298 5 136156581.240 5       176.798          31.000  
G26  25915558.620 5 136187194.199 5     -2928.943          35.000  
G27  21938711.111 7 115288683.762 7     -2478.899          46.000  
R14  22523611.198 5 120063471.086 5     -3002.322          31.000  
R15  19833680.248 6 105985118.099 6       -36.240          40.000  
R17  19824565.537 5 106085280.937 5     -1171.569          30.000  
R24  23454247.198 6 125420392.829 6     -3986.129          40.000  
E10  25233291.549 7 132601845.455 7      -547.895          47.000  
E11  24285108.718 6 127619122.136 6      1041.366          41.000  
E12  26818613.066 7 140932740.992 7     -1725.269          43.000  
E24  26306335.801 6 138240731.374 6     -1543.448          40.000  
J 2  39415727.273 6 207131044.20026       400.897          37.000  
J 3  37892035.074 7 199123986.48427      -214.869          44.000  
J 4  38213419.084 5 200812866.67525       -41.002          33.000  
> 2024 11 28 10 15 49.0020000  0 18                     
G 2  22653673.615 6 119045896.387 6      3132.560          40.000  
G10  25724450.361 6 135182921.860 6      1679.366          38.000  
G16  23421563.606 6 123081154.904 6     -2500.418          41.000  
G21  21150974.534 7 111149158.636 7      2272.953          42.000  
G23  25909733.528 5 136156545.795 5       177.063          31.000  
G26  25915670.039 5 136187780.047 5     -2929.321          35.000  
G27  21938805.482 7 115289179.637 7     -2479.596          46.000  
R14  22523723.979 5 120064071.641 5     -3003.047          31.000  
R15  19833681.766 6 105985125.466 6       -37.120          40.000  
R17  19824611.902 5 106085515.242 5     -1171.927          30.000  
R24  23454396.223 6 125421190.140 6     -3986.458          40.000  
E10  25233312.629 7 132601955.121 7      -548.514          47.000  
E11  24285069.158 6 127618913.913 6      1041.064          41.000  
E12  26818678.749 7 140933086.119 7     -1725.901          43.000  
E24  26306394.521 6 138241040.029 6     -1543.150          40.000  
J 2  39415712.056 6 207130964.07126       400.439          37.000  
J 3  37892043.293 7 199124029.50927      -215.339          44.000  
J 4  38213420.672 5 200812875.08025       -42.136          33.000  
> 2024 11 28 10 15 49.2020000  0 18                     
G 2  22653554.395 6 119045269.812 6      3132.403          40.000  
G10  25724386.162 6 135182585.929 6      1679.308          38.000  
G16  23421658.884 6 123081654.925 6     -2500.263          41.000  
G21  21150887.981 7 111148704.018 7      2273.114          42.000  
G23  25909726.722 5 136156510.385 5       177.598          31.000  
G26  25915781.599 5 136188365.918 5     -2929.360          35.000  
G27  21938899.713 7 115289675.501 7     -2479.376          46.000  
R14  22523836.568 5 120064672.141 5     -3002.394          31.000  
R15  19833683.075 6 105985132.832 6       -37.225          40.000  
R17  19824656.365 5 106085749.560 5     -1171.268          30.000  
R24  23454545.230 6 125421987.465 6     -3986.701          40.000  
E10  25233333.272 7 132602064.790 7      -548.416          47.000  
E11  24285029.267 6 127618705.731 6      1040.969          41.000  
E12  26818744.484 7 140933431.257 7     -1725.696          43.000  
E24  26306453.328 6 138241348.742 6     -1543.654          40.000  
J 2  39415696.665 6 207130883.94226       400.470          37.000  
J 3  37892051.442 7 199124072.54227      -215.191          44.000  
J 4  38213422.347 5 200812883.475 5       -42.421          33.000  
> 2024 11 28 10 15 49.4020000  0 18                     
G 2  22653435.193 6 119044643.226 6      3132.924          40.000  
G10  25724322.137 6 135182249.964 6      1679.823          38.000  
G16  23421754.128 6 123082154.935 6     -2499.992          41.000  
G21  21150801.480 7 111148249.436 7      2272.901          42.000  
G23  25909719.777 5 136156475.003 5       177.232          31.000  
G26  25915893.088 5 136188951.759 5     -2929.307          35.000  
G27  21938994.119 7 115290171.366 7     -2479.167          46.000  
R14  22523949.279 5 120065272.677 5     -3002.329          32.000  
R15  19833684.419 6 105985140.209 6       -37.095          40.000  
R17  19824699.048 5 106085983.982 5     -1171.640          30.000  
R24  23454694.447 6 125422784.770 6     -3986.686          40.000  
E10  25233354.230 7 132602174.471 7      -548.487          47.000  
E11  24284989.672 6 127618497.545 6      1040.887          41.000  
E12  26818810.184 7 140933776.405 7     -1725.836          43.000  
E24  26306512.048 6 138241657.390 6     -1543.070          40.000  
J 2  39415681.414 6 207130803.78826       400.653          37.000  
J 3  37892059.748 7 199124115.57427      -215.266          44.000  
J 4  38213423.918 5 200812891.809 5       -41.562          33.000  
> 2024 11 28 10 15 49.6020000  0 18                     
G 2  22653316.112 6 119044016.645 6      3132.793          40.000  
G10  25724258.095 6 135181914.004 6      1679.985          41.000  
G16  23421849.249 6 123082654.898 6     -2499.955          41.000  
G21  21150714.962 7 111147794.820 7      2272.842          42.000  
G23  25909712.622 5               5       181.737          30.000  
G26  25916004.560 5 136189537.549 5     -2928.668          31.000  
G27  21939088.664 7 115290667.186 7     -2479.144          47.000  
R14  22524061.798 5 120065873.103 5     -3002.319          32.000  
R15  19833685.763 6 105985147.544 6       -36.690          40.000  
R17  19824742.133 5 106086218.312 5     -1172.173          30.000  
R24  23454843.629 6 125423582.040 6     -3986.438          40.000  
E10  25233375.118 8 132602284.105 8      -548.045          48.000  
E11  24284949.903 6 127618289.303 6      1041.330          41.000  
E12  26818875.727 7 140934121.522 7     -1725.565          43.000  
E24  26306570.925 6 138241965.984 6     -1542.714          40.000  
J 2  39415666.197 6 207130723.58826       401.184          37.000  
J 3  37892068.124 7 199124158.55427      -214.896          44.000  
J 4  38213425.558 5 200812900.102 5       -41.433          33.000  
> 2024 11 28 10 15 49.8020000  0 18                     
G 2  22653196.893 6 119043390.068 6      3132.822          40.000  
G10  25724194.070 6 135181578.101 6      1679.408          41.000  
G16  23421944.440 7 123083154.900 7     -2500.143          42.000  
G21  21150628.444 6 111147340.242 6      2272.986          41.000  
G23  25909702.711 4               4       177.282          24.000  
G26  25916115.613 4 136190123.365 4     -2929.441          26.000  
G27  21939183.105 8 115291163.057 8     -2479.426          48.000  
R14  22524174.421 5 120066473.601 5     -3003.068          32.000  
R15  19833687.263 6 105985154.970 6       -37.257          40.000  
R17  19824785.340 5 106086452.749 5     -1172.207          30.000  
R24  23454992.811 6 125424379.381 6     -3986.928          40.000  
E10  25233395.832 8 132602393.817 8      -548.688          48.000  
E11  24284910.047 6 127618081.132 6      1040.619          41.000  
E12  26818941.374 7 140934466.712 7     -1726.083          43.000  
E24  26306629.663 6 138242274.650 6     -1543.544          40.000  
J 2  39415650.911 6 207130643.41126       400.842          37.000  
J 3  37892076.431 7 199124201.57427      -215.058          45.000  
J 4  38213427.268 5 200812908.455 5       -40.830          32.000  
> 2024 11 28 10 15 50.0020000  0 18                     
G 2  22653077.603 6 119042763.529 6      3132.569          40.000  
G10  25724129.975 7 135181242.189 7      1679.305          42.000  
G16  23422039.631 7 123083654.919 7     -2500.440          42.000  
G21  21150541.995 6 111146885.679 6      2272.771          41.000  
G23  25909695.818 3               3       173.746          23.000  
G26  25916225.654 4               4     -2929.432          26.000  
G27  21939277.598 8 115291658.916 8     -2479.663          48.000  
R14  22524287.097 5 120067074.201 5     -3003.609          32.000  
R15  19833688.607 6 105985162.372 6       -37.338          40.000  
R17  19824828.459 5 106086687.173 5     -1172.378          30.000  
R24  23455141.906 6 125425176.667 6     -3986.959          39.000  
E10  25233416.527 8 132602503.511 8      -548.727          48.000  
E11  24284870.470 6 127617872.960 6      1040.691          41.000  
E12  26819007.179 7 140934811.861 7     -1726.144          44.000  
E24  26306688.522 6 138242583.286 6     -1543.332          40.000  
J 2  39415635.624 6 207130563.22626       400.745          38.000  
J 3  37892084.580 7 199124244.56927      -215.183          45.000  
J 4  38213426.884 5 200812916.801 5       -41.257          32.000  
> 2024 11 28 10 15 50.2020000  0 18                     
G 2  22652958.313 6 119042137.001 6      3132.616          40.000  
G10  25724065.916 7 135180906.311 7      1679.276          42.000  
G16  23422134.856 7 123084154.934 7     -2499.677          42.000  
G21  21150455.460 6 111146431.170 6      2272.788          41.000  
G23  25909689.606 3               3       173.746          22.000  
G26  25916335.992 4               4     -2927.491          25.000  
G27  21939371.934 8 115292154.814 8     -2479.366          48.000  
R14  22524399.721 5 120067674.776 5     -3003.056          32.000  
R15  19833690.073 6 105985169.853 6       -37.292          40.000  
R17  19824871.753 5 106086921.661 5     -1173.312          30.000  
R24  23455291.105 6 125425974.023 6     -3986.677          39.000  
E10  25233437.293 8 132602613.273 8      -548.709          48.000  
E11  24284830.701 6 127617664.836 6      1040.854          41.000  
E12  26819072.722 7 140935157.083 7     -1726.109          44.000  
E24  26306747.347 6 138242891.977 6     -1543.288          40.000  
J 2  39415620.338 6 207130483.05526       401.031          38.000  
J 3  37892092.782 7 199124287.59727      -215.174          45.000  
J 4  38213429.310 5 200812925.195 5       -42.615          32.000  
> 2024 11 28 10 15 50.4020000  0 18                     
G 2  22652839.268 6 119041510.412 6      3132.747          40.000  
G10  25724001.908 7 135180570.393 7      1679.628          42.000  
G16  23422229.978 7 123084654.952 7     -2500.074          42.000  
G21  21150368.959 6 111145976.594 6      2272.536          41.000  
G23  25909684.388 3               3       173.746          22.000  
G26  25916447.778 4               4     -2932.111          25.000  
G27  21939466.392 8 115292650.700 8     -2479.432          49.000  
R14  22524512.310 5 120068275.324 5     -3002.822          33.000  
R15  19833691.451 6 105985177.322 6       -37.675          40.000  
R17  19824916.338 5 106087156.084 5     -1171.471          30.000  
R24  23455440.200 6 125426771.397 6     -3986.797          40.000  
E10  25233458.164 7 132602723.009 7      -548.734          47.000  
E11  24284791.002 6 127617456.701 6      1040.540          41.000  
E12  26819138.475 7 140935502.308 7     -1726.057          44.000  
E24  26306806.259 6 138243200.607 6     -1543.159          40.000  
J 2  39415605.051 6 207130402.84426       401.117          38.000  
J 3  37892100.966 7 199124330.56827      -215.082          45.000  
J 4  38213430.724 5 200812933.449 5       -42.148          32.000  
> 2024 11 28 10 15 50.6020000  0 18                     
G 2  22652720.083 6 119040883.918 6      3132.433          40.000  
G10  25723938.023 7 135180234.506 7      1679.571          42.000  
G16  23422325.134 7 123085154.969 7     -2499.707          42.000  
G21  21150282.563 6 111145522.127 6      2272.611          41.000  
G23  25909678.821 3               3       178.398          22.000  
G26  25916560.035 4               4     -2932.610          25.000  
G27  21939560.797 8 115293146.576 8     -2479.269          49.000  
R14  22524624.951 5 120068875.925 5     -3002.791          33.000  
R15  19833692.795 6 105985184.792 6       -37.256          40.000  
R17  19824957.905 5 106087390.647 5     -1172.818          30.000  
R24  23455589.120 6 125427568.677 6     -3986.318          41.000  
E10  25233479.086 7 132602832.772 7      -548.902          47.000  
E11  24284751.372 6 127617248.595 6      1040.600          41.000  
E12  26819204.018 7 140935847.493 7     -1725.855          44.000  
E24  26306865.119 6 138243509.299 6     -1543.394          40.000  
J 2  39415589.730 6 207130322.64826       401.270          38.000  
J 3  37892109.150 7 199124373.58527      -214.910          45.000  
J 4  38213431.369 5 200812941.754 5       -41.261          32.000  
> 2024 11 28 10 15 50.8020000  0 18                     
G 2  22652600.758 6 119040257.376 6      3132.718          40.000  
G10  25723874.068 7 135179898.590 7      1679.772          42.000  
G16  23422420.325 7 123085654.996 7     -2500.150          42.000  
G21  21150196.132 6 111145067.640 6      2272.097          41.000  
G23  25909673.447 3               3       180.438          23.000  
G26  25916673.113 4               4     -2932.610          24.000  
G27  21939655.273 8 115293642.428 8     -2479.321          49.000  
R14  22524737.592 5 120069476.518 5     -3003.100          33.000  
R15  19833694.278 6 105985192.281 6       -37.720          40.000  
R17  19825002.856 5 106087625.159 5     -1173.544          30.000  
R24  23455738.232 6 125428365.943 6     -3986.323          41.000  
E10  25233500.009 7 132602942.499 7      -548.680          47.000  
E11  24284711.900 6 127617040.489 6      1040.139          41.000  
E12  26819269.857 7 140936192.651 7     -1725.854          44.000  
E24  26306924.100 6 138243817.920 6     -1542.908          40.000  
J 2  39415574.513 6 207130242.41226       400.970          38.000  
J 3  37892117.526 7 199124416.55627      -214.823          45.000  
J 4  38213434.510 5 200812950.024 5       -41.609          32.000  
> 2024 11 28 10 15 51.0020000  0 18                     
G 2  22652481.556 6 119039630.861 6      3132.557          40.000  
G10  25723810.322 7 135179562.698 7      1679.551          43.000  
G16  23422515.516 7 123086155.004 7     -2500.082          42.000  
G21  21150109.719 6 111144613.163 6      2272.238          41.000  
G23  25909667.426 3               3       177.286          23.000  
G26  25916784.742 4               4     -2930.883          24.000  
G27  21939749.644 8 115294138.281 8     -2479.277          49.000  
R14  22524850.321 5 120070077.084 5     -3002.578          32.000  
R15  19833695.796 6 105985199.775 6       -37.524          40.000  
R17  19825048.035 5 106087859.713 5     -1173.543          30.000  
R24  23455887.379 6 125429163.230 6     -3986.518          41.000  
E10  25233520.880 7 132603052.263 7      -548.760          47.000  
E11  24284672.131 6 127616832.362 6      1040.463          41.000  
E12  26819335.470 7 140936537.849 7     -1725.991          44.000  
E24  26306982.977 6 138244126.597 6     -1543.389          40.000  
J 2  39415559.227 6 207130162.17626       401.019          38.000  
J 3  37892125.710 7 199124459.53827      -214.861          45.000  
J 4  38213439.850 5 200812958.280 5       -41.170          32.000  
> 2024 11 28 10 15 51.2020000  0 18                     
G 2  22652362.336 6 119039004.361 6      3132.420          40.000  
G10  25723746.367 7 135179226.823 7      1679.203          43.000  
G16  23422610.724 7 123086655.023 7     -2500.084          42.000  
G21  21150023.270 6 111144158.716 6      2272.272          41.000  
G23  25909660.568 3               3       181.420          22.000  
G26  25916895.586 4               4     -2932.630          24.000  
G27  21939843.962 8 115294634.169 8     -2479.492          49.000  
R14  22524962.892 5 120070677.750 5     -3003.980          32.000  
R15  19833697.245 6 105985207.329 6       -38.076          41.000  
R17  19825092.987 5 106088094.241 5     -1172.737          30.000  
R24  23456036.439 6 125429960.534 6     -3986.708          41.000  
E10  25233541.803 7 132603162.059 7      -549.181          47.000  
E11  24284632.536 6 127616624.289 6      1040.204          41.000  
E12  26819401.170 7 140936883.062 7     -1726.243          44.000  
E24  26307041.697 6 138244435.245 6     -1543.211          39.000  
J 2  39415544.098 6 207130081.93826       401.068          38.000  
J 3  37892133.982 7 199124502.52427      -214.916          45.000  
J 4  38213443.410 5 200812966.573 5       -40.884          32.000  
> 2024 11 28 10 15 51.4020000  0 18                     
G 2  22652243.116 6 119038377.882 6      3132.404          39.000  
G10  25723682.500 7 135178890.971 7      1679.273          42.000  
G16  23422705.950 7 123087155.073 7     -2500.376          42.000  
G21  21149936.892 6 111143704.303 6      2271.947          41.000  
G23  25909654.723 3               3       173.128          23.000  
G26  25917007.197 3               3     -2931.924          23.000  
G27  21939938.438 8 115295130.079 8     -2479.761          49.000  
R14  22525075.533 5 120071278.364 5     -3003.458          33.000  
R15  19833698.798 6 105985214.908 6       -38.380          41.000  
R17  19825140.120 5 106088328.842 5     -1173.075          30.000  
R24  23456185.516 6 125430757.870 6     -3987.026          41.000  
E10  25233562.830 7 132603271.887 7      -549.362          47.000  
E11  24284592.767 6 127616416.229 6      1040.232          41.000  
E12  26819466.870 7 140937228.310 7     -1726.390          44.000  
E24  26307100.435 6 138244743.917 6     -1543.485          39.000  
J 2  39415528.742 6 207130001.72226       400.879          38.000  
J 3  37892142.026 7 199124545.52827      -215.234          45.000  
J 4  38213443.968 5 200812974.915 5       -41.924          32.000  
> 2024 11 28 10 15 51.6020000  0 18                     
G 2  22652123.896 6 119037751.416 6      3132.291          39.000  
G10  25723618.545 7 135178555.160 7      1679.260          42.000  
G16  23422801.036 7 123087655.128 7     -2499.901          42.000  
G21  21149850.426 6 111143249.915 6      2271.996          41.000  
G23  25909648.144 3               3       184.451          23.000  
G26  25917119.332 3               3     -2925.405          23.000  
G27  21940032.913 8 115295626.004 8     -2479.565          49.000  
R14  22525188.296 5 120071879.026 5     -3003.280          33.000  
R15  19833700.229 6 105985222.509 6       -37.986          41.000  
R17  19825185.473 5 106088563.607 5     -1174.800          31.000  
R24  23456334.628 6 125431555.199 6     -3986.632          41.000  
E10  25233583.753 7 132603381.738 7      -549.115          47.000  
E11  24284552.928 6 127616208.218 6      1040.198          41.000  
E12  26819532.535 7 140937573.589 7     -1726.283          44.000  
E24  26307159.225 6 138245052.628 6     -1543.543          39.000  
J 2  39415513.455 6 207129921.49326       401.050          38.000  
J 3  37892150.297 7 199124588.52427      -214.867          45.000  
J 4  38213445.050 5 200812983.219 5       -42.216          32.000  
> 2024 11 28 10 15 51.8020000  0 18                     
G 2  22652004.606 6 119037124.999 6      3132.336          40.000  
G10  25723554.834 7 135178219.347 7      1679.435          43.000  
G16  23422896.227 7 123088155.188 7     -2499.711          42.000  
G21  21149764.012 6 111142795.562 6      2272.006          41.000  
G23  25909642.595 3               3       167.268          23.000  
G26  25917231.467 3               3     -2931.292          23.000  
G27  21940127.336 8 115296121.920 8     -2479.216          49.000  
R14  22525301.112 5 120072479.717 5     -3003.290          33.000  
R15  19833701.729 6 105985230.124 6       -37.719          41.000  
R17  19825231.472 5 106088798.215 5     -1173.177          31.000  
R24  23456483.600 6 125432352.538 6     -3986.208          41.000  
E10  25233604.466 7 132603491.611 7      -549.299          47.000  
E11  24284513.421 6 127616000.211 6      1040.193          41.000  
E12  26819598.323 7 140937918.857 7     -1726.048          44.000  
E24  26307217.892 6 138245361.331 6     -1543.146          39.000  
J 2  39415498.116 6 207129841.26026       401.617          38.000  
J 3  37892158.551 7 199124631.53127      -214.626          45.000  
J 4  38213446.411 5 200812991.459 5       -41.042          32.000  
> 2024 11 28 10 15 52.0020000  0 18                     
G 2  22651885.282 6 119036498.531 6      3131.909          40.000  
G10  25723490.966 7 135177883.497 7      1679.342          43.000  
G16  23422991.575 7 123088655.246 7     -2500.409          42.000  
G21  21149677.477 6 111142341.171 6      2271.843          41.000  
G23  25909635.475 3               3       167.268          22.000  
G26  25917343.637 3               3     -2931.292          23.000  
G27  21940221.707 8 115296617.831 8     -2479.512          49.000  
R14  22525413.806 5 120073080.360 5     -3003.261          33.000  
R15  19833703.125 6 105985237.740 6       -38.085          41.000  
R17  19825276.406 5 106089032.946 5     -1174.335          31.000  
R24  23456632.695 6 125433149.866 6     -3986.563          41.000  
E10  25233625.127 7 132603601.451 7      -549.333          47.000  
E11  24284473.739 6 127615792.170 6      1039.962          41.000  
E12  26819663.935 7 140938264.123 7     -1726.438          44.000  
E24  26307276.699 6 138245669.985 6     -1543.360          39.000  
J 2  39415482.882 6 207129760.97926       401.477          38.000  
J 3  37892166.736 7 199124674.50027      -214.787          45.000  
J 4  38213446.621 5 200812999.706 5       -41.069          32.000  
> 2024 11 28 10 15 52.2020000  0 18                     
G 2  22651766.097 6 119035872.031 6      3132.598          40.000  
G10  25723427.098 7 135177547.661 7      1679.127          43.000  
G16  23423086.661 7 123089155.266 7     -2500.623          42.000  
G21  21149591.063 6 111141886.814 6      2271.518          41.000  
G23  25909629.786 3               3       170.836          22.000  
G26  25917456.017 3               3     -2933.986          23.000  
G27  21940315.956 8 115297113.720 8     -2479.830          48.000  
R14  22525526.516 5 120073681.029 5     -3003.771          33.000  
R15  19833704.626 6 105985245.360 6       -38.132          41.000  
R17  19825317.676 5 106089267.529 5     -1172.979          31.000  
R24  23456781.772 6 125433947.166 6     -3986.528          41.000  
E10  25233646.120 8 132603711.300 8      -549.429          48.000  
E11  24284434.354 6 127615584.149 6      1039.932          41.000  
E12  26819729.461 7 140938609.375 7     -1726.438          44.000  
E24  26307335.489 6 138245978.649 6     -1543.511          40.000  
J 2  39415467.491 6 207129680.69126       401.556          38.000  
J 3  37892174.867 7 199124717.47127      -214.989          45.000  
J 4  38213445.469 5 200813007.948 5       -41.524          32.000  
> 2024 11 28 10 15 52.4020000  0 19                     
G 2  22651646.877 6 119035245.620 6      3132.355          40.000  
G10  25723363.265 7 135177211.851 7      1678.917          43.000  
G16  23423182.079 7 123089655.314 7     -2500.467          42.000  
G21  21149504.597 6 111141432.513 6      2271.298          41.000  
G23  25909623.364 3               3       176.872          22.000  
G26  25917568.152 3               3     -2937.787          23.000  
G27  21940410.292 8 115297609.636 8     -2479.707          48.000  
R14  22525639.193 5 120074281.720 5     -3003.499          33.000  
R15  19833706.092 6 105985253.028 6       -38.133          41.000  
R17  19825362.209 5 106089502.321 5     -1173.574          31.000  
R18  20448189.548 4               4      2666.365          25.000  
R24  23456930.937 6 125434744.494 6     -3986.888          41.000  
E10  25233667.025 8 132603821.196 8      -549.607          48.000  
E11  24284394.934 6 127615376.159 6      1039.931          41.000  
E12  26819795.179 7 140938954.659 7     -1726.326          44.000  
E24  26307394.279 6 138246287.320 6     -1543.441          40.000  
J 2  39415452.153 6 207129600.41926       401.624          38.000  
J 3  37892183.278 7 199124760.45927      -215.085          45.000  
J 4  38213449.657 5 200813016.190 5       -41.137          32.000  
> 2024 11 28 10 15 52.6020000  0 19                     
G 2  22651527.692 6 119034619.206 6      3131.788          40.000  
G10  25723299.572 7 135176876.061 7      1678.787          43.000  
G16  23423277.305 7 123090155.382 7     -2500.703          42.000  
G21  21149418.219 7 111140978.220 7      2270.953          42.000  
G23  25909618.182 3               3       178.234          22.000  
G26  25917680.409 3               3     -2922.935          23.000  
G27  21940504.645 8 115298105.566 8     -2479.700          48.000  
R14  22525751.834 5 120074882.404 5     -3003.352          34.000  
R15  19833707.453 6 105985260.728 6       -38.544          41.000  
R17  19825405.782 5 106089737.081 5     -1173.806          31.000  
R18  20448090.588 4               4      2663.238          25.000  
R24  23457080.101 6 125435541.842 6     -3986.902          41.000  
E10  25233687.983 8 132603931.109 8      -549.781          48.000  
E11  24284355.165 6 127615168.204 6      1039.812          41.000  
E12  26819860.931 7 140939299.991 7     -1726.743          44.000  
E24  26307452.894 6 138246596.014 6     -1543.674          40.000  
J 2  39415436.919 6 207129520.16726       401.239          38.000  
J 3  37892191.515 7 199124803.44927      -215.146          45.000  
J 4  38213449.605 5 200813024.435 5       -41.204          32.000  
> 2024 11 28 10 15 52.8020000  0 19                     
G 2  22651408.524 6 119033992.752 6      3132.810          40.000  
G10  25723235.826 7 135176540.256 7      1679.141          43.000  
G16  23423372.531 7 123090655.398 7     -2499.796          42.000  
G21  21149331.875 7 111140523.894 7      2271.852          42.000  
G23  25909612.894 3               3       187.645          23.000  
G26  25917792.632 3               3     -2930.987          23.000  
G27  21940599.085 8 115298601.476 8     -2479.232          48.000  
R14  22525864.580 5 120075483.110 5     -3003.099          34.000  
R15  19833708.884 6 105985268.406 6       -38.136          41.000  
R17  19825450.612 5 106089971.878 5     -1173.861          31.000  
R18  20447991.121 4               4      2664.468          25.000  
R24  23457229.318 6 125436339.163 6     -3986.365          41.000  
E10  25233708.888 8 132604041.006 8      -549.264          48.000  
E11  24284315.745 6 127614960.218 6      1039.970          41.000  
E12  26819926.649 7 140939645.284 7     -1726.270          44.000  
E24  26307511.684 6 138246904.659 6     -1542.887          40.000  
J 2  39415421.545 6 207129439.84726       401.721          38.000  
J 3  37892199.559 7 199124846.39327      -214.380          45.000  
J 4  38213452.693 5 200813032.651 5       -40.903          32.000  
> 2024 11 28 10 15 53.0020000  0 19                     
G 2  22651289.252 6 119033366.330 6      3132.292          40.000  
G10  25723172.098 7 135176204.430 7      1678.967          43.000  
G16  23423467.722 7 123091155.421 7     -2500.053          42.000  
G21  21149245.427 7 111140069.616 7      2271.157          42.000  
G23  25909606.508 3               3       176.605          23.000  
G26  25917903.091 3               3     -2929.380          23.000  
G27  21940693.631 8 115299097.366 8     -2479.540          48.000  
R14  22525977.221 5 120076083.811 5     -3003.598          34.000  
R15  19833710.263 6 105985276.108 6       -38.674          41.000  
R17  19825491.131 5 106090206.649 5     -1172.762          31.000  
R18  20447890.748 4               4      2663.207          25.000  
R24  23457378.378 6 125437136.455 6     -3986.445          41.000  
E10  25233729.794 7 132604150.906 7      -549.755          47.000  
E11  24284276.342 6 127614752.246 6      1039.580          41.000  
E12  26819992.331 7 140939990.572 7     -1726.537          44.000  
E24  26307570.352 6 138247213.313 6     -1543.409          40.000  
J 2  39415406.241 6 207129359.53026       401.544          38.000  
J 3  37892207.656 7 199124889.34627      -214.866          45.000  
J 4  38213455.206 5 200813040.902 5       -41.960          33.000  
> 2024 11 28 10 15 53.2020000  0 19                     
G 2  22651169.875 6 119032739.887 6      3132.203          40.000  
G10  25723108.248 7 135175868.603 7      1679.091          43.000  
G16  23423562.860 7 123091655.419 7     -2499.964          42.000  
G21  21149159.031 7 111139615.321 7      2271.626          42.000  
G23  25909601.447 3               3       172.916          23.000  
G26  25918014.529 3               3     -2933.176          23.000  
G27  21940788.106 8 115299593.234 8     -2479.302          48.000  
R14  22526089.722 5 120076684.511 5     -3003.907          34.000  
R15  19833711.694 6 105985283.779 6       -38.372          41.000  
R17  19825534.163 5 106090441.487 5     -1174.525          31.000  
R18  20447791.072 4               4      2663.270          25.000  
R24  23457527.525 6 125437933.720 6     -3986.251          41.000  
E10  25233750.472 7 132604260.779 7      -549.214          47.000  
E11  24284236.783 6 127614544.243 6      1040.162          41.000  
E12  26820057.909 7 140940335.834 7     -1726.146          44.000  
E24  26307629.333 6 138247521.934 6     -1543.120          40.000  
J 2  39415390.990 6 207129279.14726       401.843          38.000  
J 3  37892215.928 7 199124932.25727      -214.474          45.000  
J 4  38213456.567 5 200813049.002 5       -40.675          33.000  
> 2024 11 28 10 15 53.4020000  0 19                     
G 2  22651050.516 6 119032113.421 6      3132.173          40.000  
G10  25723044.363 7 135175532.763 7      1678.853          43.000  
G16  23423657.964 7 123092155.411 7     -2499.795          42.000  
G21  21149072.495 7 111139161.039 7      2270.973          42.000  
G23  25909595.287 4               4       179.275          24.000  
G26  25918126.856 4               4     -2919.694          24.000  
G27  21940882.372 8 115300089.108 8     -2479.337          49.000  
R14  22526202.363 5 120077285.194 5     -3004.143          34.000  
R15  19833713.124 6 105985291.470 6       -38.296          41.000  
R17  19825581.802 5 106090676.251 5     -1173.561          31.000  
R18  20447691.030 4               4      2663.900          25.000  
R24  23457676.620 6 125438731.006 6     -3986.175          41.000  
E10  25233771.308 7 132604370.681 7      -549.604          47.000  
E11  24284197.310 6 127614336.269 6      1039.801          41.000  
E12  26820123.801 7 140940681.115 7     -1726.303          44.000  
E24  26307687.931 6 138247830.537 6     -1543.148          40.000  
J 2  39415375.738 6 207129198.78326       401.764          38.000  
J 3  37892224.217 7 199124975.17127      -214.871          45.000  
J 4  38213457.248 5 200813057.122 5       -40.298          33.000  
> 2024 11 28 10 15 53.6020000  0 19                     
G 2  22650931.418 6 119031487.033 6      3132.171          40.000  
G10  25722980.652 7 135175196.948 7      1679.413          43.000  
G16  23423753.085 7 123092655.454 7     -2500.230          42.000  
G21  21148986.134 7 111138706.797 7      2271.184          42.000  
G23  25909587.347 4               4       177.522          24.000  
G26  25918238.485 4               4     -2925.738          24.000  
G27  21940976.708 8 115300585.009 8     -2479.581          49.000  
R14  22526314.917 5 120077885.892 5     -3003.438          34.000  
R15  19833714.712 6 105985299.227 6       -39.015          41.000  
R17  19825624.782 5 106090911.159 5     -1174.638          31.000  
R18  20447592.837 4               4      2663.499          26.000  
R24  23457825.662 6 125439528.316 6     -3986.671          41.000  
E10  25233792.492 7 132604480.620 7      -549.708          47.000  
E11  24284157.663 6 127614128.325 6      1039.867          41.000  
E12  26820189.588 7 140941026.438 7     -1726.634          44.000  
E24  26307746.843 6 138248139.193 6     -1543.210          40.000  
J 2  39415360.434 6 207129118.43526       401.648          38.000  
J 3  37892232.279 7 199125018.10127      -214.574          45.000  
J 4  38213458.400 5 200813065.338 5       -40.878          33.000  
> 2024 11 28 10 15 53.8020000  0 19                     
G 2  22650811.989 6 119030860.654 6      3131.885          40.000  
G10  25722916.871 7 135174861.172 7      1679.268          43.000  
G16  23423848.346 7 123093155.493 7     -2500.259          42.000  
G21  21148899.790 7 111138252.599 7      2271.311          42.000  
G23  25909580.315 3               3       184.936          23.000  
G26  25918350.934 4               4     -2941.698          25.000  
G27  21941071.096 8 115301080.929 8     -2479.536          49.000  
R14  22526427.558 5 120078486.646 5     -3003.925          34.000  
R15  19833716.196 6 105985306.984 6       -38.612          41.000  
R17  19825669.333 5 106091146.026 5     -1174.099          31.000  
R18  20447493.773 4               4      2663.250          26.000  
R24  23457974.756 6 125440325.634 6     -3986.463          41.000  
E10  25233813.502 7 132604590.587 7      -549.802          47.000  
E11  24284118.313 6 127613920.418 6      1039.763          41.000  
E12  26820255.463 7 140941371.772 7     -1726.668          44.000  
E24  26307805.546 6 138248447.849 6     -1543.141          40.000  
J 2  39415345.270 6 207129038.07426       402.148          38.000  
J 3  37892240.358 7 199125061.05127      -214.507          45.000  
J 4  38213457.859 5 200813073.500 5       -40.227          33.000  
> 2024 11 28 10 15 54.0020000  0 19                     
G 2  22650692.577 6 119030234.235 6      3131.854          40.000  
G10  25722853.021 7 135174525.415 7      1678.508          43.000  
G16  23423943.432 7 123093655.507 7     -2500.500          42.000  
G21  21148813.290 7 111137798.388 7      2270.785          42.000  
G23  25909573.317 3               3       173.412          23.000  
G26  25918463.907 4               4     -2938.694          24.000  
G27  21941165.520 8 115301576.827 8     -2479.745          49.000  
R14  22526540.165 5 120079087.358 5     -3003.210          34.000  
R15  19833717.662 6 105985314.752 6       -39.177          41.000  
R17  19825709.922 5 106091381.002 5     -1175.159          31.000  
R18  20447394.254 4               4      2663.385          26.000  
R24  23458123.851 6 125441122.940 6     -3986.787          41.000  
E10  25233834.547 7 132604700.533 7      -549.956          47.000  
E11  24284078.771 6 127613712.489 6      1039.561          41.000  
E12  26820321.023 7 140941717.095 7     -1726.745          44.000  
E24  26307864.301 6 138248756.488 6     -1543.425          40.000  
J 2  39415329.949 6 207128957.68426       401.764          38.000  
J 3  37892248.560 7 199125103.96327      -214.712          45.000  
J 4  38213458.871 5 200813081.635 5       -40.285          32.000  
> 2024 11 28 10 15 54.2020000  0 19                     
G 2  22650573.287 6 119029607.851 6      3131.862          40.000  
G10  25722789.240 7 135174189.616 7      1678.979          43.000  
G16  23424038.553 7 123094155.529 7     -2500.351          42.000  
G21  21148726.859 7 111137344.201 7      2270.898          42.000  
G23  25909566.896 3               3       170.294          23.000  
G26  25918576.042 4               4     -2927.901          25.000  
G27  21941259.960 8 115302072.720 8     -2479.443          48.000  
R14  22526652.945 5 120079688.097 5     -3003.154          34.000  
R15  19833719.197 6 105985322.537 6       -38.834          41.000  
R17  19825754.664 5 106091615.900 5     -1174.214          31.000  
R18  20447294.840 4               4      2662.347          26.000  
R24  23458272.824 6 125441920.233 6     -3986.620          41.000  
E10  25233855.313 7 132604810.511 7      -549.916          47.000  
E11  24284039.072 6 127613504.592 6      1039.079          41.000  
E12  26820386.654 7 140942062.444 7     -1726.871          44.000  
E24  26307922.951 6 138249065.126 6     -1543.287          40.000  
J 2  39415314.575 6 207128877.31126       401.721          38.000  
J 3  37892256.691 7 199125146.89327      -214.722          45.000  
J 4  38213462.919 5 200813102.79335       -40.520          33.000  
> 2024 11 28 10 15 54.4020000  0 19                     
G 2  22650454.032 6 119028981.471 6      3131.768          40.000  
G10  25722725.530 7 135173853.857 7      1678.856          43.000  
G16  23424133.552 7 123094655.567 7     -2500.294          42.000  
G21  21148640.375 7 111136890.044 7      2270.936          42.000  
G23  25909558.991 3               3       175.612          23.000  
G26  25918686.554 4               4     -2927.733          25.000  
G27  21941354.331 8 115302568.646 8     -2479.576          49.000  
R14  22526765.639 5 120080288.887 5     -3003.599          34.000  
R15  19833720.663 6 105985330.357 6       -39.012          41.000  
R17  19825799.494 5 106091850.895 5     -1174.855          31.000  
R18  20447194.815 4               4      2663.056          26.000  
R24  23458421.936 6 125442717.548 6     -3986.383          41.000  
E10  25233876.201 7 132604920.508 7      -549.991          47.000  
E11  24283999.547 6 127613296.704 6      1039.448          41.000  
E12  26820452.336 7 140942407.790 7     -1726.598          44.000  
E24  26307981.636 6 138249373.764 6     -1543.221          40.000  
J 2  39415299.306 6 207128796.91926       401.721          38.000  
J 3  37892264.771 7 199125189.81427      -214.533          45.000  
J 4  38213464.943 5 200813110.96125       -40.681          33.000  
> 2024 11 28 10 15 54.6020000  0 19                     
G 2  22650334.847 6 119028355.122 6      3131.937          40.000  
G10  25722661.575 7 135173518.115 7      1678.724          43.000  
G16  23424228.795 7 123095155.596 7     -2500.028          42.000  
G21  21148553.997 7 111136435.930 7      2270.705          42.000  
G23  25909552.150 3               3       168.386          23.000  
G26  25918798.567 4               4     -2928.806          25.000  
G27  21941448.702 8 115303064.568 8     -2479.570          49.000  
R14  22526878.315 5 120080889.663 5     -3004.206          34.000  
R15  19833722.199 6 105985338.190 6       -39.041          41.000  
R17  19825846.487 5 106092085.913 5     -1175.088          31.000  
R18  20447095.890 4               4      2663.068          26.000  
R24  23458571.083 6 125443514.857 6     -3986.295          41.000  
E10  25233897.037 7 132605030.520 7      -550.044          47.000  
E11  24283959.778 6 127613088.843 6      1039.449          41.000  
E12  26820518.089 7 140942753.175 7     -1727.049          44.000  
E24  26308040.530 6 138249682.413 6     -1543.134          40.000  
J 2  39415284.090 6 207128716.53126       401.685          38.000  
J 3  37892272.938 7 199125232.74827      -214.630          45.000  
J 4  38213467.404 5 200813119.12425       -41.018          33.000  
> 2024 11 28 10 15 54.8020000  0 19                     
G 2  22650215.662 6 119027728.729 6      3132.231          40.000  
G10  25722597.794 7 135173182.350 7      1678.666          43.000  
G16  23424323.951 7 123095655.607 7     -2499.954          42.000  
G21  21148467.653 7 111135981.784 7      2270.443          42.000  
G23  25909544.681 3               3       173.427          23.000  
G26  25918909.672 4               4     -2927.995          25.000  
G27  21941543.090 8 115303560.468 8     -2479.567          49.000  
R14  22526991.026 5 120081490.403 5     -3003.423          34.000  
R15  19833723.577 6 105985346.029 6       -39.498          41.000  
R17  19825892.399 5 106092320.917 5     -1174.832          31.000  
R18  20446996.651 4               4      2664.002          26.000  
R24  23458720.212 6 125444312.153 6     -3986.292          41.000  
E10  25233917.907 7 132605140.520 7      -550.094          47.000  
E11  24283920.236 6 127612880.978 6      1039.231          41.000  
E12  26820583.719 7 140943098.520 7     -1726.876          44.000  
E24  26308099.407 6 138249991.048 6     -1543.349          40.000  
J 2  39415268.751 6 207128636.08926       402.136          39.000  
J 3  37892280.947 7 199125275.64927      -214.450          45.000  
J 4  38213469.829 5 200813127.21325       -40.282          33.000  
> 2024 11 28 10 15 55.0020000  0 19                     
G 2  22650096.355 6 119027102.370 6      3132.024          40.000  
G10  25722533.944 7 135172846.575 7      1678.596          43.000  
G16  23424419.107 7 123096155.617 7     -2499.942          42.000  
G21  21148381.083 7 111135527.641 7      2270.604          42.000  
G23  25909537.736 3               3       173.427          23.000  
G26  25919021.389 4               4     -2928.146          25.000  
G27  21941637.408 8 115304056.365 8     -2479.656          49.000  
R14  22527103.667 5 120082091.160 5     -3003.918          34.000  
R15  19833725.025 6 105985353.832 6       -39.085          41.000  
R17  19825938.188 5 106092555.890 5     -1174.194          31.000  
R18  20446897.830 4               4      2662.433          26.000  
R24  23458869.324 6 125445109.442 6     -3986.486          41.000  
E10  25233938.900 7 132605250.524 7      -550.068          47.000  
E11  24283880.955 6 127612673.105 6      1039.294          41.000  
E12  26820649.384 7 140943443.859 7     -1726.729          44.000  
E24  26308158.110 6 138250299.644 6     -1542.942          40.000  
J 2  39415253.429 6 207128555.65426       402.277          39.000  
J 3  37892289.062 7 199125318.53427      -214.469          45.000  
J 4  38213468.241 5 200813135.31125       -40.779          32.000  
> 2024 11 28 10 15 55.2020000  0 19                     
G 2  22649977.066 6 119026476.036 6      3131.710          40.000  
G10  25722469.884 7 135172510.832 7      1678.749          43.000  
G16  23424514.263 7 123096655.674 7     -2500.574          42.000  
G21  21148294.687 7 111135073.560 7      2270.286          42.000  
G23  25909531.664 3               3       183.018          23.000  
G26  25919133.402 4               4     -2927.417          25.000  
G27  21941731.744 8 115304552.297 8     -2479.796          49.000  
R14  22527216.291 5 120082691.951 5     -3003.876          34.000  
R15  19833726.369 6 105985361.731 6       -39.554          41.000  
R17  19825982.459 5 106092790.986 5     -1175.644          31.000  
R18  20446798.207 4               4      2663.890          26.000  
R24  23459018.402 6 125445906.766 6     -3986.833          41.000  
E10  25233959.980 7 132605360.576 7      -550.349          47.000  
E11  24283841.570 6 127612465.291 6      1038.783          41.000  
E12  26820715.067 7 140943789.275 7     -1727.232          44.000  
E24  26308216.813 6 138250608.312 6     -1543.418          40.000  
J 2  39415238.143 6 207128474.74816       401.678          39.000  
J 3  37892297.298 7 199125360.96317      -214.800          45.000  
J 4  38213470.475 5 200813143.43425       -41.016          32.000  
> 2024 11 28 10 15 55.4020000  0 19                     
G 2  22649857.968 6 119025849.738 6      3131.510          40.000  
G10  25722406.173 7 135172175.135 7      1678.283          43.000  
G16  23424609.437 7 123097155.717 7     -2500.292          42.000  
G21  21148208.395 7 111134619.511 7      2270.324          42.000  
G23  25909523.410 3               3       173.298          23.000  
G26  25919245.851 4               4     -2928.808          26.000  
G27  21941826.185 8 115305048.232 8     -2479.742          49.000  
R14  22527329.072 5 120083292.793 5     -3003.921          34.000  
R15  19833727.800 6 105985369.622 6       -39.233          41.000  
R17  19826026.277 5 106093026.098 5     -1175.684          31.000  
R18  20446699.980 4               4      2663.301          26.000  
R24  23459167.636 6 125446704.106 6     -3986.906          41.000  
E10  25233980.885 7 132605470.646 7      -550.297          47.000  
E11  24283801.818 6 127612257.484 6      1038.753          41.000  
E12  26820780.749 7 140944134.690 7     -1727.082          44.000  
E24  26308275.637 6 138250916.967 6     -1543.196          40.000  
J 2  39415222.804 6 207128394.309 6       402.112          39.000  
J 3  37892305.430 7 199125403.878 7      -214.610          45.000  
J 4  38213474.873 5 200813151.52225       -40.552          32.000  
> 2024 11 28 10 15 55.6020000  0 19                     
G 2  22649738.765 6 119025223.449 6      3131.696          40.000  
G10  25722342.480 7 135171839.442 7      1678.488          43.000  
G16  23424704.750 7 123097655.798 7     -2500.255          42.000  
G21  21148122.087 7 111134165.504 7      2270.377          42.000  
G23  25909517.093 3               3       177.709          23.000  
G26  25919356.660 4               4     -2927.635          26.000  
G27  21941920.538 8 115305544.199 8     -2479.624          49.000  
R14  22527442.009 5 120083893.614 5     -3003.702          34.000  
R15  19833729.214 6 105985377.587 6       -39.540          41.000  
R17  19826069.780 5 106093261.252 5     -1175.778          31.000  
R18  20446601.072 4               4      2661.428          26.000  
R24  23459316.661 6 125447501.458 6     -3986.662          41.000  
E10  25234001.790 7 132605580.767 7      -550.475          47.000  
E11  24283762.224 6 127612049.715 6      1038.949          41.000  
E12  26820846.554 7 140944480.136 7     -1727.095          44.000  
E24  26308334.340 6 138251225.658 6     -1543.359          40.000  
J 2  39415207.535 6 207128313.907 6       402.594          38.000  
J 3  37892313.597 7 199125446.814 7      -214.424          45.000  
J 4  38213477.700 5 200813159.63525       -39.818          32.000  
> 2024 11 28 10 15 55.8020000  0 19                     
G 2  22649619.685 6 119024597.176 6      3131.250          40.000  
G10  25722278.525 7 135171503.763 7      1678.455          43.000  
G16  23424799.784 7 123098155.871 7     -2500.575          42.000  
G21  21148035.725 7 111133711.516 7      2269.934          42.000  
G23  25909509.956 3               3       172.996          23.000  
G26  25919467.695 4               4     -2928.779          26.000  
G27  21942014.839 8 115306040.160 8     -2479.727          49.000  
R14  22527554.825 5 120084494.470 5     -3004.512          34.000  
R15  19833730.819 6 105985385.560 6       -40.080          41.000  
R17  19826114.139 5 106093496.435 5     -1175.388          31.000  
R18  20446501.780 4               4      2661.940          27.000  
R24  23459465.668 6 125448298.821 6     -3986.961          41.000  
E10  25234022.835 7 132605690.886 7      -550.733          47.000  
E11  24283722.577 6 127611841.943 6      1038.882          41.000  
E12  26820912.324 7 140944825.582 7     -1727.162          44.000  
E24  26308392.868 6 138251534.328 6     -1543.452          40.000  
J 2  39415192.284 6 207128233.498 6       401.825          39.000  
J 3  37892321.816 7 199125489.762 7      -214.731          45.000  
J 4  38213478.136 5 200813167.81625       -41.263          32.000  
> 2024 11 28 10 15 56.0020000  0 19                     
G 2  22649500.430 6 119023970.882 6      3131.428          40.000  
G10  25722214.709 7 135171168.073 7      1678.423          43.000  
G16  23424895.027 7 123098655.937 7     -2500.532          42.000  
G21  21147949.382 7 111133257.534 7      2269.797          42.000  
G23  25909502.155 3               3       180.592          23.000  
G26  25919578.120 4               4     -2928.956          26.000  
G27  21942109.262 8 115306536.131 8     -2479.812          49.000  
R14  22527667.484 5 120085095.314 5     -3004.673          34.000  
R15  19833732.372 6 105985393.520 6       -39.848          41.000  
R17  19826157.206 5 106093731.646 5     -1176.546          31.000  
R18  20446401.424 4               4      2661.630          27.000  
R24  23459614.763 6 125449096.162 6     -3986.898          41.000  
E10  25234043.845 7 132605801.004 7      -550.514          47.000  
E11  24283683.070 6 127611634.192 6      1038.881          41.000  
E12  26820978.076 7 140945171.051 7     -1727.371          44.000  
E24  26308451.413 6 138251842.990 6     -1543.440          40.000  
J 2  39415176.980 6 207128153.055 6       402.185          39.000  
J 3  37892329.982 7 199125532.681 7      -214.689          45.000  
J 4  38213479.445 5 200813175.87325       -40.593          32.000  
> 2024 11 28 10 15 56.2020000  0 19                     
G 2  22649381.210 6 119023344.691 6      3131.159          40.000  
G10  25722150.981 7 135170832.480 7      1678.018          43.000  
G16  23424990.183 7 123099156.070 7     -2500.839          42.000  
G21  21147862.916 7 111132803.640 7      2269.328          42.000  
G23  25909494.076 4               4       172.738          24.000  
G26  25919688.388 4               4     -2929.384          26.000  
G27  21942203.703 8 115307032.165 8     -2480.166          49.000  
R14  22527780.230 5 120085696.214 5     -3003.969          34.000  
R15  19833733.873 6 105985401.584 6       -40.419          41.000  
R17  19826201.215 5 106093966.915 5     -1176.589          31.000  
R18  20446302.272 4 109143675.17934      2661.404          27.000  
R24  23459763.718 6 125449893.573 6     -3986.827          41.000  
E10  25234064.803 7 132605911.224 7      -551.015          47.000  
E11  24283643.720 6 127611426.530 6      1038.272          41.000  
E12  26821043.532 7 140945516.575 7     -1727.681          44.000  
E24  26308510.151 6 138252151.749 6     -1543.788          40.000  
J 2  39415161.676 6 207128072.687 6       401.917          39.000  
J 3  37892338.132 7 199125575.687 7      -215.122          45.000  
J 4  38213482.533 5 200813184.06125       -40.682          32.000  
> 2024 11 28 10 15 56.4020000  0 19                     
G 2  22649262.165 6 119022718.465 6      3131.048          40.000  
G10  25722087.131 7 135170496.870 7      1678.107          43.000  
G16  23425085.392 7 123099656.193 7     -2500.474          42.000  
G21  21147776.555 7 111132349.710 7      2269.659          42.000  
G23  25909487.096 4               4       174.526          24.000  
G26  25919799.773 4               4     -2928.552          26.000  
G27  21942298.178 8 115307528.187 8     -2480.038          49.000  
R14  22527892.958 5 120086297.169 5     -3004.322          34.000  
R15  19833735.426 6 105985409.639 6       -40.109          41.000  
R17  19826245.626 5 106094202.218 5     -1176.395          31.000  
R18  20446203.940 4 109143142.79124      2662.459          27.000  
R24  23459912.760 6 125450690.994 6     -3986.940          41.000  
E10  25234085.883 7 132606021.431 7      -550.961          47.000  
E11  24283604.108 6 127611218.850 6      1038.319          41.000  
E12  26821109.110 7 140945862.112 7     -1727.708          44.000  
E24  26308568.731 6 138252460.461 6     -1543.630          40.000  
J 2  39415146.407 6 207127992.276 6       402.130          39.000  
J 3  37892346.316 7 199125618.622 7      -214.661          45.000  
J 4  38213484.488 5 200813192.19925       -40.635          32.000  
> 2024 11 28 10 15 56.6020000  0 19                     
G 2  22649142.840 6 119022092.287 6      3130.833          40.000  
G10  25722023.333 7 135170161.284 7      1677.660          43.000  
G16  23425180.565 7 123100156.328 7     -2500.531          42.000  
G21  21147690.229 7 111131895.840 7      2269.280          42.000  
G23  25909481.320 3               3       171.713          23.000  
G26  25919910.896 4               4     -2929.096          26.000  
G27  21942392.619 8 115308024.232 8     -2480.382          49.000  
R14  22528005.686 5 120086898.078 5     -3004.506          34.000  
R15  19833736.961 6 105985417.726 6       -40.442          41.000  
R17  19826287.542 5 106094437.573 5     -1177.304          31.000  
R18  20446103.793 4 109142610.59824      2660.999          27.000  
R24  23460062.047 6 125451488.413 6     -3987.261          41.000  
E10  25234106.701 7 132606131.671 7      -551.290          47.000  
E11  24283564.513 6 127611011.207 6      1038.010          41.000  
E12  26821175.037 7 140946207.664 7     -1727.836          44.000  
E24  26308627.608 6 138252769.205 6     -1543.724          40.000  
J 2  39415131.051 6 207127911.898 6       401.837          38.000  
J 3  37892354.465 7 199125661.603 7      -214.751          45.000  
J 4  38213485.395 5 200813200.34225       -41.104          32.000  
> 2024 11 28 10 15 56.8020000  0 19                     
G 2  22649023.586 6 119021466.058 6      3130.765          39.000  
G10  25721959.552 7 135169825.658 7      1678.248          42.000  
G16  23425275.599 6 123100656.420 6     -2500.035          41.000  
G21  21147603.798 6 111131441.960 6      2269.248          41.000  
G23  25909474.584 3               3       173.710          23.000  
G26  25920023.956 4               4     -2932.912          25.000  
G27  21942487.077 8 115308520.237 8     -2480.018          48.000  
R14  22528118.362 5 120087498.999 5     -3004.074          34.000  
R15  19833738.445 6 105985425.808 6       -40.256          41.000  
R17  19826329.893 5 106094672.891 5     -1176.509          31.000  
R18  20446004.170 4 109142078.29324      2661.616          27.000  
R24  23460211.159 6 125452285.791 6     -3986.760          41.000  
E10  25234127.798 7 132606241.887 7      -551.114          47.000  
E11  24283524.918 6 127610803.540 6      1038.209          41.000  
E12  26821240.685 7 140946553.202 7     -1727.614          43.000  
E24  26308686.346 6 138253077.893 6     -1543.429          39.000  
J 2  39415115.712 6 207127831.465 6       401.721          38.000  
J 3  37892362.492 7 199125704.555 7      -214.910          44.000  
J 4  38213485.081 5 200813208.43625       -40.948          32.000  
> 2024 11 28 10 15 57.0020000  0 19                     
G 2  22648904.313 6 119020839.851 6      3130.927          40.000  
G10  25721895.824 7 135169490.040 7      1678.163          42.000  
G16  23425370.755 6 123101156.513 6     -2500.145          41.000  
G21  21147517.594 6 111130988.088 6      2269.286          41.000  
G23  25909467.394 3               3       173.220          23.000  
G26  25920134.678 4               4     -2927.573          25.000  
G27  21942581.360 8 115309016.229 8     -2479.935          48.000  
R14  22528231.213 5 120088099.944 5     -3004.912          34.000  
R15  19833740.050 6 105985433.894 6       -40.365          41.000  
R17  19826374.321 5 106094908.257 5     -1177.502          31.000  
R18  20445904.023 4 109141546.07124      2661.027          27.000  
R24  23460360.393 6 125453083.162 6     -3986.542          41.000  
E10  25234148.704 7 132606352.093 7      -551.046          47.000  
E11  24283485.341 6 127610595.866 6      1038.450          41.000  
E12  26821306.664 7 140946898.718 7     -1727.514          43.000  
E24  26308745.257 6 138253386.581 6     -1543.504          39.000  
J 2  39415100.339 6 207127750.971 6       402.563          38.000  
J 3  37892370.484 7 199125747.481 7      -214.694          44.000  
J 4  38213487.367 5 200813216.49625       -40.778          32.000  
> 2024 11 28 10 15 57.2020000  0 19                     
G 2  22648784.989 6 119020213.590 6      3131.523          40.000  
G10  25721831.869 7 135169154.373 7      1678.737          42.000  
G16  23425465.981 6 123101656.572 6     -2499.886          41.000  
G21  21147431.145 6 111130534.211 6      2269.360          41.000  
G23  25909460.345 3               3       174.523          23.000  
G26  25920245.609 4               4     -2927.717          24.000  
G27  21942675.784 8 115309512.166 8     -2479.379          48.000  
R14  22528343.872 5 120088700.812 5     -3004.418          34.000  
R15  19833741.586 6 105985441.951 6       -40.175          41.000  
R17  19826419.989 5 106095143.512 5     -1175.961          31.000  
R18  20445803.963 4 109141013.75724      2661.866          27.000  
R24  23460509.575 6 125453880.474 6     -3986.372          41.000  
E10  25234169.627 7 132606462.271 7      -550.615          47.000  
E11  24283445.799 6 127610388.161 6      1038.930          41.000  
E12  26821372.329 7 140947244.202 7     -1727.244          43.000  
E24  26308804.047 6 138253695.209 6     -1542.794          39.000  
J 2  39415085.070 6 207127670.465 6       403.235          38.000  
J 3  37892378.651 7 199125790.359 7      -214.157          44.000  
J 4  38213488.379 5 200813224.53725       -39.825          32.000  
> 2024 11 28 10 15 57.4020000  0 19                     
G 2  22648665.839 6 119019587.357 6      3131.208          39.000  
G10  25721768.123 7 135168818.702 7      1678.375          42.000  
G16  23425560.893 6 123102156.595 6     -2499.941          41.000  
G21  21147344.697 6 111130080.304 6      2269.562          41.000  
G23  25909453.626 3               3       174.489          23.000  
G26  25920356.801 4               4     -2927.725          25.000  
G27  21942770.137 8 115310008.102 8     -2479.550          48.000  
R14  22528456.600 5 120089301.674 5     -3004.559          34.000  
R15  19833743.104 6 105985449.993 6       -40.206          41.000  
R17  19826463.824 5 106095378.795 5     -1174.861          31.000  
R18  20445704.288 4 109140481.49324      2661.445          27.000  
R24  23460658.740 6 125454677.761 6     -3986.464          41.000  
E10  25234190.445 7 132606572.445 7      -550.876          47.000  
E11  24283406.274 6 127610180.472 6      1038.356          41.000  
E12  26821437.785 7 140947589.662 7     -1727.273          43.000  
E24  26308862.785 6 138254003.838 6     -1542.998          39.000  
J 2  39415069.783 6 207127589.930 6       402.759          38.000  
J 3  37892386.748 7 199125833.223 7      -214.115          44.000  
J 4  38213489.793 5 200813232.59125       -40.533          32.000  
> 2024 11 28 10 15 57.6020000  0 19                     
G 2  22648546.689 6 119018961.117 6      3131.194          39.000  
G10  25721704.238 7 135168483.038 7      1678.249          42.000  
G16  23425656.014 6 123102656.652 6     -2500.127          41.000  
G21  21147258.440 6 111129626.451 6      2269.275          41.000  
G23  25909444.604 3               3       173.676          23.000  
G26  25920468.622 4               4     -2926.311          25.000  
G27  21942864.490 8 115310504.048 8     -2479.882          48.000  
R14  22528569.363 5 120089902.569 5     -3004.764          34.000  
R15  19833744.640 6 105985458.080 6       -40.385          41.000  
R17  19826507.100 5 106095614.207 5     -1176.718          31.000  
R18  20445605.066 4 109139949.20024      2661.738          27.000  
R24  23460807.974 7 125455475.061 7     -3986.479          42.000  
E10  25234211.263 7 132606682.640 7      -550.988          47.000  
E11  24283366.610 6 127609972.789 6      1038.339          41.000  
E12  26821503.450 7 140947935.157 7     -1727.576          43.000  
E24  26308921.487 6 138254312.467 6     -1543.044          39.000  
J 2  39415054.410 6 207127509.394 6       402.795          38.000  
J 3  37892395.002 7 199125876.099 7      -214.245          44.000  
J 4  38213490.962 5 200813240.58425       -40.563          32.000  
> 2024 11 28 10 15 57.8020000  0 19                     
G 2  22648427.416 6 119018334.878 6      3131.381          39.000  
G10  25721640.493 7 135168147.397 7      1678.290          42.000  
G16  23425751.170 6 123103156.692 6     -2500.499          41.000  
G21  21147172.062 6 111129172.614 6      2269.228          41.000  
G23  25909436.193 3               3       174.428          23.000  
G26  25920580.217 4               4     -2927.757          25.000  
G27  21942958.966 8 115310999.997 8     -2479.818          48.000  
R14  22528682.127 5 120090503.485 5     -3005.225          34.000  
R15  19833746.036 6 105985466.175 6       -40.522          41.000  
R17  19826553.779 5 106095849.567 5     -1176.587          31.000  
R18  20445505.163 4 109139417.02124      2661.002          27.000  
R24  23460957.103 7 125456272.356 7     -3986.549          42.000  
E10  25234232.203 7 132606792.853 7      -551.069          47.000  
E11  24283327.225 6 127609765.120 6      1038.099          41.000  
E12  26821569.220 7 140948280.667 7     -1727.572          43.000  
E24  26308980.399 6 138254621.106 6     -1543.253          39.000  
J 2  39415039.141 6 207127428.859 6       402.655          38.000  
J 3  37892403.378 7 199125918.978 7      -214.397          44.000  
J 4  38213492.218 5 200813248.56625       -39.897          32.000  
> 2024 11 28 10 15 58.0020000  0 19                     
G 2  22648308.371 6 119017708.655 6      3131.077          39.000  
G10  25721576.677 7 135167811.739 7      1677.914          42.000  
G16  23425846.483 6 123103656.717 6     -2500.392          41.000  
G21  21147085.718 6 111128718.769 6      2268.967          41.000  
G23  25909427.748 3               3       173.044          23.000  
G26  25920691.130 4               4     -2927.369          24.000  
G27  21943053.371 8 115311495.941 8     -2479.761          48.000  
R14  22528794.977 5 120091104.349 5     -3004.499          34.000  
R15  19833747.571 6 105985474.286 6       -40.788          41.000  
R17  19826598.749 5 106096085.045 5     -1177.695          31.000  
R18  20445405.610 4 109138884.76824      2661.682          27.000  
R24  23461106.338 7 125457069.654 7     -3986.526          42.000  
E10  25234253.213 7 132606903.076 7      -551.296          47.000  
E11  24283287.648 6 127609557.438 6      1038.410          41.000  
E12  26821634.955 7 140948626.172 7     -1727.705          43.000  
E24  26309039.119 6 138254929.713 6     -1543.090          39.000  
J 2  39415023.767 6 207127348.304 6       402.362          38.000  
J 3  37892411.457 7 199125961.827 7      -214.569          44.000  
J 4  38213490.403 5 200813256.51225       -39.831          32.000  
> 2024 11 28 10 15 58.2020000  0 19                     
G 2  22648189.099 6 119017082.485 6      3130.480          39.000  
G10  25721512.879 7 135167476.150 7      1677.822          42.000  
G16  23425941.482 6 123104156.806 6     -2500.474          41.000  
G21  21146999.409 6 111128264.999 6      2268.694          41.000  
G23  25909419.895 3               3       174.964          22.000  
G26  25920800.491 4               4     -2928.214          24.000  
G27  21943147.742 8 115311991.940 8     -2480.005          48.000  
R14  22528907.636 5 120091705.300 5     -3004.861          34.000  
R15  19833748.967 6 105985482.462 6       -40.884          41.000  
R17  19826638.465 5 106096320.497 5     -1178.343          31.000  
R18  20445305.864 4 109138352.63224      2660.356          27.000  
R24  23461255.415 7 125457867.011 7     -3986.707          42.000  
E10  25234274.101 7 132607013.358 7      -551.505          47.000  
E11  24283248.245 6 127609349.830 6      1038.181          41.000  
E12  26821700.934 7 140948971.732 7     -1727.844          43.000  
E24  26309097.700 6 138255238.391 6     -1543.232          39.000  
J 2  39415008.463 6 207127267.774 6       402.527          38.000  
J 3  37892419.624 7 199126004.718 7      -214.513          44.000  
J 4  38213492.009 5 200813264.52125       -39.412          32.000  
> 2024 11 28 10 15 58.4020000  0 19                     
G 2  22648069.896 6 119016456.366 6      3130.516          39.000  
G10  25721449.064 7 135167140.596 7      1677.717          42.000  
G16  23426036.620 6 123104656.930 6     -2500.927          41.000  
G21  21146913.083 6 111127811.300 6      2268.061          41.000  
G23  25909411.728 3               3       171.047          22.000  
G26  25920910.113 4               4     -2929.877          25.000  
G27  21943242.235 8 115312487.983 8     -2480.298          48.000  
R14  22529020.347 5 120092306.322 5     -3004.925          34.000  
R15  19833750.520 6 105985490.710 6       -41.539          41.000  
R17  19826680.974 5 106096556.003 5     -1177.748          31.000  
R18  20445204.845 4 109137820.51924      2660.610          27.000  
R24  23461404.544 7 125458664.386 7     -3986.859          42.000  
E10  25234294.954 7 132607123.695 7      -551.824          47.000  
E11  24283208.651 6 127609142.304 6      1037.454          41.000  
E12  26821766.914 7 140949317.349 7     -1728.242          43.000  
E24  26309156.611 6 138255547.120 6     -1543.809          39.000  
J 2  39414993.159 6 207127187.290 6       402.246          38.000  
J 3  37892427.826 7 199126047.666 7      -214.768          44.000  
J 4  38213497.680 5 200813272.63925       -40.720          32.000  
> 2024 11 28 10 15 58.6020000  0 19                     
G 2  22647950.764 6 119015830.361 6      3130.424          39.000  
G10  25721385.248 7 135166805.070 7      1677.850          42.000  
G16  23426131.742 7 123105157.083 7     -2500.498          42.000  
G21  21146826.896 6 111127357.675 6      2267.905          41.000  
G23  25909404.225 3               3       175.995          22.000  
G26  25921020.311 4               4     -2929.648          25.000  
G27  21943336.658 8 115312984.068 8     -2480.433          48.000  
R14  22529133.145 5 120092907.356 5     -3005.035          34.000  
R15  19833752.021 6 105985498.999 6       -41.203          41.000  
R17  19826722.959 5 106096791.600 5     -1177.333          32.000  
R18  20445104.471 4 109137288.59024      2659.828          27.000  
R24  23461553.604 6 125459461.775 6     -3986.584          41.000  
E10  25234316.069 7 132607234.084 7      -551.929          47.000  
E11  24283169.213 6 127608934.828 6      1037.196          41.000  
E12  26821832.736 7 140949662.993 7     -1728.297          43.000  
E24  26309215.297 6 138255855.871 6     -1543.985          39.000  
J 2  39414977.960 6 207127106.819 6       402.399          38.000  
J 3  37892436.045 7 199126090.670 7      -214.900          44.000  
J 4  38213496.965 5 200813280.71725       -39.965          31.000  
> 2024 11 28 10 15 58.8020000  0 19                     
G 2  22647831.683 6 119015204.357 6      3129.038          37.000  
G10  25721321.223 7 135166469.521 7      1677.637          42.000  
G16  23426226.898 7 123105657.228 7     -2500.981          43.000  
G21  21146740.640 6 111126904.111 6      2267.496          41.000  
G23  25909396.896 3               3       166.741          22.000  
G26  25921130.387 4               4     -2929.638          26.000  
G27  21943431.116 8 115313480.123 8     -2480.422          49.000  
R14  22529245.856 5 120093508.385 5     -3005.920          34.000  
R15  19833753.661 6 105985507.299 6       -41.841          41.000  
R17  19826768.766 5 106097027.197 5     -1177.725          31.000  
R18  20445004.010 4 109136756.53924      2659.966          27.000  
R24  23461702.908 6 125460259.149 6     -3987.055          41.000  
E10  25234337.044 7 132607344.452 7      -552.198          47.000  
E11  24283129.514 6 127608727.321 6      1037.088          41.000  
E12  26821898.453 7 140950008.613 7     -1728.011          43.000  
E24  26309274.139 6 138256164.578 6     -1543.738          39.000  
J 2  39414962.796 6 207127026.338 6       402.270          38.000  
J 3  37892444.246 7 199126133.646 7      -214.860          44.000  
J 4  38213498.500 5 200813288.79825       -40.438          31.000  
> 2024 11 28 10 15 59.0020000  0 18                     
G 2  22647712.603 5 119014578.401 5      3129.703          35.000  
G10  25721257.286 6 135166134.034 6      1677.233          40.000  
G16  23426322.123 7 123106157.317 7     -2500.510          44.000  
G21  21146654.349 6 111126450.540 6      2267.914          41.000  
G23  25909390.596 5               5       176.036          30.000  
G26  25921240.411 5               5     -2928.780          31.000  
G27  21943525.557 8 115313976.139 8     -2480.103          49.000  
R14  22529358.672 6 120094109.372 6     -3005.116          37.000  
R15  19833755.249 6 105985515.601 6       -41.075          41.000  
R17  19826810.699 5 106097262.853 5     -1178.684          31.000  
R24  23461851.933 6 125461056.464 6     -3986.820          41.000  
E10  25234358.106 7 132607454.793 7      -551.562          47.000  
E11  24283090.042 6 127608519.789 6      1037.692          41.000  
E12  26821964.293 7 140950354.202 7     -1727.828          42.000  
E24  26309332.754 6 138256473.250 6     -1543.431          41.000  
J 2  39414947.562 6 207126945.836 6       402.747          38.000  
J 3  37892452.343 7 199126176.613 7      -214.645          45.000  
J 4  38213498.884 4 200813291.38134       -44.256          26.000  
> 2024 11 28 10 15 59.2020000  0 18                     
G 2  22647593.505 5 119013952.442 5      3129.614          35.000  
G10  25721193.313 6 135165798.526 6      1676.963          40.000  
G16  23426417.227 7 123106657.486 7     -2501.099          44.000  
G21  21146568.057 6 111125996.982 6      2267.432          41.000  
G23  25909384.855 5               5       173.320          31.000  
G26  25921351.446 5 136217631.01635     -2929.685          31.000  
G27  21943619.840 7 115314472.165 7     -2480.397          47.000  
R14  22529471.383 6 120094710.500 6     -3006.079          39.000  
R15  19833756.802 6 105985523.953 6       -42.413          41.000  
R17  19826854.674 5 106097498.436 5     -1177.947          31.000  
R24  23462001.080 6 125461853.822 6     -3986.949          41.000  
E10  25234378.994 7 132607565.201 7      -552.354          47.000  
E11  24283050.587 6 127608312.342 6      1036.938          41.000  
E12  26822030.325 7 140950699.801 7     -1728.103          42.000  
E24  26309391.456 6 138256782.012 6     -1544.252          41.000  
J 2  39414932.311 6 207126865.340 6       402.142          40.000  
J 3  37892460.527 7 199126219.595 7      -215.224          45.000  
J 4  38213499.914 4               4       -41.451          25.000  
> 2024 11 28 10 15 59.4020000  0 18                     
G 2  22647474.565 6 119013326.405 6      3130.361          37.000  
G10  25721129.463 6 135165463.039 6      1677.692          38.000  
G16  23426512.540 7 123107157.652 7     -2500.460          44.000  
G21  21146481.714 6 111125543.403 6      2268.123          41.000  
G23  25909381.435 5               5       172.066          34.000  
G26  25921466.600 5 136218216.84025     -2929.428          31.000  
G27  21943714.141 7 115314968.293 7     -2480.676          47.000  
R14  22529584.198 6 120095311.612 6     -3005.386          39.000  
R15  19833758.425 6 105985532.331 6       -41.897          41.000  
R17  19826899.905 5 106097734.208 5     -1178.510          31.000  
R24  23462150.122 6 125462651.311 6     -3987.489          41.000  
E10  25234400.004 7 132607675.655 7      -552.183          47.000  
E11  24283010.975 6 127608104.896 6      1037.569          41.000  
E12  26822095.850 7 140951045.562 7     -1728.885          42.000  
E24  26309450.089 6 138257090.746 6     -1543.296          41.000  
J 2  39414917.042 6 207126784.867 6       402.539          40.000  
J 3  37892468.729 7 199126262.562 7      -214.593          45.000  
J 4  38213503.875 4               4       -37.564          25.000  
> 2024 11 28 10 15 59.6020000  0 18                     
G 2  22647355.554 6 119012700.404 6      3130.259          37.000  
G10  25721065.421 6 135165127.566 6      1676.611          38.000  
G16  23426607.749 7 123107657.845 7     -2501.496          44.000  
G21  21146395.370 7 111125089.845 7      2267.550          42.000  
G23  25909376.828 5 136154683.59135       172.146          34.000  
G26  25921578.526 5 136218802.68525     -2929.811          32.000  
G27  21943808.460 7 115315464.362 7     -2480.667          47.000  
R14  22529696.979 6 120095912.763 6     -3006.405          39.000  
R15  19833760.100 6 105985540.706 6       -42.117          41.000  
R17  19826944.176 5 106097969.933 5     -1179.232          31.000  
R24  23462299.235 6 125463448.724 6     -3987.355          41.000  
E10  25234421.049 7 132607786.091 7      -552.590          47.000  
E11  24282971.450 6 127607897.457 6      1036.997          41.000  
E12  26822161.515 7 140951391.246 7     -1728.716          42.000  
E24  26309508.879 7 138257399.503 7     -1544.052          42.000  
J 2  39414901.842 6 207126704.351 6       402.222          40.000  
J 3  37892476.861 7 199126305.517 7      -214.995          45.000  
J 4  38213510.768 4               4       -38.597          25.000  
> 2024 11 28 10 15 59.8020000  0 18                     
G 2  22647236.544 6 119012074.391 6      3129.527          37.000  
G10  25721001.483 6 135164792.039 6      1678.108          38.000  
G16  23426702.940 7 123108157.979 7     -2500.649          44.000  
G21  21146309.044 6 111124636.277 6      2267.389          41.000  
G23  25909368.940 5 136154649.05525       172.439          35.000  
G26  25921688.620 5 136219388.40325     -2928.269          32.000  
G27  21943902.761 7 115315960.374 7     -2480.330          47.000  
R14  22529809.795 6 120096513.876 6     -3004.940          39.000  
R15  19833761.601 6 105985549.065 6       -41.851          41.000  
R17  19826989.389 5 106098205.635 5     -1178.659          31.000  
R24  23462448.312 7 125464246.086 7     -3986.843          42.000  
E10  25234442.077 7 132607896.488 7      -551.816          47.000  
E11  24282932.117 6 127607690.021 6      1037.346          41.000  
E12  26822227.303 7 140951736.884 7     -1728.232          42.000  
E24  26309567.669 7 138257708.209 7     -1543.054          42.000  
J 2  39414886.608 6 207126623.793 6       402.704          40.000  
J 3  37892485.045 7 199126348.451 7      -214.819          45.000  
J 4  38213512.233 4               4       -43.741          26.000  
> 2024 11 28 10 16  0.0020000  0 18                     
G 2  22647117.481 5 119011448.379 5      3130.778          35.000  
G10  25720937.441 6 135164456.476 6      1677.432          38.000  
G16  23426798.131 7 123108658.129 7     -2500.907          44.000  
G21  21146222.770 6 111124182.767 6      2267.844          41.000  
G23  25909365.695 5 136154614.52725       172.638          35.000  
G26  25921802.290 5 136219974.21325     -2928.599          33.000  
G27  21943996.957 7 115316456.408 7     -2480.308          47.000  
R14  22529922.575 6 120097115.048 6     -3005.837          39.000  
R15  19833763.119 6 105985557.483 6       -41.850          41.000  
R17  19827034.184 5 106098441.425 5     -1179.569          31.000  
R24  23462597.319 7 125465043.456 7     -3987.011          42.000  
E10  25234462.912 7 132608006.945 7      -552.494          47.000  
E11  24282892.662 6 127607482.624 6      1036.834          41.000  
E12  26822292.968 7 140952082.572 7     -1728.544          42.000  
E24  26309626.197 7 138258016.955 7     -1543.865          42.000  
J 2  39414871.305 6 207126543.277 6       402.643          40.000  
J 3  37892493.142 7 199126391.420 7      -214.702          45.000  
J 4  38213511.780 4               4       -40.509          26.000  
> 2024 11 28 10 16  0.2020000  0 18                     
G 2  22646998.453 5 119010822.456 5      3128.696          35.000  
G10  25720873.329 6 135164120.986 6      1677.512          39.000  
G16  23426893.287 7 123109158.249 7     -2501.066          45.000  
G21  21146136.356 6 111123729.290 6      2266.951          41.000  
G23  25909356.411 5 136154580.00725       172.716          34.000  
G26  25921913.553 5 136220559.99325     -2929.830          34.000  
G27  21944091.066 7 115316952.476 7     -2480.457          47.000  
R14  22530035.304 6 120097716.116 6     -3005.816          39.000  
R15  19833764.620 6 105985565.929 6       -42.563          41.000  
R17  19827079.171 5 106098677.171 5     -1178.875          31.000  
R24  23462746.239 7 125465840.878 7     -3987.117          42.000  
E10  25234483.905 7 132608117.399 7      -552.531          46.000  
E11  24282853.015 7 127607275.204 7      1036.643          42.000  
E12  26822358.685 7 140952428.265 7     -1728.708          42.000  
E24  26309684.830 7 138258325.646 7     -1543.677          42.000  
J 2  39414856.001 6 207126466.22836       402.380          40.000  
J 3  37892501.256 7 199126437.87037      -215.237          45.000  
J 4  38213508.220 4               4       -39.574          26.000  
> 2024 11 28 10 16  0.4020000  0 18                     
G 2  22646879.355 5 119010196.454 5      3129.601          35.000  
G10  25720809.496 6 135163785.667 6      1675.888          39.000  
G16  23426988.355 7 123109658.500 7     -2501.776          45.000  
G21  21146049.856 6 111123275.822 6      2267.407          41.000  
G23  25909351.263 5 136154545.58625       171.622          35.000  
G26  25922027.765 5 136221145.79525     -2929.463          34.000  
G27  21944185.297 7 115317448.620 7     -2480.819          47.000  
R14  22530148.119 6 120098317.357 6     -3006.788          41.000  
R15  19833766.016 6 105985574.432 6       -42.767          41.000  
R17  19827124.803 5 106098913.022 5     -1179.020          31.000  
R24  23462895.282 7 125466638.372 7     -3988.111          43.000  
E10  25234504.863 7 132608227.959 7      -552.922          46.000  
E11  24282813.560 7 127607067.872 7      1036.511          42.000  
E12  26822424.455 7 140952774.042 7     -1729.079          43.000  
E24  26309743.654 7 138258634.468 7     -1544.248          42.000  
J 2  39414840.662 6 207126385.71426       402.350          40.000  
J 3  37892509.423 7 199126480.83727      -214.899          45.000  
J 4  38213506.318 4               4       -38.808          26.000  
> 2024 11 28 10 16  0.6020000  0 18                     
G 2  22646760.502 5 119009570.390 5      3130.417          35.000  
G10  25720745.436 6 135163450.373 6      1676.744          40.000  
G16  23427083.686 7 123110158.784 7     -2501.120          44.000  
G21  21145963.529 6 111122822.332 6      2267.381          41.000  
G23  25909348.942 5 136154511.29725       172.219          34.000  
G26  25922136.811 5 136221731.65825     -2928.553          34.000  
G27  21944279.633 7 115317944.848 7     -2481.067          47.000  
R14  22530260.953 6 120098918.634 6     -3005.891          41.000  
R15  19833767.656 6 105985582.975 6       -42.623          41.000  
R17  19827165.828 5 106099148.983 5     -1179.570          31.000  
R24  23463044.272 7 125467435.966 7     -3987.688          43.000  
E10  25234525.838 7 132608338.582 7      -552.968          47.000  
E11  24282774.228 7 127606860.557 7      1036.861          42.000  
E12  26822490.260 7 140953119.915 7     -1729.272          43.000  
E24  26309802.514 7 138258943.315 7     -1543.815          42.000  
J 2  39414825.480 6 207126305.21526       402.771          40.000  
J 3  37892517.607 7 199126523.80227      -214.684          45.000  
J 4  38213507.941 4               4       -38.548          26.000  
> 2024 11 28 10 16  0.8020000  0 18                     
G 2  22646641.509 5 119008944.399 5      3129.368          35.000  
G10  25720681.481 6 135163115.001 6      1677.509          40.000  
G16  23427178.807 7 123110658.993 7     -2501.063          44.000  
G21  21145877.256 6 111122368.865 6      2267.082          41.000  
G23  25909343.044 5 136154476.91625       172.180          34.000  
G26  25922246.398 5 136222317.48725     -2929.169          34.000  
G27  21944374.108 7 115318440.959 7     -2480.140          46.000  
R14  22530373.698 6 120099519.826 6     -3005.706          40.000  
R15  19833769.244 6 105985591.502 6       -42.709          40.000  
R17  19827208.791 5 106099384.897 5     -1179.960          31.000  
R24  23463193.384 7 125468233.446 7     -3987.266          42.000  
E10  25234546.778 7 132608449.131 7      -552.579          47.000  
E11  24282734.616 7 127606653.221 7      1036.708          42.000  
E12  26822556.257 7 140953465.696 7     -1728.594          42.000  
E24  26309861.199 7 138259252.097 7     -1543.856          42.000  
J 2  39414810.211 6 207126224.66526       402.643          39.000  
J 3  37892525.774 7 199126566.74327      -214.731          45.000  
J 4  38213508.499 4               4       -39.373          26.000  
> 2024 11 28 10 16  1.0020000  0 18                     
G 2  22646522.498 5 119008318.417 5      3130.164          35.000  
G10  25720617.543 6 135162779.572 6      1677.289          40.000  
G16  23427273.754 7 123111159.145 7     -2500.342          44.000  
G21  21145790.947 7 111121915.438 7      2267.510          42.000  
G23  25909336.116 5 136154442.48925       173.153          33.000  
G26  25922357.294 5 136222903.22825     -2928.539          35.000  
G27  21944468.532 7 115318937.071 7     -2480.227          46.000  
R14  22530486.392 6 120100121.010 6     -3005.536          39.000  
R15  19833770.920 6 105985600.005 6       -42.034          40.000  
R17  19827253.027 5 106099620.757 5     -1178.349          31.000  
R24  23463342.461 6 125469030.880 6     -3987.098          41.000  
E10  25234567.631 7 132608559.674 7      -552.483          47.000  
E11  24282695.248 7 127606445.903 7      1036.725          42.000  
E12  26822622.027 7 140953811.476 7     -1728.870          42.000  
E24  26309919.814 7 138259560.831 7     -1543.318          42.000  
J 2  39414794.925 6 207126144.09726       403.320          39.000  
J 3  37892533.906 7 199126609.68027      -214.291          45.000  
J 4  38213513.385 4               4       -40.874          25.000  
> 2024 11 28 10 16  1.2020000  0 18                     
G 2  22646403.348 5 119007692.428 5      3129.751          35.000  
G10  25720553.501 6 135162444.101 6      1677.838          40.000  
G16  23427368.962 7 123111659.272 7     -2500.297          44.000  
G21  21145704.655 7 111121461.971 7      2267.373          42.000  
G23  25909331.143 5 136154408.10625       172.646          33.000  
G26  25922463.985 5 136223488.94725     -2928.381          35.000  
G27  21944563.042 7 115319433.144 7     -2480.049          46.000  
R14  22530599.208 6 120100722.131 6     -3005.417          39.000  
R15  19833772.525 6 105985608.491 6       -42.291          40.000  
R17  19827298.066 5 106099856.663 5     -1178.825          31.000  
R24  23463491.503 6 125469828.283 6     -3986.438          41.000  
E10  25234588.589 7 132608670.175 7      -552.321          47.000  
E11  24282655.932 7 127606238.512 7      1036.877          42.000  
E12  26822687.570 7 140954157.195 7     -1728.324          42.000  
E24  26309978.482 7 138259869.516 7     -1543.412          42.000  
J 2  39414779.586 6 207126063.47626       403.101          39.000  
J 3  37892542.020 7 199126652.55527      -214.275          45.000  
J 4  38213512.460 4               4       -40.475          25.000  
> 2024 11 28 10 16  1.4020000  0 18                     
G 2  22646284.163 6 119007066.366 6      3130.764          36.000  
G10  25720489.494 6 135162108.558 6      1678.124          40.000  
G16  23427464.101 7 123112159.321 7     -2499.808          44.000  
G21  21145618.347 7 111121008.482 7      2268.173          42.000  
G23  25909324.215 5 136154373.67025       172.358          33.000  
G26  25922578.598 5 136224074.57125     -2927.550          35.000  
G27  21944657.395 7 115319929.156 7     -2479.856          46.000  
R14  22530711.971 6 120101323.200 6     -3005.083          39.000  
R15  19833774.113 6 105985616.930 6       -41.721          40.000  
R17  19827342.547 5 106100092.535 5     -1178.763          30.000  
R24  23463640.476 6 125470625.636 6     -3986.528          41.000  
E10  25234609.669 7 132608780.642 7      -552.027          47.000  
E11  24282616.582 7 127606031.076 7      1037.565          42.000  
E12  26822753.444 7 140954502.866 7     -1728.149          42.000  
E24  26310037.219 7 138260178.125 7     -1542.579          42.000  
J 2  39414764.405 6 207125982.76026       404.175          39.000  
J 3  37892550.134 7 199126695.37427      -213.394          45.000  
J 4  38213514.328 4               4       -43.431          24.000  
> 2024 11 28 10 16  1.6020000  0 18                     
G 2  22646165.083 6 119006440.252 6      3130.573          36.000  
G10  25720425.434 6 135161772.966 6      1677.868          40.000  
G16  23427559.239 7 123112659.295 7     -2500.227          44.000  
G21  21145531.916 7 111120554.896 7      2267.697          42.000  
G23  25909318.753 5 136154339.18025       171.896          34.000  
G26  25922686.755 5 136224660.15225     -2928.086          35.000  
G27  21944751.749 7 115320425.056 7     -2479.852          47.000  
R14  22530824.647 6 120101924.187 6     -3005.311          39.000  
R15  19833775.579 6 105985625.244 6       -41.869          40.000  
R17  19827387.132 5 106100328.233 5     -1178.359          30.000  
R24  23463789.553 6 125471422.912 6     -3986.740          41.000  
E10  25234630.312 7 132608890.994 7      -552.038          47.000  
E11  24282577.058 7 127605823.526 7      1037.626          42.000  
E12  26822819.109 7 140954848.466 7     -1728.027          42.000  
E24  26310095.887 7 138260486.658 7     -1542.940          42.000  
J 2  39414749.083 6 207125901.93626       403.979          39.000  
J 3  37892558.301 7 199126738.09027      -213.732          45.000  
J 4  38213515.497 4               4       -40.726          24.000  
> 2024 11 28 10 16  1.8020000  0 18                     
G 2  22646046.107 5 119005814.239 5      3129.914          35.000  
G10  25720361.531 6 135161437.392 6      1677.590          40.000  
G16  23427654.308 7 123113159.270 7     -2500.005          44.000  
G21  21145445.590 7 111120101.383 7      2267.425          42.000  
G23  25909309.993 5 136154304.67925       172.313          33.000  
G26  25922800.460 5 136225245.68525     -2927.777          35.000  
G27  21944846.085 7 115320920.993 7     -2479.850          47.000  
R14  22530937.306 6 120102525.202 6     -3005.042          39.000  
R15  19833777.079 6 105985633.624 6       -42.116          40.000  
R17  19827430.199 5 106100564.085 5     -1179.482          31.000  
R24  23463938.630 6 125472220.204 6     -3986.669          41.000  
E10  25234651.322 7 132609001.401 7      -552.292          47.000  
E11  24282537.760 7 127605616.049 7      1037.223          42.000  
E12  26822884.984 7 140955194.098 7     -1728.131          42.000  
E24  26310154.485 7 138260795.184 7     -1542.601          42.000  
J 2  39414733.727 6 207125821.13426       404.126          39.000  
J 3  37892566.223 7 199126780.84927      -214.105          45.000  
J 4  38213519.824 4               4       -42.683          25.000  
> 2024 11 28 10 16  2.0020000  0 18                     
G 2  22645927.045 6 119005188.246 6      3129.719          36.000  
G10  25720297.646 6 135161101.988 6      1676.769          40.000  
G16  23427749.499 7 123113659.413 7     -2500.795          43.000  
G21  21145359.194 6 111119648.018 6      2266.582          41.000  
G23  25909302.717 5 136154270.25225       172.087          33.000  
G26  25922911.478 5 136225831.41825     -2929.260          31.000  
G27  21944940.298 7 115321417.043 7     -2480.297          47.000  
R14  22531050.139 6 120103126.372 6     -3006.087          39.000  
R15  19833778.650 6 105985642.182 6       -42.906          40.000  
R17  19827474.854 5 106100800.092 5     -1180.979          31.000  
R24  23464087.638 6 125473017.560 6     -3986.834          41.000  
E10  25234672.350 7 132609111.960 7      -553.026          47.000  
E11  24282498.409 7 127605408.743 7      1036.381          42.000  
E12  26822950.736 7 140955539.844 7     -1728.816          42.000  
E24  26310213.327 7 138261103.905 7     -1543.927          42.000  
J 2  39414718.423 6 207125740.48326       403.235          39.000  
J 3  37892574.268 7 199126823.71927      -214.526          45.000  
J 4  38213521.098 4               4       -38.839          26.000  
> 2024 11 28 10 16  2.2020000  0 18                     
G 2  22645808.121 6 119004562.254 6      3129.848          36.000  
G10  25720233.778 6 135160766.557 6      1677.198          40.000  
G16  23427844.864 7 123114159.550 7     -2500.792          43.000  
G21  21145272.850 6 111119194.631 6      2266.616          41.000  
G23  25909295.754 5 136154235.90725       171.536          33.000  
G26  25923020.891 5 136226417.10725     -2928.193          31.000  
G27  21945034.686 8 115321913.115 8     -2480.537          48.000  
R14  22531162.972 6 120103727.538 6     -3005.745          39.000  
R15  19833780.168 6 105985650.729 6       -42.812          40.000  
R17  19827519.876 5 106101036.058 5     -1181.251          31.000  
R24  23464236.732 6 125473814.961 6     -3987.291          41.000  
E10  25234693.482 7 132609222.537 7      -553.119          47.000  
E11  24282458.658 7 127605201.424 7      1036.412          42.000  
E12  26823016.349 7 140955885.607 7     -1729.134          42.000  
E24  26310271.977 6 138261412.588 6     -1543.499          41.000  
J 2  39414702.910 6 207125659.79426       403.485          38.000  
J 3  37892582.330 7 199126866.57727      -214.353          45.000  
J 4  38213517.748 4               4       -39.296          26.000  
> 2024 11 28 10 16  2.4020000  0 18                     
G 2  22645688.989 6 119003936.299 6      3130.222          36.000  
G10  25720169.823 6 135160431.137 6      1677.427          40.000  
G16  23427940.020 7 123114659.668 7     -2500.329          43.000  
G21  21145186.471 6 111118741.281 6      2267.019          41.000  
G23  25909290.310 5 136154201.60625       171.811          33.000  
G26  25923133.183 5 136227002.79225     -2928.170          31.000  
G27  21945129.075 8 115322409.179 8     -2479.939          48.000  
R14  22531275.665 6 120104328.711 6     -3005.924          39.000  
R15  19833781.878 6 105985659.306 6       -42.301          40.000  
R17  19827562.664 5 106101272.079 5     -1180.321          31.000  
R24  23464385.862 6 125474612.337 6     -3986.615          41.000  
E10  25234714.387 7 132609333.117 7      -552.715          47.000  
E11  24282419.308 7 127604994.113 7      1036.764          42.000  
E12  26823082.067 7 140956231.389 7     -1728.674          42.000  
E24  26310330.924 6 138261721.271 6     -1543.392          41.000  
J 2  39414687.624 6 207125579.11626       403.595          38.000  
J 3  37892590.497 7 199126909.43427      -214.016          45.000  
J 4  38213516.997 4               4       -39.641          26.000  
> 2024 11 28 10 16  2.6020000  0 18                     
G 2  22645569.961 6 119003310.438 6      3129.165          36.000  
G10  25720106.077 6 135160095.816 6      1676.610          41.000  
G16  23428035.386 7 123115159.882 7     -2501.268          43.000  
G21  21145100.145 6 111118288.049 6      2265.809          41.000  
G23  25909280.869 5 136154167.36625       170.645          33.000  
G26  25923247.151 5 136227588.61925     -2930.061          31.000  
G27  21945223.515 8 115322905.348 8     -2480.688          48.000  
R14  22531388.516 6 120104929.990 6     -3006.783          39.000  
R15  19833783.466 6 105985667.999 6       -43.355          40.000  
R17  19827606.708 5 106101508.213 5     -1180.816          31.000  
R24  23464534.922 6 125475409.818 6     -3987.343          41.000  
E10  25234735.415 7 132609443.800 7      -553.691          47.000  
E11  24282380.010 7 127604786.907 7      1035.758          42.000  
E12  26823147.854 7 140956577.267 7     -1729.624          42.000  
E24  26310389.539 6 138262030.041 6     -1543.888          41.000  
J 2  39414672.215 6 207125498.51426       402.753          38.000  
J 3  37892598.838 7 199126952.38427      -214.803          45.000  
J 4  38213523.332 4 200813406.30334       -39.953          27.000  
> 2024 11 28 10 16  2.8020000  0 18                     
G 2  22645450.985 6 119002684.570 6      3129.813          36.000  
G10  25720042.332 6 135159760.499 6      1677.084          41.000  
G16  23428130.577 7 123115660.100 7     -2500.703          43.000  
G21  21145013.854 6 111117834.789 6      2266.653          41.000  
G23  25909273.191 5 136154133.13925       171.280          32.000  
G26  25923359.443 5 136228174.32125     -2928.735          31.000  
G27  21945318.026 7 115323401.518 7     -2480.349          47.000  
R14  22531501.488 6 120105531.265 6     -3006.063          39.000  
R15  19833785.037 6 105985676.704 6       -43.085          40.000  
R17  19827651.171 5 106101744.379 5     -1180.644          31.000  
R24  23464684.138 6 125476207.290 6     -3986.849          41.000  
E10  25234756.791 7 132609554.492 7      -553.106          47.000  
E11  24282340.415 7 127604579.712 7      1036.448          42.000  
E12  26823213.694 7 140956923.155 7     -1729.210          42.000  
E24  26310448.172 6 138262338.816 6     -1543.474          41.000  
J 2  39414656.998 6 207125417.89226       403.510          38.000  
J 3  37892607.092 7 199126995.30027      -214.016          45.000  
J 4  38213526.822 4 200813414.25924       -39.427          27.000  
> 2024 11 28 10 16  3.0020000  0 18                     
G 2  22645331.957 6 119002058.675 6      3129.523          36.000  
G10  25719978.551 6 135159425.179 6      1676.630          41.000  
G16  23428225.803 7 123116160.290 7     -2501.125          43.000  
G21  21144927.702 6 111117381.523 6      2266.610          41.000  
G23  25909266.909 5 136154098.92725       171.045          32.000  
G26  25923470.950 5 136228760.05325     -2927.985          31.000  
G27  21945412.501 7 115323897.663 7     -2480.665          47.000  
R14  22531614.339 6 120106132.525 6     -3006.455          39.000  
R15  19833786.625 6 105985685.380 6       -43.255          40.000  
R17  19827695.408 5 106101980.546 5     -1181.456          31.000  
R24  23464833.355 6 125477004.785 6     -3987.635          41.000  
E10  25234777.889 7 132609665.180 7      -553.516          47.000  
E11  24282301.047 7 127604372.485 7      1036.042          42.000  
E12  26823279.429 7 140957269.033 7     -1729.424          42.000  
E24  26310506.822 6 138262647.556 6     -1543.826          41.000  
J 2  39414641.695 6 207125337.21526       403.284          38.000  
J 3  37892615.206 7 199127038.20127      -214.430          45.000  
J 4  38213530.347 4 200813422.12524       -38.910          27.000  
> 2024 11 28 10 16  3.2020000  0 18                     
G 2  22645212.999 6 119001432.782 6      3129.794          36.000  
G10  25719914.806 6 135159089.855 6      1676.813          41.000  
G16  23428321.046 7 123116660.482 7     -2500.858          43.000  
G21  21144841.533 7 111116928.304 7      2266.176          42.000  
G23  25909261.499 5 136154064.75225       170.438          32.000  
G26  25923579.961 5 136229345.84025     -2928.481          31.000  
G27  21945506.959 7 115324393.813 7     -2480.599          47.000  
R14  22531727.225 6 120106733.798 6     -3006.348          39.000  
R15  19833788.283 6 105985694.092 6       -43.536          40.000  
R17  19827739.138 5 106102216.728 5     -1180.836          31.000  
R24  23464982.328 6 125477802.248 6     -3987.410          41.000  
E10  25234799.143 7 132609775.882 7      -553.408          46.000  
E11  24282261.750 7 127604165.292 7      1036.044          42.000  
E12  26823345.199 7 140957614.922 7     -1729.257          42.000  
E24  26310565.926 6 138262956.295 6     -1543.496          41.000  
J 2  39414626.216 6 207125256.56226       403.497          38.000  
J 3  37892623.408 7 199127081.11127      -214.468          45.000  
J 4  38213531.115 4 200813430.07024       -39.840          27.000  
> 2024 11 28 10 16  3.4020000  0 18                     
G 2  22645093.971 6 119000806.940 6      3129.082          36.000  
G10  25719850.833 6 135158754.556 6      1676.435          41.000  
G16  23428416.307 7 123117160.713 7     -2501.419          43.000  
G21  21144755.241 6 111116475.111 6      2265.757          41.000  
G23  25909256.456 5 136154030.56625       170.388          32.000  
G26  25923691.887 5 136229931.58425     -2929.005          31.000  
G27  21945601.470 7 115324889.984 7     -2481.058          47.000  
R14  22531840.093 6 120107335.127 6     -3006.999          39.000  
R15  19833790.010 6 105985702.836 6       -44.027          40.000  
R17  19827782.990 5 106102452.968 5     -1181.433          31.000  
R24  23465131.422 6 125478599.723 6     -3987.714          41.000  
E10  25234820.118 7 132609886.621 7      -554.036          46.000  
E11  24282222.295 7 127603958.136 7      1035.464          42.000  
E12  26823410.916 7 140957960.835 7     -1729.875          42.000  
E24  26310624.611 6 138263265.078 6     -1544.086          41.000  
J 2  39414611.122 6 207125175.90326       403.265          38.000  
J 3  37892631.574 7 199127124.03927      -214.968          45.000  
J 4  38213531.987 4 200813437.98824       -40.123          27.000  
> 2024 11 28 10 16  3.6020000  0 18                     
G 2  22644974.891 6 119000181.147 6      3129.432          36.000  
G10  25719787.018 6 135158419.298 6      1676.147          41.000  
G16  23428511.428 7 123117660.955 7     -2501.316          43.000  
G21  21144668.915 6 111116021.989 6      2265.773          41.000  
G23  25909250.977 5 136153996.45625       170.368          33.000  
G26  25923802.626 5 136230517.34225     -2928.458          32.000  
G27  21945695.823 7 115325386.184 7     -2480.833          47.000  
R14  22531952.873 6 120107936.488 6     -3006.795          38.000  
R15  19833791.581 6 105985711.637 6       -44.192          40.000  
R17  19827826.686 5 106102689.232 5     -1181.680          31.000  
R24  23465280.552 6 125479397.246 6     -3987.534          41.000  
E10  25234841.146 7 132609997.386 7      -553.692          46.000  
E11  24282182.752 7 127603751.023 7      1035.600          42.000  
E12  26823476.965 7 140958306.798 7     -1729.844          42.000  
E24  26310683.453 6 138263573.860 6     -1543.810          41.000  
J 2  39414595.835 6 207125095.29626       403.174          38.000  
J 3  37892639.759 7 199127166.99127      -214.598          45.000  
J 4  38213532.895 4 200813445.93824       -39.707          27.000  
> 2024 11 28 10 16  3.8020000  0 18                     
G 2  22644855.933 6 118999555.382 6      3129.088          36.000  
G10  25719723.220 6 135158084.080 6      1676.006          41.000  
G16  23428606.601 7 123118161.246 7     -2501.445          43.000  
G21  21144582.711 7 111115568.931 7      2265.048          42.000  
G23  25909242.007 5 136153962.36725       170.608          32.000  
G26  25923914.412 5 136231103.18825     -2928.697          32.000  
G27  21945790.229 7 115325882.449 7     -2481.351          47.000  
R14  22532065.619 6 120108537.915 6     -3007.542          38.000  
R15  19833793.291 6 105985720.498 6       -44.364          40.000  
R17  19827870.835 5 106102925.619 5     -1182.193          31.000  
R24  23465429.420 6 125480194.811 6     -3987.950          41.000  
E10  25234862.400 7 132610108.234 7      -554.432          46.000  
E11  24282143.437 7 127603543.974 7      1035.138          42.000  
E12  26823542.787 7 140958652.812 7     -1730.139          42.000  
E24  26310742.260 6 138263882.726 6     -1544.427          41.000  
J 2  39414580.601 6 207125014.70826       402.936          38.000  
J 3  37892647.908 7 199127210.00127      -215.105          45.000  
J 4  38213532.842 4 200813453.91724       -39.819          27.000  
> 2024 11 28 10 16  4.0020000  0 18                     
G 2  22644736.940 6 118998929.665 6      3128.669          36.000  
G10  25719659.579 6 135157748.880 6      1675.853          41.000  
G16  23428702.037 7 123118661.524 7     -2501.308          43.000  
G21  21144496.490 7 111115115.864 7      2265.208          42.000  
G23  25909237.418 5 136153928.32125       169.805          32.000  
G26  25924025.431 5 136231689.05325     -2929.074          32.000  
G27  21945884.582 7 115326378.674 7     -2481.350          47.000  
R14  22532178.522 6 120109139.313 6     -3006.709          38.000  
R15  19833794.861 6 105985729.356 6       -44.521          40.000  
R17  19827914.844 5 106103161.952 5     -1181.409          31.000  
R24  23465578.567 6 125480992.351 6     -3988.039          41.000  
E10  25234883.515 7 132610219.056 7      -554.119          46.000  
E11  24282104.139 7 127603336.926 7      1035.297          42.000  
E12  26823608.418 7 140958998.807 7     -1730.104          42.000  
E24  26310801.050 6 138264191.555 6     -1544.339          41.000  
J 2  39414565.367 6 207124934.08726       403.082          38.000  
J 3  37892656.109 7 199127252.98227      -214.937          45.000  
J 4  38213535.250 4 200813461.89824       -40.200          27.000  
> 2024 11 28 10 16  4.2020000  0 18                     
G 2  22644617.982 6 118998303.951 6      3128.428          36.000  
G10  25719595.833 6 135157413.696 6      1676.136          41.000  
G16  23428797.262 7 123119161.828 7     -2501.138          43.000  
G21  21144410.425 7 111114662.847 7      2265.297          42.000  
G23  25909229.077 5 136153894.26425       170.651          32.000  
G26  25924137.984 5 136232274.89725     -2928.776          32.000  
G27  21945979.005 7 115326874.957 7     -2481.260          47.000  
R14  22532291.233 6 120109740.761 6     -3006.961          38.000  
R15  19833796.310 6 105985738.264 6       -44.469          40.000  
R17  19827958.871 5 106103398.370 5     -1181.120          31.000  
R24  23465727.714 6 125481789.940 6     -3987.807          41.000  
E10  25234904.612 7 132610329.951 7      -554.428          46.000  
E11  24282064.859 7 127603129.911 7      1035.291          42.000  
E12  26823674.327 7 140959344.852 7     -1730.132          42.000  
E24  26310859.822 6 138264500.398 6     -1544.147          41.000  
J 2  39414550.046 6 207124853.49126       403.558          38.000  
J 3  37892664.294 7 199127295.97827      -214.916          45.000  
J 4  38213536.158 4 200813469.82524       -39.642          27.000  
> 2024 11 28 10 16  4.4020000  0 18                     
G 2  22644498.884 6 118997678.212 6      3128.739          36.000  
G10  25719531.930 6 135157078.498 6      1676.135          41.000  
G16  23428892.384 7 123119662.135 7     -2501.154          43.000  
G21  21144324.273 7 111114209.845 7      2264.805          42.000  
G23  25909223.702 5 136153860.27725       170.310          32.000  
G26  25924249.264 5 136232860.72025     -2928.880          32.000  
G27  21946073.533 8 115327371.209 8     -2481.351          48.000  
R14  22532404.066 6 120110342.188 6     -3006.861          37.000  
R15  19833797.880 6 105985747.186 6       -44.758          40.000  
R17  19828003.055 5 106103634.853 5     -1182.179          31.000  
R24  23465876.861 6 125482587.507 6     -3987.673          41.000  
E10  25234925.849 7 132610440.820 7      -554.362          46.000  
E11  24282025.317 7 127602922.903 7      1034.938          42.000  
E12  26823740.167 7 140959690.890 7     -1730.323          42.000  
E24  26310918.630 6 138264809.242 6     -1544.123          41.000  
J 2  39414534.620 6 207124772.88426       403.217          38.000  
J 3  37892672.495 7 199127338.95227      -214.756          45.000  
J 4  38213537.990 4 200813477.84324       -40.320          27.000  
> 2024 11 28 10 16  4.6020000  0 18                     
G 2  22644379.891 6 118997052.525 6      3128.366          36.000  
G10  25719468.150 6 135156743.351 6      1676.057          41.000  
G16  23428987.662 7 123120162.451 7     -2501.670          44.000  
G21  21144238.122 7 111113756.847 7      2264.917          42.000  
G23  25909218.554 5 136153826.28225       170.125          32.000  
G26  25924361.434 5 136233446.57725     -2929.246          32.000  
G27  21946168.008 8 115327867.478 8     -2481.190          48.000  
R14  22532517.021 6 120110943.667 6     -3007.170          37.000  
R15  19833799.468 6 105985756.124 6       -44.820          40.000  
R17  19828047.169 5 106103871.320 5     -1182.866          31.000  
R24  23466025.920 6 125483385.102 6     -3987.953          41.000  
E10  25234946.999 7 132610551.725 7      -554.595          46.000  
E11  24281985.879 7 127602715.910 7      1035.005          42.000  
E12  26823805.954 7 140960036.948 7     -1730.397          42.000  
E24  26310977.489 6 138265118.103 6     -1544.282          41.000  
J 2  39414519.246 6 207124692.26726       403.009          38.000  
J 3  37892680.644 7 199127381.94827      -214.793          45.000  
J 4  38213539.089 4 200813485.78224       -39.792          27.000  
> 2024 11 28 10 16  4.8020000  0 18                     
G 2  22644260.968 6 118996426.841 6      3128.660          36.000  
G10  25719404.474 6 135156408.210 6      1675.688          41.000  
G16  23429082.765 7 123120662.751 7     -2501.445          44.000  
G21  21144151.900 7 111113303.886 7      2264.881          42.000  
G23  25909211.923 5 136153792.28825       170.022          32.000  
G26  25924473.116 5 136234032.36525     -2928.725          32.000  
G27  21946262.379 8 115328363.764 8     -2481.483          48.000  
R14  22532630.029 6 120111545.142 6     -3007.294          37.000  
R15  19833800.951 6 105985765.092 6       -45.049          40.000  
R17  19828091.423 5 106104107.750 5     -1182.381          31.000  
R24  23466175.015 6 125484182.693 6     -3988.174          41.000  
E10  25234968.079 7 132610662.642 7      -554.713          46.000  
E11  24281946.546 7 127602508.932 7      1034.754          42.000  
E12  26823871.794 7 140960383.005 7     -1730.366          42.000  
E24  26311036.331 6 138265426.952 6     -1544.282          41.000  
J 2  39414503.716 6 207124611.63526       403.406          38.000  
J 3  37892688.776 7 199127424.94227      -215.077          45.000  
J 4  38213541.620 4 200813493.70924       -39.956          27.000  
> 2024 11 28 10 16  5.0020000  0 18                     
G 2  22644141.940 6 118995801.157 6      3128.281          36.000  
G10  25719340.676 6 135156073.041 6      1675.866          41.000  
G16  23429178.026 7 123121163.042 7     -2501.352          44.000  
G21  21144065.626 7 111112850.913 7      2264.948          42.000  
G23  25909205.345 5 136153758.36525       169.720          32.000  
G26  25924584.082 5 136234618.21525     -2929.103          32.000  
G27  21946356.750 8 115328860.021 8     -2481.295          48.000  
R14  22532742.845 6 120112146.611 6     -3007.306          37.000  
R15  19833802.749 6 105985774.048 6       -44.965          40.000  
R17  19828135.520 5 106104344.243 5     -1181.669          31.000  
R24  23466324.057 6 125484980.266 6     -3987.810          41.000  
E10  25234989.176 7 132610773.549 7      -554.506          46.000  
E11  24281907.179 7 127602301.933 7      1035.178          42.000  
E12  26823937.738 7 140960729.070 7     -1730.276          42.000  
E24  26311095.139 6 138265735.762 6     -1543.782          41.000  
J 2  39414488.342 6 207124530.99426       403.271          38.000  
J 3  37892696.908 7 199127467.89527      -214.593          45.000  
J 4  38213542.248 4 200813501.70224       -39.973          27.000  
> 2024 11 28 10 16  5.2020000  0 18                     
G 2  22644022.824 6 118995175.503 6      3127.717          36.000  
G10  25719276.948 6 135155737.926 6      1675.529          41.000  
G16  23429273.392 7 123121663.381 7     -2501.648          44.000  
G21  21143979.562 7 111112398.002 7      2264.712          42.000  
G23  25909198.277 5 136153724.40925       169.862          32.000  
G26  25924694.140 5 136235204.03325     -2928.925          32.000  
G27  21946451.243 8 115329356.329 8     -2481.527          48.000  
R14  22532855.625 6 120112748.130 6     -3007.280          37.000  
R15  19833804.424 6 105985783.075 6       -45.198          40.000  
R17  19828179.861 5 106104580.842 5     -1182.648          31.000  
R24  23466473.082 6 125485777.879 6     -3988.159          41.000  
E10  25235010.256 7 132610884.515 7      -554.948          46.000  
E11  24281867.793 7 127602095.010 7      1034.580          42.000  
E12  26824003.578 7 140961075.176 7     -1730.584          42.000  
E24  26311153.894 6 138266044.643 6     -1544.296          41.000  
J 2  39414472.899 6 207124450.37526       403.113          38.000  
J 3  37892705.179 7 199127510.90727      -214.909          45.000  
J 4  38213542.492 4 200813509.70624       -40.372          27.000  
> 2024 11 28 10 16  5.4020000  0 18                     
G 2  22643903.936 6 118994549.875 6      3127.939          36.000  
G10  25719213.237 6 135155402.845 6      1675.188          41.000  
G16  23429368.495 7 123122163.720 7     -2501.579          44.000  
G21  21143893.271 7 111111945.120 7      2264.360          42.000  
G23  25909192.274 5 136153690.53125       169.909          32.000  
G26  25924805.368 5 136235789.91425     -2929.573          32.000  
G27  21946545.806 8 115329852.642 8     -2481.504          48.000  
R14  22532968.476 6 120113349.679 6     -3007.846          37.000  
R15  19833806.274 6 105985792.136 6       -45.451          40.000  
R17  19828223.992 5 106104817.453 5     -1182.787          31.000  
R24  23466622.125 6 125486575.505 6     -3988.099          41.000  
E10  25235031.353 7 132610995.499 7      -554.871          46.000  
E11  24281828.199 7 127601888.103 7      1034.478          42.000  
E12  26824069.505 7 140961421.307 7     -1730.742          42.000  
E24  26311212.840 6 138266353.553 6     -1544.531          41.000  
J 2  39414457.700 6 207124369.74726       403.345          38.000  
J 3  37892713.259 7 199127553.92127      -215.151          45.000  
J 4  38213543.504 4 200813517.63624       -40.040          26.000  
> 2024 11 28 10 16  5.6020000  0 18                     
G 2  22643784.978 6 118993924.254 6      3128.323          36.000  
G10  25719149.544 6 135155067.780 6      1674.826          41.000  
G16  23429463.739 7 123122664.103 7     -2501.934          44.000  
G21  21143807.084 7 111111492.287 7      2264.277          42.000  
G23  25909184.701 5 136153656.68025       169.723          32.000  
G26  25924916.770 5 136236375.77625     -2929.459          32.000  
G27  21946640.281 8 115330348.980 8     -2481.587          48.000  
R14  22533081.414 6 120113951.256 6     -3008.195          37.000  
R15  19833808.071 6 105985801.226 6       -45.605          40.000  
R17  19828268.211 5 106105054.129 5     -1183.641          31.000  
R24  23466771.272 6 125487373.151 6     -3988.384          41.000  
E10  25235052.520 7 132611106.529 7      -555.215          46.000  
E11  24281788.674 7 127601681.245 7      1034.095          42.000  
E12  26824135.327 7 140961767.456 7     -1730.747          42.000  
E24  26311271.508 6 138266662.453 6     -1544.509          41.000  
J 2  39414442.396 6 207124289.16426       403.009          38.000  
J 3  37892721.426 7 199127596.95527      -215.244          45.000  
J 4  38213544.324 4 200813525.55324       -39.828          27.000  
> 2024 11 28 10 16  5.8020000  0 18                     
G 2  22643665.985 6 118993298.708 6      3127.872          36.000  
G10  25719085.781 6 135154732.728 6      1675.136          41.000  
G16  23429558.947 7 123123164.506 7     -2501.997          44.000  
G21  21143720.932 7 111111039.507 7      2264.046          42.000  
G23  25909178.366 5 136153622.90325       168.089          32.000  
G26  25925027.527 5 136236961.66025     -2929.406          32.000  
G27  21946734.931 8 115330845.363 8     -2481.893          48.000  
R14  22533194.369 6 120114552.846 6     -3007.801          37.000  
R15  19833809.799 6 105985810.379 6       -46.010          40.000  
R17  19828312.482 5 106105290.814 5     -1184.059          31.000  
R24  23466920.209 6 125488170.823 6     -3988.357          41.000  
E10  25235073.618 7 132611217.594 7      -555.391          46.000  
E11  24281749.202 7 127601474.420 7      1033.855          42.000  
E12  26824201.306 7 140962113.653 7     -1730.940          42.000  
E24  26311330.472 6 138266971.398 6     -1544.722          41.000  
J 2  39414427.005 6 207124208.57626       402.991          38.000  
J 3  37892729.627 7 199127640.00627      -215.297          45.000  
J 4  38213546.000 4 200813533.51124       -39.707          27.000  
> 2024 11 28 10 16  6.0020000  0 18                     
G 2  22643546.974 6 118992673.180 6      3127.294          36.000  
G10  25719021.913 6 135154397.702 6      1675.466          41.000  
G16  23429654.120 7 123123664.920 7     -2502.069          44.000  
G21  21143634.990 7 111110586.745 7      2263.929          42.000  
G23  25909171.631 5 136153589.08325       169.352          32.000  
G26  25925139.365 5 136237547.58625     -2929.366          32.000  
G27  21946829.511 8 115331341.740 8     -2481.708          48.000  
R14  22533307.220 6 120115154.488 6     -3008.014          37.000  
R15  19833811.509 6 105985819.551 6       -45.849          40.000  
R17  19828356.701 5 106105527.558 5     -1183.521          31.000  
R24  23467069.391 6 125488968.519 6     -3988.193          41.000  
E10  25235094.977 7 132611328.676 7      -555.293          46.000  
E11  24281709.851 7 127601267.597 7      1034.150          42.000  
E12  26824267.285 7 140962459.865 7     -1730.883          42.000  
E24  26311389.262 6 138267280.344 6     -1544.743          41.000  
J 2  39414411.771 6 207124127.99526       402.802          38.000  
J 3  37892737.916 7 199127683.07127      -215.041          45.000  
J 4  38213548.443 4 200813541.59424       -40.382          26.000  
> 2024 11 28 10 16  6.2020000  0 18                     
G 2  22643427.877 6 118992047.622 6      3127.694          36.000  
G10  25718958.115 6 135154062.693 6      1674.932          40.000  
G16  23429749.259 7 123124165.307 7     -2502.010          44.000  
G21  21143548.978 7 111110133.993 7      2263.806          42.000  
G23  25909165.593 5 136153555.301 5       169.402          32.000  
G26  25925250.506 5 136238133.00215     -2929.960          32.000  
G27  21946924.056 8 115331838.127 8     -2481.908          48.000  
R14  22533420.018 6 120115756.108 6     -3008.382          37.000  
R15  19833813.358 6 105985828.726 6       -45.831          40.000  
R17  19828401.740 5 106105764.280 5     -1183.666          31.000  
R24  23467218.521 6 125489766.181 6     -3988.108          41.000  
E10  25235115.865 7 132611439.766 7      -555.372          46.000  
E11  24281670.571 7 127601060.788 7      1034.241          42.000  
E12  26824333.369 7 140962806.082 7     -1730.958          42.000  
E24  26311448.139 6 138267589.267 6     -1544.556          41.000  
J 2  39414396.397 6 207124047.38226       403.107          38.000  
J 3  37892746.205 7 199127726.12527      -215.225          45.000  
J 4  38213550.746 4 200813549.54424       -39.667          27.000  
> 2024 11 28 10 16  6.4020000  0 18                     
G 2  22643308.762 6 118991422.065 6      3127.841          36.000  
G10  25718894.404 6 135153727.680 6      1675.102          40.000  
G16  23429844.502 7 123124665.695 7     -2501.912          44.000  
G21  21143462.774 7 111109681.258 7      2263.332          42.000  
G23  25909159.119 5 136153521.551 5       168.884          32.000  
G26  25925361.890 5 136238718.901 5     -2929.984          32.000  
G27  21947018.514 8 115332334.505 8     -2482.080          48.000  
R14  22533532.868 6 120116357.728 6     -3008.276          37.000  
R15  19833815.086 6 105985837.938 6       -46.556          40.000  
R17  19828448.245 5 106106001.064 5     -1183.052          31.000  
R24  23467367.685 6 125490563.872 6     -3988.176          41.000  
E10  25235137.101 7 132611550.875 7      -555.572          46.000  
E11  24281631.186 7 127600854.001 7      1033.973          42.000  
E12  26824399.209 7 140963152.311 7     -1731.148          42.000  
E24  26311506.929 6 138267898.201 6     -1544.844          41.000  
J 2  39414381.006 6 207123966.77126       403.162          38.000  
J 3  37892754.424 7 199127769.15527      -215.213          45.000  
J 4  38213553.870 4 200813557.44524       -39.525          27.000  
> 2024 11 28 10 16  6.6020000  0 18                     
G 2  22643189.664 6 118990796.580 6      3127.359          36.000  
G10  25718830.676 6 135153392.707 6      1674.802          40.000  
G16  23429939.833 7 123125166.123 7     -2502.002          44.000  
G21  21143376.604 7 111109228.565 7      2263.463          42.000  
G23  25909152.819 5 136153487.822 5       168.337          33.000  
G26  25925473.450 5 136239304.796 5     -2929.964          32.000  
G27  21947113.007 8 115332830.900 8     -2482.004          48.000  
R14  22533645.859 6 120116959.401 6     -3008.345          37.000  
R15  19833816.918 6 105985847.165 6       -46.164          40.000  
R17  19828491.870 5 106106237.924 5     -1184.272          31.000  
R24  23467516.780 6 125491361.574 6     -3988.452          41.000  
E10  25235158.286 7 132611662.017 7      -555.760          46.000  
E11  24281592.028 7 127600647.267 7      1033.536          42.000  
E12  26824465.101 7 140963498.566 7     -1731.305          42.000  
E24  26311565.841 6 138268207.159 6     -1544.914          41.000  
J 2  39414365.475 6 207123886.18326       402.716          38.000  
J 3  37892762.556 7 199127812.23127      -215.302          45.000  
J 4  38213555.754 4 200813565.51124       -40.271          27.000  
> 2024 11 28 10 16  6.8020000  0 18                     
G 2  22643070.479 6 118990171.104 6      3127.574          36.000  
G10  25718766.930 6 135153057.729 6      1675.273          40.000  
G16  23430034.971 7 123125666.576 7     -2501.961          44.000  
G21  21143290.418 7 111108775.918 7      2263.459          42.000  
G23  25909145.979 5 136153454.126 5       168.903          33.000  
G26  25925585.183 5 136239890.698 5     -2930.100          32.000  
G27  21947207.623 8 115333327.316 8     -2481.610          48.000  
R14  22533758.918 6 120117561.102 6     -3008.198          37.000  
R15  19833818.681 6 105985856.460 6       -46.424          40.000  
R17  19828539.702 5 106106474.799 5     -1184.323          31.000  
R24  23467665.892 6 125492159.281 6     -3988.158          41.000  
E10  25235179.453 7 132611773.190 7      -555.591          46.000  
E11  24281552.660 7 127600440.540 7      1033.578          42.000  
E12  26824531.115 7 140963844.847 7     -1731.179          42.000  
E24  26311624.666 6 138268516.129 6     -1544.603          41.000  
J 2  39414350.276 6 207123805.58726       403.418          38.000  
J 3  37892770.757 7 199127855.31027      -215.071          45.000  
J 4  38213556.522 4 200813573.45724       -39.509          27.000  
> 2024 11 28 10 16  7.0020000  0 18                     
G 2  22642951.521 6 118989545.677 6      3127.449          36.000  
G10  25718703.202 6 135152722.795 6      1674.954          40.000  
G16  23430130.197 7 123126167.037 7     -2502.111          43.000  
G21  21143204.441 7 111108323.321 7      2263.057          42.000  
G23  25909139.644 5 136153420.376 5       169.261          32.000  
G26  25925696.830 5 136240476.633 5     -2929.212          32.000  
G27  21947302.168 8 115333823.734 8     -2481.763          48.000  
R14  22533871.821 6 120118162.801 6     -3008.334          37.000  
R15  19833820.496 6 105985865.754 6       -46.221          40.000  
R17  19828583.118 5 106106711.713 5     -1184.632          31.000  
R24  23467815.126 6 125492956.972 6     -3988.081          41.000  
E10  25235200.585 7 132611884.390 7      -556.008          46.000  
E11  24281513.310 7 127600233.850 7      1033.381          42.000  
E12  26824596.990 7 140964191.096 7     -1730.887          43.000  
E24  26311683.403 6 138268825.129 6     -1544.970          41.000  
J 2  39414335.094 6 207123725.01726       403.198          38.000  
J 3  37892778.959 7 199127898.43127      -215.539          45.000  
J 4  38213558.948 4 200813581.56024       -40.449          26.000  
> 2024 11 28 10 16  7.2020000  0 18                     
G 2  22642832.667 6 118988920.307 6      3126.655          36.000  
G10  25718639.230 7 135152387.830 7      1674.724          42.000  
G16  23430225.475 7 123126667.586 7     -2503.119          43.000  
G21  21143118.289 7 111107870.796 7      2262.251          42.000  
G23  25909133.258 4 136153386.855 4       167.405          28.000  
G26  25925808.302 5 136241062.676 5     -2930.944          31.000  
G27  21947396.748 7 115334320.126 7     -2481.923          47.000  
R14  22533984.742 6 120118764.587 6     -3009.255          37.000  
R15  19833822.345 6 105985875.107 6       -47.126          39.000  
R17  19828625.312 5 106106948.663 5     -1185.362          31.000  
R24  23467964.343 6 125493754.610 6     -3988.000          41.000  
E10  25235221.491 7 132611995.579 7      -556.117          46.000  
E11  24281474.029 7 127600027.209 7      1032.947          42.000  
E12  26824662.917 7 140964537.313 7     -1731.235          43.000  
E24  26311742.193 6 138269134.194 6     -1545.713          41.000  
J 2  39414319.825 6 207123643.90016       403.040          38.000  
J 3  37892787.335 7 199127941.05817      -215.932          45.000  
J 4  38213561.827 4 200813589.74824       -41.118          26.000  
> 2024 11 28 10 16  7.4020000  0 18                     
G 2  22642713.744 6 118988294.996 6      3126.234          36.000  
G10  25718575.362 6 135152052.905 6      1674.403          39.000  
G16  23430320.893 7 123127168.093 7     -2502.099          44.000  
G21  21143032.294 7 111107418.327 7      2262.056          42.000  
G23  25909126.749 5 136153353.156 5       169.354          32.000  
G26  25925919.931 5 136241648.728 5     -2929.875          31.000  
G27  21947490.874 7 115334816.513 7     -2482.123          45.000  
R14  22534097.749 5 120119366.552 5     -3009.898          34.000  
R15  19833824.213 6 105985884.444 6       -46.673          40.000  
R17  19828666.024 5 106107185.696 5     -1185.631          30.000  
R24  23468113.612 6 125494552.196 6     -3988.066          41.000  
E10  25235242.867 7 132612106.777 7      -555.993          47.000  
E11  24281434.854 7 127599820.613 7      1033.217          42.000  
E12  26824728.844 7 140964883.476 7     -1730.799          42.000  
E24  26311800.808 6 138269443.242 6     -1544.843          41.000  
J 2  39414304.452 6 207123563.338 6       402.582          38.000  
J 3  37892795.449 7 199127984.258 7      -215.975          45.000  
J 4  38213564.619 5 200813597.77925       -40.097          31.000  
> 2024 11 28 10 16  7.6020000  0 18                     
G 2  22642594.751 6 118987669.646 6      3127.467          36.000  
G10  25718511.599 5 135151718.134 5      1672.661          35.000  
G16  23430416.259 7 123127668.582 7     -2502.322          44.000  
G21  21142946.334 6 111106965.812 6      2262.900          40.000  
G23  25909120.275 5 136153319.490 5       167.814          35.000  
G26  25926031.438 5 136242234.786 5     -2930.301          31.000  
G27  21947585.158 7 115335312.942 7     -2482.292          45.000  
R14  22534210.740 6 120119968.333 6     -3008.743          37.000  
R15  19833825.975 6 105985893.778 6       -46.655          40.000  
R17  19828710.434 5 106107422.606 5     -1184.269          30.000  
R24  23468262.812 6 125495349.869 6     -3988.670          41.000  
E10  25235264.191 7 132612218.001 7      -556.124          47.000  
E11  24281395.433 7 127599613.957 7      1033.561          43.000  
E12  26824794.823 6 140965229.746 6     -1731.614          40.000  
E24  26311859.737 7 138269752.251 7     -1545.084          43.000  
J 2  39414289.130 6 207123482.711 6       403.589          37.000  
J 3  37892803.703 7 199128027.358 7      -215.074          45.000  
J 4  38213564.445 5 200813605.82925       -39.918          32.000  
> 2024 11 28 10 16  7.8020000  0 18                     
G 2  22642475.601 5 118987044.194 5      3126.931          35.000  
G10  25718447.521 6 135151383.379 6      1674.355          37.000  
G16  23430511.642 7 123128169.093 7     -2502.621          43.000  
G21  21142860.095 6 111106513.216 6      2262.753          39.000  
G23  25909113.748 6 136153285.848 6       168.199          38.000  
G26  25926142.788 5 136242820.734 5     -2929.471          30.000  
G27  21947679.476 7 115335809.375 7     -2482.129          45.000  
R14  22534323.660 6 120120570.133 6     -3008.641          39.000  
R15  19833827.790 6 105985903.080 6       -46.839          38.000  
R17  19828753.467 5 106107659.475 5     -1184.734          30.000  
R24  23468412.081 6 125496147.569 6     -3988.525          41.000  
E10  25235285.428 7 132612329.235 7      -556.251          47.000  
E11  24281356.048 7 127599407.286 7      1033.189          43.000  
E12  26824860.715 6 140965576.050 6     -1731.778          36.000  
E24  26311918.684 7 138270061.249 7     -1544.920          43.000  
J 2  39414273.774 5 207123402.048 5       403.357          35.000  
J 3  37892811.765 7 199128070.410 7      -215.118          44.000  
J 4  38213564.130 5 200813613.72125       -38.698          31.000  
> 2024 11 28 10 16  8.0020000  0 18                     
G 2  22642356.451 5 118986418.728 5      3127.040          35.000  
G10  25718383.863 7 135151048.465 7      1674.353          42.000  
G16  23430606.902 7 123128669.605 7     -2502.079          42.000  
G21  21142773.944 6 111106060.657 6      2262.310          37.000  
G23  25909107.327 6 136153252.220 6       168.425          39.000  
G26  25926254.312 5 136243406.775 5     -2929.466          30.000  
G27  21947773.725 7 115336305.808 7     -2482.189          46.000  
R14  22534436.702 6 120121171.907 6     -3008.947          41.000  
R15  19833829.552 6 105985912.396 6       -47.128          37.000  
R17  19828798.506 5 106107896.486 5     -1185.292          30.000  
R24  23468561.402 6 125496945.271 6     -3988.252          41.000  
E10  25235306.473 7 132612440.493 7      -556.380          47.000  
E11  24281316.785 7 127599200.635 7      1032.994          43.000  
E12  26824925.717 5 140965922.583 5     -1732.736          32.000  
E24  26311977.526 7 138270370.248 7     -1544.973          43.000  
J 2  39414258.366 5 207123321.372 5       403.674          35.000  
J 3  37892819.984 7 199128113.462 7      -215.396          44.000  
J 4  38213565.247 4 200813621.81124       -40.775          25.000  
> 2024 11 28 10 16  8.2020000  0 18                     
G 2  22642237.353 5 118985793.327 5      3126.836          32.000  
G10  25718320.187 7 135150713.511 7      1675.143          42.000  
G16  23430702.041 7 123129170.075 7     -2501.924          42.000  
G21  21142687.740 6 111105608.138 6      2262.663          37.000  
G23  25909100.835 6 136153218.548 6       168.673          40.000  
G26  25926367.005 5 136243992.725 5     -2929.368          30.000  
G27  21947868.131 7 115336802.168 7     -2481.482          46.000  
R14  22534549.780 6 120121773.678 6     -3008.667          40.000  
R15  19833831.297 6 105985921.740 6       -46.495          37.000  
R17  19828842.288 5 106108133.468 5     -1184.956          31.000  
R24  23468710.584 6 125497742.913 6     -3987.900          41.000  
E10  25235327.466 7 132612551.703 7      -555.765          47.000  
E11  24281277.453 7 127598993.971 7      1033.449          43.000  
E12  26824985.798 5 140966268.913 5     -1731.228          32.000  
E24  26312036.491 7 138270679.198 7     -1544.509          42.000  
J 2  39414242.975 5 207123240.703 5       403.699          35.000  
J 3  37892828.343 7 199128156.502 7      -214.858          44.000  
J 4  38213568.702 4 200813629.71424       -39.461          25.000  
> 2024 11 28 10 16  8.4020000  0 18                     
G 2  22642118.325 5 118985168.050 5      3126.906          31.000  
G10  25718256.511 7 135150378.574 7      1674.943          42.000  
G16  23430797.249 7 123129670.520 7     -2502.066          42.000  
G21  21142601.501 6 111105155.743 6      2262.049          37.000  
G23  25909094.222 6 136153184.898 6       168.107          40.000  
G26  25926480.310 5 136244578.627 5     -2929.487          30.000  
G27  21947962.484 7 115337298.579 7     -2482.034          46.000  
R14  22534662.648 6 120122375.475 6     -3009.012          40.000  
R15  19833832.955 6 105985931.163 6       -47.501          37.000  
R17  19828884.483 5 106108370.521 5     -1185.013          32.000  
R24  23468859.766 6 125498540.523 6     -3988.052          41.000  
E10  25235348.354 7 132612662.960 7      -556.345          47.000  
E11  24281238.190 7 127598787.386 7      1032.839          43.000  
E12  26825049.893 5 140966615.259 5     -1731.771          32.000  
E24  26312095.211 7 138270988.173 7     -1544.906          42.000  
J 2  39414227.601 5 207123160.052 5       403.107          34.000  
J 3  37892836.702 7 199128199.634 7      -215.659          44.000  
J 4  38213570.221 4 200813637.84224       -40.850          25.000  
> 2024 11 28 10 16  8.6020000  0 18                     
G 2  22641999.472 5 118984542.771 5      3126.507          32.000  
G10  25718192.766 7 135150043.635 7      1674.450          42.000  
G16  23430892.405 7 123130170.946 7     -2501.937          42.000  
G21  21142515.297 6 111104703.366 6      2261.408          37.000  
G23  25909087.748 6 136153151.149 6       168.758          40.000  
G26  25926592.532 4 136245164.482 4     -2929.320          29.000  
G27  21948056.837 7 115337794.929 7     -2481.776          47.000  
R14  22534775.603 6 120122977.265 6     -3009.399          38.000  
R15  19833834.595 6 105985940.556 6       -47.186          37.000  
R17  19828929.470 5 106108607.645 5     -1185.437          32.000  
R24  23469009.053 6 125499338.110 6     -3987.680          41.000  
E10  25235369.521 7 132612774.193 7      -556.174          47.000  
E11  24281199.119 7 127598580.806 7      1032.775          43.000  
E12  26825114.284 4 140966961.450 4     -1730.570          27.000  
E24  26312154.227 7 138271297.121 7     -1544.731          42.000  
J 2  39414212.367 5 207123079.364 5       403.101          34.000  
J 3  37892845.008 7 199128242.763 7      -215.720          44.000  
J 4  38213572.733 4 200813680.06434       -40.518          24.000  
> 2024 11 28 10 16  8.8020000  0 18                     
G 2  22641880.531 5 118983917.464 5      3126.454          32.000  
G10  25718128.968 7 135149708.651 7      1675.057          42.000  
G16  23430987.387 6 123130671.289 6     -2501.477          40.000  
G21  21142429.372 6 111104251.028 6      2261.861          39.000  
G23  25909081.413 6 136153117.458 6       168.197          40.000  
G26  25926704.545 4 136245750.146 4     -2928.031          29.000  
G27  21948151.330 7 115338291.223 7     -2481.313          47.000  
R14  22534888.471 6 120123579.028 6     -3008.814          38.000  
R15  19833836.306 6 105985949.987 6       -47.021          37.000  
R17  19828976.585 5 106108844.690 5     -1186.065          31.000  
R24  23469158.252 6 125500135.622 6     -3987.309          41.000  
E10  25235390.566 7 132612885.398 7      -555.884          47.000  
E11  24281159.786 7 127598374.244 7      1032.896          43.000  
E12  26825178.047 4 140967307.424 4     -1728.867          26.000  
E24  26312212.947 7 138271605.998 7     -1544.126          42.000  
J 2  39414196.958 5 207122998.655 5       403.729          34.000  
J 3  37892853.035 7 199128285.918 7      -215.666          43.000  
J 4  38213570.919 4 200813687.99924       -39.295          25.000  
> 2024 11 28 10 16  9.0020000  0 18                     
G 2  22641760.910 4 118983292.585 4      3124.470          27.000  
G10  25718065.048 6 135149373.397 6      1676.558          37.000  
G16  23431082.351 6 123131171.565 6     -2501.542          40.000  
G21  21142343.412 6 111103798.704 6      2261.301          41.000  
G23  25909075.044 6 136153083.616 6       169.409          40.000  
G26  25926815.581 4 136246335.970 4     -2929.401          29.000  
G27  21948245.753 7 115338787.458 7     -2481.125          47.000  
R14  22535001.479 6 120124180.854 6     -3009.560          38.000  
R15  19833837.911 6 105985959.391 6       -47.071          39.000  
R17  19829021.223 4 106109081.576 4     -1184.603          27.000  
R24  23469307.416 6 125500932.973 6     -3986.411          40.000  
E10  25235411.524 7 132612996.530 7      -555.662          47.000  
E11  24281120.470 7 127598167.645 7      1032.637          43.000  
E12  26825257.481 5 140967653.433 5     -1731.151          32.000  
E24  26312271.755 7 138271914.785 7     -1544.047          42.000  
J 2  39414181.655 5 207122917.929 5       403.644          35.000  
J 3  37892861.097 7 199128329.048 7      -215.579          43.000  
J 4  38213575.630 4 200813696.03924       -40.260          25.000  
> 2024 11 28 10 16  9.2020000  0 18                     
G 2  22641644.482 5 118982667.150 5      3126.024          32.000  
G10  25718001.302 6 135149038.399 6      1675.469          39.000  
G16  23431177.437 6 123131671.908 6     -2501.749          41.000  
G21  21142257.382 6 111103346.407 6      2261.345          41.000  
G23  25909068.605 6 136153049.815 6       169.114          38.000  
G26  25926927.506 4 136246922.011 4     -2930.115          29.000  
G27  21948340.299 7 115339283.747 7     -2481.666          47.000  
R14  22535114.382 6 120124782.658 6     -3008.921          37.000  
R15  19833839.673 6 105985968.798 6       -47.236          39.000  
R17  19829064.482 4 106109318.891 4     -1186.903          27.000  
R24  23469456.581 7 125501730.462 7     -3987.469          42.000  
E10  25235432.569 7 132613107.710 7      -556.099          47.000  
E11  24281081.120 7 127597961.085 7      1032.748          43.000  
E12  26825318.207 6 140967999.637 6     -1730.768          37.000  
E24  26312330.632 7 138272223.653 7     -1544.573          42.000  
J 2  39414166.508 5 207122837.239 5       403.210          35.000  
J 3  37892869.159 7 199128372.182 7      -215.875          44.000  
J 4  38213578.283 4 200813703.98224       -40.580          25.000  
> 2024 11 28 10 16  9.4020000  0 18                     
G 2  22641527.112 5 118982042.122 5      3125.683          31.000  
G10  25717937.574 6 135148703.410 6      1673.921          39.000  
G16  23431272.541 7 123132172.376 7     -2502.928          42.000  
G21  21142171.231 6 111102894.254 6      2260.198          39.000  
G23  25909062.218 6 136153016.155 6       167.531          39.000  
G26  25927042.119 5 136247507.992 5     -2929.785          33.000  
G27  21948434.966 8 115339780.107 8     -2481.973          48.000  
R14  22535227.389 5 120125384.547 5     -3009.605          35.000  
R15  19833841.453 6 105985978.313 6       -47.687          39.000  
R17  19829115.384 4 106109556.151 4     -1186.441          27.000  
R24  23469605.728 7 125502527.987 7     -3987.817          42.000  
E10  25235453.805 7 132613219.018 7      -556.843          47.000  
E11  24281041.875 7 127597754.639 7      1031.903          43.000  
E12  26825382.110 6 140968345.855 6     -1731.642          39.000  
E24  26312389.456 7 138272532.666 7     -1545.572          42.000  
J 2  39414151.099 5 207122756.578 5       403.125          35.000  
J 3  37892877.308 7 199128415.423 7      -216.570          44.000  
J 4  38213579.748 4               4       -42.646          24.000  
> 2024 11 28 10 16  9.6020000  0 18                     
G 2  22641403.128 4 118981417.154 4      3125.458          26.000  
G10  25717874.160 6 135148368.570 6      1674.311          39.000  
G16  23431367.784 7 123132672.923 7     -2502.944          43.000  
G21  21142085.131 6 111102442.087 6      2261.407          39.000  
G23  25909055.796 6 136152982.520 6       168.408          41.000  
G26  25927152.038 5 136248093.871 5     -2929.808          33.000  
G27  21948529.634 8 115340276.492 8     -2481.685          49.000  
R14  22535340.362 6 120125986.506 6     -3009.374          37.000  
R15  19833843.111 6 105985987.852 6       -47.495          39.000  
R17  19829163.233 5 106109793.327 5     -1185.748          32.000  
R24  23469754.945 6 125503325.577 6     -3987.775          40.000  
E10  25235475.531 7 132613330.374 7      -556.725          47.000  
E11  24281002.524 7 127597548.191 7      1032.492          43.000  
E12  26825447.496 6 140968692.207 6     -1731.817          39.000  
E24  26312448.473 7 138272841.694 7     -1545.086          43.000  
J 2  39414135.691 5 207122675.943 5       403.467          35.000  
J 3  37892885.493 7 199128458.626 7      -215.688          44.000  
J 4  38213580.813 4               4       -40.904          25.000  
> 2024 11 28 10 16  9.8020000  0 18                     
G 2  22641284.205 4 118980792.038 4      3125.721          27.000  
G10  25717810.589 6 135148033.737 6      1674.449          39.000  
G16  23431463.010 7 123133173.422 7     -2502.686          42.000  
G21  21141999.032 6 111101989.839 6      2261.624          39.000  
G23  25909049.252 6 136152948.850 6       168.722          41.000  
G26  25927259.270 4 136248679.701 4     -2929.110          29.000  
G27  21948624.214 8 115340772.847 8     -2481.584          50.000  
R14  22535453.247 6 120126588.496 6     -3009.922          37.000  
R15  19833844.786 6 105985997.425 6       -48.005          39.000  
R17  19829207.225 5 106110030.560 5     -1185.976          32.000  
R24  23469904.127 6 125504123.112 6     -3987.549          40.000  
E10  25235496.838 7 132613441.697 7      -556.452          47.000  
E11  24280963.261 7 127597341.739 7      1032.571          43.000  
E12  26825509.881 5 140969038.527 5     -1731.712          35.000  
E24  26312507.193 7 138273150.726 7     -1545.116          43.000  
J 2  39414120.492 5 207122595.230 5       403.613          35.000  
J 3  37892893.520 7 199128501.788 7      -215.550          44.000  
J 4  38213581.389 4 200813728.71224       -39.989          25.000  
> 2024 11 28 10 16 10.0020000  0 18                     
G 2  22641167.463 5 118980166.755 5      3126.725          31.000  
G10  25717747.017 6 135147698.801 6      1675.034          39.000  
G16  23431558.288 7 123133673.885 7     -2501.527          42.000  
G21  21141912.985 6 111101537.626 6      2260.768          38.000  
G23  25909042.691 6 136152915.197 6       168.299          39.000  
G26  25927370.725 3               3     -2925.280          20.000  
G27  21948718.637 8 115341269.173 8     -2481.414          50.000  
R14  22535566.150 6 120127190.484 6     -3009.611          37.000  
R15  19833846.496 6 105986006.928 6       -47.878          37.000  
R17  19829247.936 5 106110267.897 5     -1186.796          32.000  
R24  23470053.431 6 125504920.626 6     -3987.463          40.000  
E10  25235518.179 7 132613553.013 7      -556.337          47.000  
E11  24280924.033 7 127597135.265 7      1032.472          43.000  
E12  26825577.570 5 140969384.962 5     -1731.345          32.000  
E24  26312565.930 7 138273459.683 7     -1544.453          43.000  
J 2  39414105.066 5 207122514.478 5       403.851          35.000  
J 3  37892901.721 7 199128544.890 7      -215.273          44.000  
J 4  38213584.844 4 200813736.65124       -39.240          25.000  
> 2024 11 28 10 16 10.2020000  0 18                     
G 2  22641046.829 5 118979541.443 5      3126.380          31.000  
G10  25717683.586 7 135147363.801 7      1675.168          42.000  
G16  23431653.671 6 123134174.238 6     -2501.133          41.000  
G21  21141826.781 6 111101085.329 6      2261.831          38.000  
G23  25909035.990 6 136152881.428 6       168.796          39.000  
G26  25927478.549 3               3     -2923.654          22.000  
G27  21948813.008 8 115341765.454 8     -2481.136          50.000  
R14  22535679.018 6 120127792.282 6     -3008.934          38.000  
R15  19833848.364 6 105986016.380 6       -46.886          37.000  
R17  19829294.493 5 106110505.089 5     -1186.285          32.000  
R24  23470202.560 6 125505718.090 6     -3987.242          41.000  
E10  25235538.963 7 132613664.258 7      -556.063          46.000  
E11  24280884.666 7 127596928.719 7      1032.823          43.000  
E12  26825647.807 5 140969731.183 5     -1731.056          35.000  
E24  26312624.807 7 138273768.542 7     -1543.987          44.000  
J 2  39414089.587 5 207122433.642 5       404.718          31.000  
J 3  37892910.045 7 199128587.906 7      -214.704          44.000  
J 4  38213589.730 4               4       -38.079          24.000  
> 2024 11 28 10 16 10.4020000  0 18                     
G 2  22640925.463 5 118978916.123 5      3127.002          31.000  
G10  25717620.085 7 135147028.760 7      1675.443          43.000  
G16  23431749.089 6 123134674.549 6     -2501.142          41.000  
G21  21141740.647 6 111100632.923 6      2262.176          39.000  
G23  25909029.446 6 136152847.697 6       168.887          39.000  
G26  25927591.958 4               4     -2923.928          29.000  
G27  21948907.378 8 115342261.684 8     -2480.905          50.000  
R14  22535791.974 6 120128394.021 6     -3008.448          38.000  
R15  19833850.248 6 105986025.776 6       -46.474          37.000  
R17  19829338.485 5 106110742.192 5     -1185.961          33.000  
R24  23470351.707 6 125506515.523 6     -3986.876          41.000  
E10  25235560.042 7 132613775.447 7      -555.730          45.000  
E11  24280845.298 7 127596722.076 7      1033.402          43.000  
E12  26825716.683 6 140970077.361 6     -1730.497          36.000  
E24  26312683.859 7 138274077.303 7     -1543.443          44.000  
J 2  39414074.283 5 207122352.800 5       404.810          31.000  
J 3  37892918.264 7 199128630.839 7      -214.322          44.000  
J 4  38213593.848 4               4       -36.302          25.000  
> 2024 11 28 10 16 10.6020000  0 18                     
G 2  22640803.905 5 118978290.855 5      3126.439          31.000  
G10  25717556.548 7 135146693.732 7      1674.877          43.000  
G16  23431844.280 6 123135174.815 6     -2501.418          39.000  
G21  21141654.757 6 111100180.538 6      2262.167          39.000  
G23  25909023.025 6 136152814.013 6       167.972          39.000  
G26  25927704.809 4               4     -2928.199          29.000  
G27  21949001.697 8 115342757.930 8     -2481.261          51.000  
R14  22535904.911 6 120128995.783 6     -3008.757          38.000  
R15  19833852.115 6 105986035.231 6       -47.607          37.000  
R17  19829381.762 6 106110979.340 6     -1185.559          36.000  
R24  23470500.872 6 125507312.951 6     -3987.287          41.000  
E10  25235581.052 7 132613886.662 7      -556.213          45.000  
E11  24280805.878 7 127596515.468 7      1033.042          43.000  
E12  26825782.034 6 140970423.551 6     -1731.149          36.000  
E24  26312742.806 7 138274386.075 7     -1543.790          44.000  
J 2  39414058.770 5 207122271.900 5       404.297          32.000  
J 3  37892926.378 7 199128673.771 7      -214.545          44.000  
J 4  38213593.237 4               4       -37.665          25.000  
> 2024 11 28 10 16 10.8020000  0 18                     
G 2  22640683.324 5 118977665.447 5      3126.863          30.000  
G10  25717492.907 7 135146358.694 7      1675.261          42.000  
G16  23431939.453 6 123135675.094 6     -2501.355          39.000  
G21  21141568.779 6 111099728.156 6      2262.166          39.000  
G23  25909016.673 6 136152780.322 6       168.316          39.000  
G26  25927817.031 5               5     -2927.510          30.000  
G27  21949096.155 8 115343254.157 8     -2481.091          51.000  
R14  22536017.762 6 120129597.497 6     -3008.738          40.000  
R15  19833853.843 6 105986044.646 6       -46.971          36.000  
R17  19829423.887 6 106111216.528 6     -1186.122          36.000  
R24  23470649.984 6 125508110.366 6     -3987.187          39.000  
E10  25235602.446 7 132613997.879 7      -556.167          45.000  
E11  24280766.563 7 127596308.845 7      1033.154          43.000  
E12  26825843.668 6 140970769.784 6     -1731.443          36.000  
E24  26312801.473 7 138274694.846 7     -1543.855          43.000  
J 2  39414043.414 5 207122190.979 5       404.962          32.000  
J 3  37892934.388 7 199128716.664 7      -214.296          43.000  
J 4  38213587.933 4               4       -38.188          25.000  
> 2024 11 28 10 16 11.0020000  0 18                     
G 2  22640563.406 5 118977040.095 5      3126.622          30.000  
G10  25717428.935 6 135146023.729 6      1675.009          39.000  
G16  23432034.522 6 123136175.395 6     -2501.392          39.000  
G21  21141482.785 6 111099275.839 6      2261.195          39.000  
G23  25909010.356 6 136152746.754 6       167.924          40.000  
G26  25927927.544 5 136252183.53635     -2928.984          30.000  
G27  21949190.526 8 115343750.473 8     -2481.541          51.000  
R14  22536130.770 6 120130199.255 6     -3008.714          40.000  
R15  19833855.797 6 105986054.172 6       -47.830          36.000  
R17  19829468.210 6 106111453.783 6     -1186.395          36.000  
R24  23470799.009 6 125508907.875 6     -3987.818          39.000  
E10  25235623.631 7 132614109.182 7      -556.633          45.000  
E11  24280727.177 7 127596102.286 7      1032.775          43.000  
E12  26825910.136 6 140971116.061 6     -1731.854          36.000  
E24  26312860.281 7 138275003.671 7     -1544.391          43.000  
J 2  39414028.128 5 207122110.089 5       404.071          33.000  
J 3  37892942.468 7 199128759.600 7      -214.495          43.000  
J 4  38213590.166 4               4       -45.931          24.000  
> 2024 11 28 10 16 11.2020000  0 18                     
G 2  22640446.193 5 118976414.766 5      3126.633          30.000  
G10  25717365.050 6 135145688.903 6      1673.907          38.000  
G16  23432129.730 6 123136675.847 6     -2502.234          39.000  
G21  21141396.581 6 111098823.537 6      2261.431          39.000  
G23  25909003.952 6 136152713.339 6       166.956          40.000  
G26  25928037.724 5 136252769.34825     -2929.670          30.000  
G27  21949284.931 8 115344246.907 8     -2482.379          51.000  
R14  22536243.725 6 120130801.134 6     -3009.855          41.000  
R15  19833857.595 5 105986063.818 5       -48.213          35.000  
R17  19829509.951 6 106111691.167 6     -1187.401          36.000  
R24  23470948.173 6 125509705.546 6     -3988.854          39.000  
E10  25235644.850 7 132614220.619 7      -557.496          45.000  
E11  24280687.810 7 127595895.827 7      1032.048          43.000  
E12  26825971.823 6 140971462.497 6     -1732.176          37.000  
E24  26312919.070 7 138275312.585 7     -1544.752          43.000  
J 2  39414012.684 5 207122029.262 5       404.040          34.000  
J 3  37892950.530 7 199128802.589 7      -215.011          43.000  
J 4  38213590.009 3               3       -49.699          23.000  
> 2024 11 28 10 16 11.4020000  0 18                     
G 2  22640327.392 5 118975789.444 5      3126.996          30.000  
G10  25717301.234 6 135145354.103 6      1673.709          38.000  
G16  23432224.817 6 123137176.366 6     -2502.690          39.000  
G21  21141310.499 6 111098371.230 6      2261.867          38.000  
G23  25908997.582 6 136152680.042 6       166.372          40.000  
G26  25928152.442 5 136253355.18825     -2929.532          30.000  
G27  21949379.337 8 115344743.386 8     -2482.521          51.000  
R14  22536356.680 6 120131403.009 6     -3009.397          41.000  
R15  19833859.427 5 105986073.471 5       -48.861          35.000  
R17  19829553.507 6 106111928.575 6     -1186.849          36.000  
R24  23471097.181 6 125510503.301 6     -3989.010          40.000  
E10  25235666.087 7 132614332.076 7      -557.240          45.000  
E11  24280648.494 7 127595689.361 7      1032.095          43.000  
E12  26826042.880 6 140971809.012 6     -1732.679          37.000  
E24  26312977.860 7 138275621.558 7     -1544.817          43.000  
J 2  39413997.328 5 207121948.429 5       403.973          34.000  
J 3  37892958.626 7 199128845.540 7      -214.537          43.000  
J 4  38213590.917 3               3       -49.699          23.000  
> 2024 11 28 10 16 11.6020000  0 18                     
G 2  22640212.081 4 118975164.015 4      3127.265          29.000  
G10  25717237.680 6 135145019.418 6      1673.401          41.000  
G16  23432320.008 6 123137676.940 6     -2503.501          41.000  
G21  21141224.574 6 111097919.018 6      2261.084          39.000  
G23  25908991.230 6 136152646.908 6       165.140          38.000  
G26  25928263.984 5 136253941.08725     -2929.371          31.000  
G27  21949473.952 8 115345239.987 8     -2483.223          51.000  
R14  22536469.688 6 120132004.998 6     -3009.800          41.000  
R15  19833861.190 5 105986083.223 5       -48.869          35.000  
R17  19829597.028 6 106112166.140 6     -1188.378          36.000  
R24  23471246.415 6 125511301.246 6     -3989.799          40.000  
E10  25235687.446 7 132614443.694 7      -558.296          45.000  
E11  24280609.214 7 127595482.972 7      1031.667          43.000  
E12  26826109.871 6 140972155.685 6     -1733.844          39.000  
E24  26313036.807 7 138275930.617 7     -1545.487          43.000  
J 2  39413981.937 5 207121867.678 5       403.717          34.000  
J 3  37892966.828 7 199128888.556 7      -214.913          43.000  
J 4  38213591.091 3               3       -43.993          23.000  
> 2024 11 28 10 16 11.8020000  0 18                     
G 2  22640090.174 4 118974538.653 4      3127.630          29.000  
G10  25717174.249 6 135144684.824 6      1672.484          40.000  
G16  23432415.216 6 123138177.464 6     -2502.751          41.000  
G21  21141138.492 6 111097466.697 6      2261.738          39.000  
G23  25908985.053 6 136152613.963 6       164.480          36.000  
G26  25928374.967 5 136254527.03225     -2929.519          35.000  
G27  21949568.340 8 115345736.651 8     -2483.302          51.000  
R14  22536582.625 6 120132606.925 6     -3009.182          41.000  
R15  19833863.004 5 105986093.044 5       -48.964          35.000  
R17  19829641.857 6 106112403.728 6     -1188.033          36.000  
R24  23471395.667 6 125512099.259 6     -3990.049          41.000  
E10  25235708.771 7 132614555.337 7      -558.263          45.000  
E11  24280570.056 7 127595276.563 7      1032.428          43.000  
E12  26826175.571 7 140972502.441 7     -1733.811          42.000  
E24  26313095.858 7 138276239.692 7     -1545.296          43.000  
J 2  39413966.685 5 207121786.872 5       404.053          34.000  
J 3  37892974.995 7 199128931.471 7      -214.283          43.000  
J 4  38213595.506 3               3       -43.177          23.000  
> 2024 11 28 10 16 12.0020000  0 18                     
G 2  22639974.165 4 118973913.149 4      3127.255          29.000  
G10  25717110.433 6 135144350.271 6      1672.774          38.000  
G16  23432510.494 7 123138678.004 7     -2502.684          42.000  
G21  21141052.358 6 111097014.276 6      2262.474          39.000  
G23  25908978.701 6 136152580.958 6       164.805          38.000  
G26  25928485.619 5 136255112.85825     -2928.910          35.000  
G27  21949662.816 8 115346233.294 8     -2483.149          50.000  
R14  22536695.493 6 120133208.761 6     -3008.995          41.000  
R15  19833864.714 5 105986102.740 5       -48.086          34.000  
R17  19829689.147 6 106112641.288 6     -1187.377          36.000  
R24  23471544.918 6 125512897.341 6     -3990.635          41.000  
E10  25235729.955 7 132614666.955 7      -558.060          46.000  
E11  24280530.601 7 127595070.087 7      1032.686          43.000  
E12  26826243.069 7 140972849.200 7     -1733.946          42.000  
E24  26313154.753 7 138276548.724 7     -1544.845          43.000  
J 2  39413951.364 5 207121705.997 5       404.608          33.000  
J 3  37892983.179 7 199128974.282 7      -213.772          43.000  
J 4  38213597.146 4               4       -38.045          24.000  
> 2024 11 28 10 16 12.2020000  0 18                     
G 2  22639854.561 4 118973287.371 4      3130.158          29.000  
G10  25717046.426 6 135144015.656 6      1672.832          38.000  
G16  23432605.737 7 123139178.474 7     -2502.323          42.000  
G21  21140966.276 6 111096561.879 6      2261.895          39.000  
G23  25908972.454 6 136152547.956 6       164.816          38.000  
G26  25928599.307 6 136255698.73026     -2929.619          37.000  
G27  21949757.483 8 115346729.969 8     -2483.591          50.000  
R14  22536808.414 7 120133810.577 7     -3008.715          42.000  
R15  19833866.494 5 105986112.489 5       -49.484          34.000  
R17  19829732.598 5 106112878.889 5     -1188.054          32.000  
R24  23471694.100 7 125513695.348 7     -3990.186          43.000  
E10  25235750.878 7 132614778.565 7      -558.073          46.000  
E11  24280491.320 7 127594863.620 7      1032.429          43.000  
E12  26826310.025 6 140973195.991 6     -1733.917          39.000  
E24  26313213.438 7 138276857.665 7     -1544.778          43.000  
J 2  39413935.973 5 207121630.65935       403.558          30.000  
J 3  37892991.154 7 199129011.58137      -214.155          42.000  
J 4  38213599.991 4               4       -36.305          24.000  
> 2024 11 28 10 16 12.4020000  0 18                     
G 2  22639735.742 5 118972662.123 5      3126.287          33.000  
G10  25716982.471 6 135143680.953 6      1674.009          40.000  
G16  23432700.771 6 123139678.777 6     -2501.233          41.000  
G21  21140880.211 6 111096109.397 6      2262.820          39.000  
G23  25908966.085 6 136152515.083 6       164.154          38.000  
G26  25928709.941 5 136256284.50825     -2928.563          31.000  
G27  21949852.098 8 115347226.620 8     -2483.159          50.000  
R14  22536921.264 6 120134412.210 6     -3007.762          37.000  
R15  19833868.344 6 105986122.268 6       -48.888          37.000  
R17  19829775.037 4 106113116.350 4     -1187.356          28.000  
R24  23471843.457 6 125514493.407 6     -3990.536          41.000  
E10  25235771.783 7 132614890.173 7      -557.947          46.000  
E11  24280452.110 7 127594657.127 7      1032.624          43.000  
E12  26826374.364 5 140973542.670 5     -1732.339          34.000  
E24  26313271.949 7 138277166.527 7     -1544.253          43.000  
J 2  39413920.512 5 207121549.74125       404.651          31.000  
J 3  37892999.338 7 199129054.31927      -213.203          43.000  
J 4  38213600.026 3               3       -38.025          23.000  
> 2024 11 28 10 16 12.6020000  0 18                     
G 2  22639617.290 5               5      3125.462          33.000  
G10  25716918.830 6 135143346.175 6      1674.299          40.000  
G16  23432796.067 6 123140179.193 6     -2501.419          41.000  
G21  21140794.251 6 111095657.030 6      2261.767          40.000  
G23  25908959.785 6 136152482.152 6       164.977          38.000  
G26  25928822.897 4 136256870.33024     -2928.032          26.000  
G27  21949946.731 8 115347723.286 8     -2482.924          50.000  
R14  22537034.202 6 120135013.972 6     -3008.852          38.000  
R15  19833870.264 6 105986132.009 6       -48.203          37.000  
R17  19829819.518 4 106113353.966 4     -1187.260          27.000  
R24  23471992.726 6 125515291.422 6     -3989.842          41.000  
E10  25235793.090 7 132615001.802 7      -557.917          46.000  
E11  24280412.690 7 127594450.650 7      1032.118          43.000  
E12  26826442.106 5 140973889.233 5     -1733.197          34.000  
E24  26313330.808 7 138277475.424 7     -1544.292          43.000  
J 2  39413904.964 5 207121468.80325       405.072          32.000  
J 3  37893007.505 7 199129097.10227      -213.961          44.000  
J 4  38213601.404 3               3       -34.924          23.000  
> 2024 11 28 10 16 12.8020000  0 18                     
G 2  22639498.210 4               4      3129.321          28.000  
G10  25716855.137 6 135143011.594 6      1672.158          36.000  
G16  23432891.171 6 123140679.581 6     -2502.593          39.000  
G21  21140708.292 6 111095204.648 6      2261.476          40.000  
G23  25908953.573 6 136152449.193 6       164.525          38.000  
G26  25928932.694 5 136257460.18735     -2929.751          31.000  
G27  21950041.259 8 115348219.881 8     -2483.096          48.000  
R14  22537147.105 5 120135615.713 5     -3009.049          35.000  
R15  19833872.096 6 105986141.760 6       -49.123          37.000  
R17  19829861.311 4 106113591.476 4     -1187.520          27.000  
R24  23472142.030 6 125516089.395 6     -3989.853          41.000  
E10  25235814.013 7 132615113.410 7      -558.278          46.000  
E11  24280373.461 7 127594244.162 7      1032.237          43.000  
E12  26826509.534 6 140974235.951 6     -1733.548          37.000  
E24  26313389.615 7 138277784.337 7     -1544.885          43.000  
J 2  39413889.555 5 207121387.86025       404.675          35.000  
J 3  37893015.654 7 199129139.84727      -213.715          44.000  
J 4  38213609.658 3               3       -38.580          23.000  
> 2024 11 28 10 16 13.0020000  0 18                     
G 2  22639381.642 5               5      3126.381          33.000  
G10  25716791.426 6 135142676.927 6      1673.446          38.000  
G16  23432986.327 6 123141180.039 6     -2502.441          40.000  
G21  21140622.088 6 111094752.299 6      2261.588          39.000  
G23  25908947.326 6 136152416.207 6       164.887          39.000  
G26  25929040.763 5 136258046.08225     -2929.707          31.000  
G27  21950135.595 7 115348716.480 7     -2482.809          46.000  
R14  22537260.113 6 120136217.607 6     -3009.875          38.000  
R15  19833873.876 6 105986151.527 6       -48.746          39.000  
R17  19829905.251 4 106113829.114 4     -1188.206          27.000  
R24  23472291.351 6 125516887.346 6     -3989.598          41.000  
E10  25235835.372 7 132615225.019 7      -557.957          46.000  
E11  24280334.111 7 127594037.695 7      1032.329          42.000  
E12  26826576.124 6 140974582.642 6     -1733.072          37.000  
E24  26313448.650 7 138278093.292 7     -1544.585          43.000  
J 2  39413874.007 5 207121306.93025       404.602          35.000  
J 3  37893023.681 7 199129182.62727      -214.088          43.000  
J 4  38213610.635 3               3       -37.068          23.000  
> 2024 11 28 10 16 13.2020000  0 18                     
G 2  22639263.103 5 118970127.49435      3125.892          35.000  
G10  25716727.611 6 135142342.355 6      1672.229          38.000  
G16  23433081.745 6 123141680.636 6     -2503.639          41.000  
G21  21140536.041 6 111094300.145 6      2259.946          39.000  
G23  25908940.886 6 136152383.288 6       164.012          39.000  
G26  25929155.201 5 136258631.97725     -2930.532          31.000  
G27  21950229.965 7 115349213.173 7     -2483.832          46.000  
R14  22537373.033 6 120136819.646 6     -3010.724          38.000  
R15  19833875.778 6 105986161.468 6       -50.072          38.000  
R17  19829949.819 4 106114066.901 4     -1189.578          28.000  
R24  23472440.568 6 125517685.346 6     -3990.228          41.000  
E10  25235856.295 7 132615336.750 7      -559.224          47.000  
E11  24280295.005 7 127593831.430 7      1030.849          42.000  
E12  26826641.981 6 140974929.461 6     -1734.396          37.000  
E24  26313507.596 7 138278402.356 7     -1545.771          43.000  
J 2  39413858.546 5 207121226.14625       403.241          35.000  
J 3  37893031.952 7 199129225.61127      -215.464          44.000  
J 4  38213611.455 4               4       -38.243          24.000  
> 2024 11 28 10 16 13.4020000  0 18                     
G 2  22639141.824 5 118969502.19225      3126.094          33.000  
G10  25716663.778 6 135142007.945 6      1671.678          38.000  
G16  23433177.145 7 123142181.314 7     -2503.531          42.000  
G21  21140450.168 6 111093848.055 6      2260.406          39.000  
G23  25908934.587 6 136152350.451 6       163.973          40.000  
G26  25929266.254 5 136259217.86925     -2930.288          30.000  
G27  21950324.493 7 115349709.953 7     -2484.427          46.000  
R14  22537486.006 6 120137421.765 6     -3010.518          38.000  
R15  19833877.575 6 105986171.488 6       -50.518          38.000  
R17  19829996.271 5 106114304.762 5     -1189.934          32.000  
R24  23472589.768 6 125518483.461 6     -3991.057          41.000  
E10  25235877.706 7 132615448.593 7      -559.428          47.000  
E11  24280255.934 7 127593625.248 7      1030.693          43.000  
E12  26826706.459 5 140975276.398 5     -1735.530          34.000  
E24  26313566.334 7 138278711.503 7     -1545.858          43.000  
J 2  39413843.260 5 207121145.38225       403.326          35.000  
J 3  37893040.171 7 199129268.60427      -214.898          44.000  
J 4  38213611.368 4               4       -39.225          24.000  
> 2024 11 28 10 16 13.6020000  0 18                     
G 2  22639020.493 5 118968876.78125      3128.041          32.000  
G10  25716600.189 6 135141673.603 6      1670.885          41.000  
G16  23433272.598 6 123142682.162 6     -2504.795          41.000  
G21  21140364.296 6 111093396.016 6      2260.149          39.000  
G23  25908928.479 7 136152317.739 7       162.869          42.000  
G26  25929376.016 4               4     -2921.861          24.000  
G27  21950419.073 7 115350206.883 7     -2484.896          46.000  
R14  22537598.891 5 120138023.837 5     -3010.517          35.000  
R15  19833879.442 6 105986181.616 6       -51.237          38.000  
R17  19830040.438 5 106114542.834 5     -1190.538          33.000  
R24  23472739.089 6 125519281.749 6     -3991.756          41.000  
E10  25235899.083 7 132615560.601 7      -560.442          46.000  
E11  24280216.776 7 127593419.156 7      1029.817          43.000  
E12  26826767.622 5 140975623.663 5     -1737.088          31.000  
E24  26313624.967 6 138279020.792 6     -1546.899          40.000  
J 2  39413827.869 5 207121064.73525       403.528          35.000  
J 3  37893048.355 7 199129311.62727      -215.213          44.000  
J 4  38213613.043 4               4       -40.066          24.000  
> 2024 11 28 10 16 13.8020000  0 18                     
G 2  22638904.501 5 118968251.64725      3125.073          32.000  
G10  25716536.513 7 135141339.341 7      1672.301          43.000  
G16  23433367.946 6 123143182.986 6     -2503.844          41.000  
G21  21140278.301 6 111092943.997 6      2260.546          39.000  
G23  25908922.319 6 136152285.188 6       162.427          40.000  
G26  25929486.040 5               5     -2931.186          31.000  
G27  21950513.671 7 115350703.837 7     -2484.907          46.000  
R14  22537711.934 6 120138626.099 6     -3011.431          36.000  
R15  19833881.222 6 105986191.804 6       -51.010          38.000  
R17  19830084.499 5 106114780.896 5     -1190.513          33.000  
R24  23472888.411 6 125520080.085 6     -3992.007          41.000  
E10  25235920.250 7 132615672.623 7      -560.179          46.000  
E11  24280177.757 7 127593213.041 7      1030.549          43.000  
E12  26826833.218 5 140975970.822 5     -1735.739          35.000  
E24  26313683.599 6 138279330.081 6     -1546.375          40.000  
J 2  39413812.408 5 207120984.05425       403.967          34.000  
J 3  37893056.592 7 199129354.64727      -215.107          44.000  
J 4  38213614.614 3               3       -42.672          23.000  
> 2024 11 28 10 16 14.0020000  0 18                     
G 2  22638787.445 4 118967626.28324      3125.941          28.000  
G10  25716472.994 7 135141005.082 7      1671.255          42.000  
G16  23433463.381 6 123143683.754 6     -2503.891          41.000  
G21  21140192.341 6 111092492.023 6      2259.235          38.000  
G23  25908916.090 6 136152252.517 6       163.479          40.000  
G26  25929604.003 5               5     -2929.852          31.000  
G27  21950608.216 7 115351200.723 7     -2483.807          45.000  
R14  22537824.924 6 120139228.276 6     -3010.311          36.000  
R15  19833883.090 6 105986201.951 6       -50.330          36.000  
R17  19830126.851 4 106115018.893 4     -1190.068          28.000  
R24  23473037.592 7 125520878.353 7     -3990.469          43.000  
E10  25235941.539 7 132615784.621 7      -559.431          47.000  
E11  24280138.512 7 127593006.924 7      1030.842          43.000  
E12  26826900.768 6 140976317.885 6     -1734.992          37.000  
E24  26313742.441 6 138279639.375 6     -1546.341          40.000  
J 2  39413796.965 5 207120903.33725       404.217          34.000  
J 3  37893064.828 7 199129397.63927      -214.819          44.000  
J 4  38213617.109 3               3       -37.283          23.000  
> 2024 11 28 10 16 14.2020000  0 18                     
G 2  22638670.616 4 118967001.30124      3125.496          28.000  
G10  25716409.284 7 135140670.663 7      1672.041          42.000  
G16  23433558.886 6 123144184.466 6     -2503.502          41.000  
G21  21140106.329 6 111092040.053 6      2259.332          36.000  
G23  25908909.895 6 136152219.825 6       163.056          39.000  
G26  25929717.168 4 136261574.62634     -2930.446          25.000  
G27  21950702.657 7 115351697.558 7     -2484.415          45.000  
R14  22537937.914 6 120139830.411 6     -3011.006          36.000  
R15  19833885.009 6 105986212.055 6       -50.537          36.000  
R17  19830171.890 4 106115256.811 4     -1189.586          28.000  
R24  23473186.914 7 125521676.536 7     -3991.205          43.000  
E10  25235962.881 7 132615896.564 7      -559.913          47.000  
E11  24280099.284 7 127592800.825 7      1030.366          43.000  
E12  26826967.497 6 140976664.880 6     -1734.923          39.000  
E24  26313801.284 6 138279948.565 6     -1545.936          40.000  
J 2  39413781.626 5 207120822.60825       402.850          34.000  
J 3  37893073.065 7 199129440.67427      -215.268          43.000  
J 4  38213616.656 4               4       -40.406          29.000  
> 2024 11 28 10 16 14.4020000  0 18                     
G 2  22638549.215 4               4      3122.457          27.000  
G10  25716345.695 6 135140336.248 6      1672.562          40.000  
G16  23433654.164 7 123144685.135 7     -2502.992          42.000  
G21  21140020.177 6 111091588.119 6      2259.929          36.000  
G23  25908903.578 6 136152187.063 6       164.434          36.000  
G26  25929832.130 4 136262160.70224     -2929.784          25.000  
G27  21950797.167 7 115352194.344 7     -2483.585          44.000  
R14  22538050.904 6 120140432.542 6     -3010.522          36.000  
R15  19833887.016 6 105986222.207 6       -50.857          38.000  
R17  19830217.540 4 106115494.845 4     -1190.439          29.000  
R24  23473336.201 7 125522474.616 7     -3990.125          42.000  
E10  25235984.484 8 132616008.459 8      -559.211          48.000  
E11  24280060.056 7 127592594.723 7      1030.738          43.000  
E12  26827034.960 6 140977011.812 6     -1734.258          39.000  
E24  26313860.004 6 138280257.713 6     -1545.191          40.000  
J 2  39413766.304 5 207120741.82225       404.132          34.000  
J 3  37893081.371 7 199129483.69827      -215.231          43.000  
J 4  38213618.261 5               5       -39.556          30.000  
> 2024 11 28 10 16 14.6020000  0 18                     
G 2  22638433.066 4               4      3124.971          28.000  
G10  25716282.002 6 135140001.735 6      1672.769          40.000  
G16  23433749.460 7 123145185.733 7     -2502.841          42.000  
G21  21139934.165 6 111091136.231 6      2259.404          36.000  
G23  25908897.226 6 136152154.304 6       164.083          36.000  
G26  25929947.459 4 136262746.68424     -2929.990          25.000  
G27  21950891.782 7 115352691.057 7     -2483.300          44.000  
R14  22538163.929 6 120141034.712 6     -3010.511          36.000  
R15  19833889.058 6 105986232.272 6       -50.480          38.000  
R17  19830261.881 5 106115732.774 5     -1189.626          33.000  
R24  23473485.644 6 125523272.601 6     -3989.419          41.000  
E10  25236005.791 8 132616120.282 8      -558.870          48.000  
E11  24280020.705 7 127592388.601 7      1030.581          43.000  
E12  26827102.318 6 140977358.649 6     -1734.012          39.000  
E24  26313918.724 6 138280566.731 6     -1545.025          39.000  
J 2  39413750.983 5 207120661.00825       404.553          33.000  
J 3  37893089.555 7 199129526.72227      -215.071          43.000  
J 4  38213620.111 4               4       -39.675          29.000  
> 2024 11 28 10 16 14.8020000  0 18                     
G 2  22638314.684 5 118965142.76335      3125.322          32.000  
G10  25716218.239 6 135139667.205 6      1672.885          39.000  
G16  23433844.808 6 123145686.309 6     -2502.791          41.000  
G21  21139848.153 6 111090684.426 6      2258.452          36.000  
G23  25908890.857 6 136152121.426 6       164.435          36.000  
G26  25930055.842 4               4     -2924.232          24.000  
G27  21950986.432 7 115353187.721 7     -2483.256          45.000  
R14  22538276.745 5 120141636.855 5     -3010.409          33.000  
R15  19833890.977 6 105986242.382 6       -50.555          38.000  
R17  19830309.276 5 106115970.808 5     -1190.203          32.000  
R24  23473634.791 6 125524070.530 6     -3989.418          41.000  
E10  25236027.272 8 132616232.120 8      -559.164          48.000  
E11  24279981.285 6 127592182.513 6      1030.124          41.000  
E12  26827167.075 6 140977705.451 6     -1733.845          39.000  
E24  26313977.443 6 138280875.775 6     -1545.353          39.000  
J 2  39413735.365 5 207120580.16725       404.266          33.000  
J 3  37893097.862 7 199129569.77727      -215.196          43.000  
J 4  38213621.420 4               4       -39.529          29.000  
> 2024 11 28 10 16 15.0020000  0 18                     
G 2  22638195.569 5 118964517.84125      3123.644          32.000  
G10  25716154.476 6 135139332.661 6      1672.501          39.000  
G16  23433940.068 6 123146186.892 6     -2503.238          40.000  
G21  21139762.368 6 111090232.641 6      2258.423          37.000  
G23  25908884.348 6 136152088.492 6       164.940          36.000  
G26  25930168.186 3               3     -2924.232          23.000  
G27  21951080.890 7 115353684.379 7     -2483.359          45.000  
R14  22538389.753 5 120142238.974 5     -3011.259          32.000  
R15  19833893.106 6 105986252.520 6       -50.933          38.000  
R17  19830353.058 5 106116208.857 5     -1190.625          32.000  
R24  23473784.095 6 125524868.426 6     -3989.191          41.000  
E10  25236048.701 8 132616343.962 8      -559.458          48.000  
E11  24279941.952 6 127591976.434 6      1030.120          41.000  
E12  26827231.955 6 140978052.239 6     -1734.101          37.000  
E24  26314035.972 6 138281184.834 6     -1545.231          39.000  
J 2  39413719.835 5 207120499.33125       403.528          33.000  
J 3  37893106.133 7 199129612.85827      -215.737          43.000  
J 4  38213623.775 4               4       -39.801          28.000  
> 2024 11 28 10 16 15.2020000  0 18                     
G 2  22638077.937 5 118963892.88125      3124.482          32.000  
G10  25716090.713 6 135138998.114 6      1672.738          39.000  
G16  23434035.242 6 123146687.449 6     -2502.670          40.000  
G21  21139676.600 6 111089780.904 6      2258.573          37.000  
G23  25908878.118 6 136152055.616 6       164.204          36.000  
G26  25930277.041 4               4     -2931.022          24.000  
G27  21951175.401 7 115354181.019 7     -2483.182          45.000  
R14  22538502.743 5 120142841.066 5     -3010.289          32.000  
R15  19833895.113 6 105986262.669 6       -50.844          39.000  
R17  19830398.952 5 106116446.901 5     -1190.775          32.000  
R24  23473933.242 6 125525666.316 6     -3989.233          41.000  
E10  25236070.112 7 132616455.788 7      -559.072          47.000  
E11  24279902.759 6 127591770.365 6      1030.401          41.000  
E12  26827298.179 6 140978398.999 6     -1733.519          37.000  
E24  26314094.500 6 138281493.896 6     -1545.278          41.000  
J 2  39413704.374 5 207120418.46425       404.309          32.000  
J 3  37893114.300 7 199129655.91627      -215.421          43.000  
J 4  38213626.655 4               4       -38.842          28.000  
> 2024 11 28 10 16 15.4020000  0 18                     
G 2  22637958.158 5 118963268.00925      3124.383          31.000  
G10  25716026.845 6 135138663.587 6      1672.745          41.000  
G16  23434130.520 6 123147188.054 6     -2502.929          40.000  
G21  21139590.832 6 111089329.262 6      2257.820          39.000  
G23  25908871.679 6 136152022.681 6       164.595          36.000  
G26  25930384.988 4               4     -2928.068          24.000  
G27  21951269.894 7 115354677.668 7     -2483.204          45.000  
R14  22538615.628 5 120143443.321 5     -3011.071          32.000  
R15  19833897.067 6 105986272.844 6       -51.043          39.000  
R17  19830442.543 5 106116684.976 5     -1190.859          32.000  
R24  23474082.564 6 125526464.199 6     -3989.488          41.000  
E10  25236091.279 7 132616567.668 7      -559.338          47.000  
E11  24279863.496 6 127591564.356 6      1029.857          41.000  
E12  26827363.164 6 140978745.793 6     -1733.749          37.000  
E24  26314153.394 7 138281802.969 7     -1545.371          42.000  
J 2  39413688.913 5 207120337.60525       404.620          32.000  
J 3  37893122.432 7 199129699.04027      -215.564          43.000  
J 4  38213629.307 4               4       -40.148          28.000  
> 2024 11 28 10 16 15.6020000  0 18                     
G 2  22637837.944 5 118962643.23325      3122.926          31.000  
G10  25715963.082 6 135138329.084 6      1672.469          41.000  
G16  23434225.711 6 123147688.604 6     -2502.621          39.000  
G21  21139505.152 6 111088877.654 6      2257.841          40.000  
G23  25908865.467 6 136151989.814 6       163.542          37.000  
G26  25930493.197 4               4     -2922.445          24.000  
G27  21951364.526 7 115355174.322 7     -2483.579          45.000  
R14  22538728.514 5 120144045.563 5     -3011.529          35.000  
R15  19833899.039 6 105986283.056 6       -51.207          40.000  
R17  19830488.245 5 106116923.102 5     -1191.246          32.000  
R24  23474231.746 6 125527262.067 6     -3989.787          40.000  
E10  25236112.342 7 132616679.526 7      -559.436          47.000  
E11  24279824.198 6 127591358.343 6      1030.166          41.000  
E12  26827427.433 5 140979092.514 5     -1733.546          34.000  
E24  26314212.166 7 138282112.044 7     -1545.304          42.000  
J 2  39413673.522 5 207120256.78125       404.297          33.000  
J 3  37893130.616 7 199129742.18027      -215.730          43.000  
J 4  38213630.284 4               4       -34.536          27.000  
> 2024 11 28 10 16 15.8020000  0 18                     
G 2  22637717.310 5 118962018.26325      3125.443          31.000  
G10  25715899.458 6 135137994.586 6      1672.358          38.000  
G16  23434320.919 6 123148189.190 6     -2503.372          40.000  
G21  21139419.314 6 111088425.965 6      2258.546          41.000  
G23  25908859.150 6 136151956.954 6       164.226          37.000  
G26  25930605.751 4               4     -2931.124          24.000  
G27  21951459.071 7 115355670.972 7     -2483.727          45.000  
R14  22538841.504 5 120144647.844 5     -3012.094          35.000  
R15  19833901.011 6 105986293.258 6       -51.030          40.000  
R17  19830532.656 5 106117161.213 5     -1190.600          32.000  
R24  23474380.945 6 125528059.913 6     -3989.720          39.000  
E10  25236133.491 7 132616791.395 7      -559.595          47.000  
E11  24279785.023 7 127591152.330 7      1029.698          43.000  
E12  26827492.592 5 140979439.225 5     -1734.334          31.000  
E24  26314271.061 7 138282421.100 7     -1545.651          42.000  
J 2  39413658.113 5 207120175.92225       403.760          34.000  
J 3  37893138.643 7 199129785.24227      -215.687          44.000  
J 4  38213630.912 4               4       -38.312          27.000  
> 2024 11 28 10 16 16.0020000  0 18                     
G 2  22637597.689 5 118961393.50925      3123.628          35.000  
G10  25715835.835 6 135137660.021 6      1672.426          36.000  
G16  23434416.302 6 123148689.848 6     -2503.908          39.000  
G21  21139333.494 7 111087974.415 7      2257.191          43.000  
G23  25908852.780 6 136151924.163 6       163.743          37.000  
G26  25930718.235 4               4     -2928.444          24.000  
G27  21951553.634 7 115356167.645 7     -2483.429          44.000  
R14  22538954.546 5 120145250.182 5     -3011.769          35.000  
R15  19833902.983 6 105986303.534 6       -51.449          40.000  
R17  19830574.973 5 106117399.453 5     -1190.928          32.000  
R24  23474530.092 6 125528857.749 6     -3989.427          38.000  
E10  25236154.868 7 132616903.338 7      -560.023          47.000  
E11  24279745.777 7 127590946.401 7      1029.210          43.000  
E12  26827558.536 5 140979786.044 5     -1734.188          31.000  
E24  26314329.920 7 138282730.217 7     -1545.625          42.000  
J 2  39413642.827 5 207120095.13325       403.345          34.000  
J 3  37893147.019 7 199129828.40527      -216.478          44.000  
J 4  38213630.616 4               4       -40.363          27.000  
> 2024 11 28 10 16 16.2020000  0 18                     
G 2  22637475.695 6 118960768.79526      3123.175          37.000  
G10  25715772.281 6 135137325.563 6      1672.577          36.000  
G16  23434511.493 6 123149190.574 6     -2503.649          39.000  
G21  21139247.674 7 111087522.931 7      2257.515          43.000  
G23  25908846.411 6 136151891.310 6       164.467          37.000  
G26  25930834.017 4               4     -2929.354          25.000  
G27  21951648.179 7 115356664.391 7     -2483.451          44.000  
R14  22539067.519 6 120145852.581 6     -3011.485          36.000  
R15  19833904.833 6 105986313.894 6       -51.705          38.000  
R17  19830619.715 5 106117637.739 5     -1191.403          32.000  
R24  23474679.257 6 125529655.668 6     -3989.404          38.000  
E10  25236176.140 7 132617015.359 7      -559.924          46.000  
E11  24279706.724 7 127590740.550 7      1029.211          43.000  
E12  26827626.086 5 140980132.993 5     -1735.020          32.000  
E24  26314388.763 7 138283039.413 7     -1545.557          42.000  
J 2  39413627.505 5 207120014.36725       403.766          34.000  
J 3  37893155.221 7 199129871.62327      -215.989          44.000  
J 4  38213627.841 5 200813991.23735       -39.443          35.000  
> 2024 11 28 10 16 16.4020000  0 18                     
G 2  22637355.026 6 118960144.09826      3122.919          37.000  
G10  25715708.727 6 135136991.123 6      1671.500          40.000  
G16  23434606.789 6 123149691.246 6     -2504.257          39.000  
G21  21139161.661 7 111087071.499 7      2256.862          43.000  
G23  25908840.007 5 136151858.487 5       162.873          34.000  
G26  25930944.669 5               5     -2929.901          32.000  
G27  21951742.777 7 115357161.100 7     -2484.070          45.000  
R14  22539180.579 6 120146454.960 6     -3012.475          38.000  
R15  19833906.700 6 105986324.267 6       -52.796          38.000  
R17  19830661.439 5 106117875.990 5     -1191.961          31.000  
R24  23474828.473 6 125530453.539 6     -3989.758          40.000  
E10  25236197.307 7 132617127.359 7      -560.468          46.000  
E11  24279667.548 7 127590534.686 7      1028.940          43.000  
E12  26827692.763 5 140980479.827 5     -1734.294          35.000  
E24  26314447.797 7 138283348.573 7     -1546.303          42.000  
J 2  39413612.149 5 207119933.60925       403.143          35.000  
J 3  37893163.387 7 199129914.86327      -216.593          44.000  
J 4  38213634.333 6 200813999.19426       -39.903          37.000  
> 2024 11 28 10 16 16.6020000  0 19                     
G 2  22637238.005 6 118959519.39226      3123.354          38.000  
G10  25715645.174 6 135136656.862 6      1671.407          40.000  
G16  23434702.119 6 123150192.153 6     -2504.866          39.000  
G21  21139075.771 7 111086620.133 7      2256.785          42.000  
G23  25908833.777 6 136151825.778 6       163.734          37.000  
G26  25931053.610 5 136268619.55135     -2929.177          32.000  
G27  21951837.479 7 115357657.965 7     -2483.997          45.000  
R14  22539293.796 6 120147057.450 6     -3012.475          38.000  
R15  19833908.567 6 105986334.784 6       -52.834          36.000  
R17  19830702.953 5 106118114.468 5     -1192.574          31.000  
R18  20436169.716 5               5      2647.667          30.000  
R24  23474977.743 6 125531251.589 6     -3989.658          40.000  
E10  25236218.823 7 132617239.535 7      -560.733          46.000  
E11  24279628.302 7 127590328.988 7      1028.494          43.000  
E12  26827759.109 5 140980826.910 5     -1735.364          35.000  
E24  26314506.482 7 138283657.905 7     -1546.594          42.000  
J 2  39413596.828 5 207119852.91525       403.644          35.000  
J 3  37893171.589 7 199129958.19127      -216.882          44.000  
J 4  38213636.008 6 200814007.13126       -39.513          37.000  
> 2024 11 28 10 16 16.8020000  0 19                     
G 2  22637120.461 6 118958894.70826      3123.234          38.000  
G10  25715581.602 6 135136322.629 6      1671.314          40.000  
G16  23434797.572 6 123150692.993 6     -2504.044          39.000  
G21  21138989.864 7 111086168.800 7      2256.597          42.000  
G23  25908827.530 6 136151793.184 6       163.167          37.000  
G26  25931169.201 5 136269205.62725     -2930.581          32.000  
G27  21951932.094 7 115358154.873 7     -2484.252          45.000  
R14  22539406.926 5 120147659.969 5     -3012.677          35.000  
R15  19833910.417 5 105986345.357 5       -52.772          35.000  
R17  19830746.351 4 106118353.049 4     -1193.262          25.000  
R18  20436069.290 5               5      2647.309          30.000  
R24  23475127.064 6 125532049.670 6     -3990.301          40.000  
E10  25236240.042 7 132617351.739 7      -561.000          46.000  
E11  24279589.249 7 127590123.303 7      1028.450          42.000  
E12  26827825.245 5 140981174.047 5     -1735.790          35.000  
E24  26314565.481 7 138283967.195 7     -1546.435          42.000  
J 2  39413581.489 5 207119772.28125       403.400          34.000  
J 3  37893179.878 7 199130001.50927      -216.635          43.000  
J 4  38213638.678 5 200814015.07525       -39.696          34.000  
> 2024 11 28 10 16 17.0020000  0 19                     
G 2  22636999.007 6 118958270.04526      3123.405          38.000  
G10  25715517.839 6 135135988.357 6      1671.120          39.000  
G16  23434893.095 6 123151193.837 6     -2504.228          39.000  
G21  21138904.079 6 111085717.516 6      2256.643          41.000  
G23  25908821.248 6 136151760.613 6       162.275          38.000  
G26  25931284.128 5 136269791.85725     -2931.944          31.000  
G27  21952026.727 7 115358651.847 7     -2484.996          45.000  
R14  22539519.951 5 120148262.468 5     -3012.122          35.000  
R15  19833912.336 6 105986355.992 6       -53.143          38.000  
R17  19830790.413 4 106118591.694 4     -1193.577          25.000  
R18  20435970.085 3               3      2646.908          23.000  
R24  23475276.421 6 125532847.795 6     -3991.060          41.000  
E10  25236261.402 7 132617463.970 7      -561.229          46.000  
E11  24279550.160 7 127589917.686 7      1027.903          42.000  
E12  26827891.434 5 140981521.125 5     -1735.529          35.000  
E24  26314624.585 7 138284276.522 7     -1546.531          43.000  
J 2  39413566.238 5 207119691.64725       403.796          34.000  
J 3  37893188.324 7 199130044.87127      -216.683          43.000  
J 4  38213637.456 5 200814022.99425       -39.143          34.000  
> 2024 11 28 10 16 17.2020000  0 19                     
G 2  22636880.084 6 118957645.36526      3123.712          38.000  
G10  25715454.129 6 135135654.084 6      1671.337          38.000  
G16  23434988.320 6 123151694.585 6     -2503.296          39.000  
G21  21138818.311 6 111085266.173 6      2257.016          41.000  
G23  25908815.018 6 136151728.085 6       162.490          38.000  
G26  25931394.518 5 136270378.01125     -2931.323          31.000  
G27  21952121.290 7 115359148.737 7     -2484.120          45.000  
R14  22539632.993 5 120148864.976 5     -3012.143          35.000  
R15  19833914.291 6 105986366.551 6       -52.482          38.000  
R17  19830834.754 4 106118830.165 4     -1191.687          26.000  
R18  20435870.968 3               3      2647.127          22.000  
R24  23475425.725 6 125533645.914 6     -3990.695          41.000  
E10  25236282.778 7 132617576.168 7      -560.652          46.000  
E11  24279511.072 6 127589711.956 6      1028.857          41.000  
E12  26827957.710 6 140981868.222 6     -1735.660          37.000  
E24  26314683.706 7 138284585.805 7     -1546.404          43.000  
J 2  39413551.091 5 207119610.96025       404.260          34.000  
J 3  37893196.717 7 199130088.10827      -215.750          43.000  
J 4  38213636.915 5 200814030.89325       -38.619          33.000  
> 2024 11 28 10 16 17.4020000  0 19                     
G 2  22636761.265 6 118957020.60826      3123.781          38.000  
G10  25715390.470 6 135135319.833 6      1671.245          38.000  
G16  23435083.511 6 123152195.397 6     -2503.929          40.000  
G21  21138732.491 6 111084814.770 6      2256.901          41.000  
G23  25908808.963 6 136151695.622 6       162.618          37.000  
G26  25931503.652 5 136270964.11325     -2930.061          35.000  
G27  21952215.922 7 115359645.655 7     -2484.392          45.000  
R14  22539746.053 5 120149467.459 5     -3012.307          35.000  
R15  19833916.297 6 105986377.098 6       -52.719          38.000  
R17  19830878.938 4 106119068.724 4     -1192.808          26.000  
R18  20435771.153 3               3      2646.585          22.000  
R24  23475575.064 6 125534444.083 6     -3990.916          40.000  
E10  25236304.032 7 132617688.398 7      -561.254          46.000  
E11  24279472.140 6 127589506.218 6      1028.598          41.000  
E12  26828024.195 6 140982215.346 6     -1735.623          37.000  
E24  26314742.723 7 138284895.076 7     -1546.159          43.000  
J 2  39413535.665 5 207119530.22425       403.967          34.000  
J 3  37893204.919 7 199130131.29527      -215.971          43.000  
J 4  38213639.463 5 200814038.72925       -39.319          34.000  
> 2024 11 28 10 16 17.6020000  0 19                     
G 2  22636643.494 6 118956395.73726      3124.568          38.000  
G10  25715326.847 6 135134985.545 6      1671.322          36.000  
G16  23435178.650 6 123152696.095 6     -2503.688          40.000  
G21  21138646.706 7 111084363.264 7      2257.635          42.000  
G23  25908802.593 5 136151663.173 5       162.236          35.000  
G26  25931615.054 5 136271550.14825     -2929.979          35.000  
G27  21952310.502 7 115360142.496 7     -2484.037          45.000  
R14  22539859.026 6 120150069.836 6     -3011.894          36.000  
R15  19833918.356 6 105986387.538 6       -52.029          38.000  
R17  19830924.710 4 106119307.144 4     -1191.592          26.000  
R18  20435671.268 3               3      2648.233          22.000  
R24  23475724.315 6 125535242.187 6     -3990.726          40.000  
E10  25236325.392 7 132617800.531 7      -560.405          46.000  
E11  24279432.895 6 127589300.347 6      1029.878          40.000  
E12  26828090.471 6 140982562.440 6     -1735.343          39.000  
E24  26314801.739 7 138285204.267 7     -1545.796          43.000  
J 2  39413520.309 5 207119449.37225       404.578          34.000  
J 3  37893212.998 7 199130174.34827      -214.996          43.000  
J 4  38213640.301 5 200814046.43925       -38.729          34.000  
> 2024 11 28 10 16 17.8020000  0 19                     
G 2  22636523.192 6 118955770.94126      3123.693          38.000  
G10  25715263.101 6 135134651.283 6      1671.404          36.000  
G16  23435273.980 6 123153196.793 6     -2503.360          40.000  
G21  21138560.816 7 111083911.817 7      2256.917          42.000  
G23  25908796.294 5 136151630.672 5       161.614          32.000  
G26  25931727.782 5 136272136.18625     -2930.343          35.000  
G27  21952405.135 7 115360639.312 7     -2484.355          45.000  
R14  22539972.103 6 120150672.302 6     -3012.518          38.000  
R15  19833920.224 6 105986398.002 6       -52.956          36.000  
R17  19830971.442 4 106119545.578 4     -1192.362          28.000  
R18  20435571.923 3               3      2646.558          23.000  
R24  23475873.567 6 125536040.233 6     -3990.270          40.000  
E10  25236346.925 7 132617912.693 7      -560.901          46.000  
E11  24279393.702 6 127589094.562 6      1028.717          40.000  
E12  26828156.817 6 140982909.496 6     -1735.470          39.000  
E24  26314860.756 7 138285513.446 7     -1545.922          42.000  
J 2  39413504.865 5 207119368.50925       404.138          34.000  
J 3  37893221.217 7 199130217.46027      -215.878          43.000  
J 4  38213642.569 5 200814054.19125       -38.544          34.000  
> 2024 11 28 10 16 18.0020000  0 19                     
G 2  22636405.194 6 118955146.30626      3123.310          37.000  
G10  25715199.512 5 135134317.038 5      1671.138          35.000  
G16  23435369.224 6 123153697.642 6     -2504.210          40.000  
G21  21138474.995 7 111083460.563 7      2256.331          43.000  
G23  25908790.169 5 136151598.129 5       162.424          31.000  
G26  25931838.957 5 136272722.24725     -2929.773          35.000  
G27  21952499.645 7 115361136.189 7     -2484.723          45.000  
R14  22540085.041 6 120151274.805 6     -3012.668          38.000  
R15  19833922.196 6 105986408.604 6       -53.246          36.000  
R17  19831016.690 4 106119784.209 4     -1193.246          28.000  
R18  20435470.991 3               3      2646.551          23.000  
R24  23476022.784 6 125536838.299 6     -3990.498          40.000  
E10  25236368.406 7 132618024.929 7      -561.297          46.000  
E11  24279354.473 6 127588888.907 6      1028.061          40.000  
E12  26828222.936 6 140983256.597 6     -1735.696          39.000  
E24  26314919.720 7 138285822.736 7     -1546.535          42.000  
J 2  39413489.561 5 207119287.75425       404.010          34.000  
J 3  37893229.436 7 199130260.69527      -216.184          43.000  
J 4  38213641.365 5 200814062.11125       -39.435          34.000  
> 2024 11 28 10 16 18.2020000  0 19                     
G 2  22636286.881 6 118954521.60726      3123.304          37.000  
G10  25715135.610 5 135133982.794 5      1671.132          35.000  
G16  23435464.485 6 123154198.402 6     -2503.866          41.000  
G21  21138389.105 7 111083009.236 7      2256.437          43.000  
G23  25908783.765 5 136151565.620 5       162.646          31.000  
G26  25931949.522 5 136273308.35225     -2930.178          35.000  
G27  21952594.348 7 115361633.046 7     -2484.443          45.000  
R14  22540198.049 6 120151877.324 6     -3013.030          38.000  
R15  19833924.324 6 105986419.148 6       -52.413          36.000  
R17  19831062.253 4 106120022.804 4     -1193.432          29.000  
R18  20435371.769 4               4      2647.680          24.000  
R24  23476172.070 6 125537636.387 6     -3990.377          40.000  
E10  25236389.469 7 132618137.149 7      -561.203          46.000  
E11  24279315.053 6 127588683.178 6      1028.363          40.000  
E12  26828289.107 6 140983603.695 6     -1735.483          39.000  
E24  26314978.528 7 138286131.947 7     -1546.072          42.000  
J 2  39413473.961 5 207119206.91825       404.132          34.000  
J 3  37893237.498 7 199130303.85527      -215.994          43.000  
J 4  38213643.878 5 200814069.91525       -38.958          34.000  
> 2024 11 28 10 16 18.4010000  0 19                     
G 2  22636168.586 6 118953900.11926      3123.155          37.000  
G10  25715072.300 5 135133650.333 5      1670.286          35.000  
G16  23435559.292 6 123154696.764 6     -2504.315          41.000  
G21  21138303.617 7 111082560.271 7      2255.963          43.000  
G23  25908777.640 5 136151533.431 5       161.283          30.000  
G26  25932058.865 5 136273891.53925     -2930.900          35.000  
G27  21952688.369 7 115362127.497 7     -2485.040          45.000  
R14  22540310.620 6 120152476.894 6     -3013.192          38.000  
R15  19833926.331 6 105986429.782 6       -53.393          36.000  
R17  19831107.553 5 106120260.255 5     -1193.693          30.000  
R18  20435272.425 4               4      2645.545          25.000  
R24  23476320.642 6 125538430.541 6     -3991.090          40.000  
E10  25236410.741 7 132618248.897 7      -561.875          46.000  
E11  24279276.157 6 127588478.597 6      1027.644          40.000  
E12  26828354.859 6 140983949.153 6     -1736.185          40.000  
E24  26315036.916 7 138286439.716 7     -1546.753          42.000  
J 2  39413458.605 5 207119126.57525       403.942          34.000  
J 3  37893245.648 7 199130346.89027      -216.234          44.000  
J 4  38213644.244 5 200814077.77525       -39.382          34.000  
> 2024 11 28 10 16 18.6010000  0 19                     
G 2  22636047.080 6 118953275.50026      3122.710          38.000  
G10  25715008.590 5 135133316.244 5      1670.296          35.000  
G16  23435654.692 6 123155197.669 6     -2504.341          41.000  
G21  21138217.674 7 111082109.051 7      2255.823          43.000  
G23  25908771.462 5 136151501.067 5       162.369          30.000  
G26  25932171.332 5 136274477.67525     -2931.081          35.000  
G27  21952782.915 7 115362624.493 7     -2485.142          45.000  
R14  22540423.645 6 120153079.534 6     -3013.130          38.000  
R15  19833928.286 6 105986440.501 6       -54.167          36.000  
R17  19831154.407 5 106120499.004 5     -1193.950          31.000  
R18  20435172.244 4               4      2646.494          25.000  
R24  23476469.736 6 125539228.766 6     -3991.148          40.000  
E10  25236431.977 7 132618361.263 7      -561.924          46.000  
E11  24279236.964 6 127588272.996 6      1027.992          40.000  
E12  26828421.083 6 140984296.425 6     -1736.533          40.000  
E24  26315095.845 7 138286749.067 7     -1546.906          42.000  
J 2  39413443.092 5 207119045.85025       403.397          34.000  
J 3  37893253.936 7 199130390.14727      -216.340          44.000  
J 4  38213645.309 5 200814085.61925       -39.085          34.000  
> 2024 11 28 10 16 18.8010000  0 19                     
G 2  22635930.356 6 118952650.89526      3123.105          38.000  
G10  25714944.966 5 135132982.103 5      1670.608          35.000  
G16  23435749.970 6 123155698.548 6     -2504.233          41.000  
G21  21138131.889 7 111081657.877 7      2255.890          43.000  
G23  25908765.320 5 136151468.782 5       161.163          31.000  
G26  25932283.013 5 136275063.82825     -2930.794          35.000  
G27  21952877.477 7 115363121.451 7     -2484.831          45.000  
R14  22540536.740 6 120153682.142 6     -3012.770          37.000  
R15  19833930.327 6 105986451.200 6       -53.653          36.000  
R17  19831201.034 5 106120737.759 5     -1193.845          31.000  
R18  20435072.236 4               4      2646.274          25.000  
R24  23476618.936 6 125540026.928 6     -3990.807          39.000  
E10  25236453.581 7 132618473.622 7      -561.855          46.000  
E11  24279197.910 6 127588067.423 6      1027.983          40.000  
E12  26828487.289 6 140984643.646 6     -1736.402          39.000  
E24  26315154.688 7 138287058.390 7     -1546.505          42.000  
J 2  39413427.666 5 207118965.09525       404.289          34.000  
J 3  37893262.225 7 199130433.40827      -216.246          44.000  
J 4  38213645.797 5 200814093.52025       -39.555          34.000  
> 2024 11 28 10 16 19.0010000  0 19                     
G 2  22635811.153 6 118952026.30026      3123.214          38.000  
G10  25714881.290 5 135132647.979 5      1670.206          34.000  
G16  23435845.231 6 123156199.398 6     -2504.304          41.000  
G21  21138046.139 7 111081206.700 7      2255.658          43.000  
G23  25908759.003 5 136151436.514 5       160.098          30.000  
G26  25932395.183 5 136275649.96725     -2930.957          35.000  
G27  21952972.023 7 115363618.420 7     -2485.053          46.000  
R14  22540649.678 6 120154284.752 6     -3012.955          37.000  
R15  19833932.386 6 105986461.931 6       -53.975          38.000  
R17  19831245.271 5 106120976.542 5     -1194.436          32.000  
R18  20434973.416 4               4      2646.103          24.000  
R24  23476768.170 6 125540825.145 6     -3991.270          39.000  
E10  25236475.010 7 132618585.985 7      -562.079          46.000  
E11  24279158.822 6 127587861.846 6      1027.658          40.000  
E12  26828553.548 6 140984990.891 6     -1736.187          40.000  
E24  26315213.425 6 138287367.669 6     -1546.324          40.000  
J 2  39413412.240 5 207118884.34425       403.387          34.000  
J 3  37893270.462 7 199130476.64027      -216.419          44.000  
J 4  38213645.728 5 200814101.30425       -38.966          33.000  
> 2024 11 28 10 16 19.2010000  0 18                     
G 2  22635692.405 6 118951401.76926      3122.521          38.000  
G10  25714817.597 5 135132313.838 5      1671.170          34.000  
G16  23435940.631 6 123156700.277 6     -2504.215          41.000  
G21  21137960.319 7 111080755.564 7      2255.463          43.000  
G23  25908752.895 5 136151404.076 5       162.406          30.000  
G26  25932508.051 5 136276236.09425     -2930.682          35.000  
G27  21953066.708 7 115364115.354 7     -2484.509          46.000  
R14  22540762.668 6 120154887.383 6     -3013.197          37.000  
R15  19833934.411 6 105986472.651 6       -53.385          38.000  
R17  19831290.850 5 106121215.286 5     -1193.406          32.000  
R24  23476917.317 6 125541623.252 6     -3990.272          39.000  
E10  25236496.456 7 132618698.340 7      -561.722          46.000  
E11  24279119.820 6 127587656.298 6      1027.667          40.000  
E12  26828619.946 6 140985338.103 6     -1735.773          40.000  
E24  26315272.110 6 138287676.998 6     -1546.395          40.000  
J 2  39413396.674 5 207118803.05215       403.742          35.000  
J 3  37893278.646 7 199130519.38617      -216.191          44.000  
J 4  38213649.253 5 200814109.21125       -39.580          33.000  
> 2024 11 28 10 16 19.4010000  0 18                     
G 2  22635573.045 6 118950777.18026      3123.189          38.000  
G10  25714753.904 5 135131979.698 5      1671.072          34.000  
G16  23436035.979 6 123157201.116 6     -2503.983          41.000  
G21  21137874.533 7 111080304.419 7      2256.140          43.000  
G23  25908747.137 5 136151371.769 5       162.020          30.000  
G26  25932620.535 5 136276822.16725     -2929.837          35.000  
G27  21953161.270 7 115364612.286 7     -2484.401          46.000  
R14  22540875.815 6 120155490.001 6     -3012.753          37.000  
R15  19833936.278 6 105986483.410 6       -53.468          38.000  
R17  19831339.537 5 106121454.086 5     -1193.370          33.000  
R24  23477066.446 6 125542421.420 6     -3990.383          39.000  
E10  25236517.867 7 132618810.695 7      -561.682          46.000  
E11  24279080.749 6 127587450.735 6      1027.730          40.000  
E12  26828686.030 6 140985685.341 6     -1736.030          40.000  
E24  26315330.830 6 138287986.276 6     -1546.196          40.000  
J 2  39413381.196 5 207118722.265 5       403.798          35.000  
J 3  37893286.743 7 199130562.609 7      -215.822          44.000  
J 4  38213650.509 5 200814117.04325       -38.467          33.000  
> 2024 11 28 10 16 19.6010000  0 18                     
G 2  22635455.029 6 118950152.60526      3122.635          38.000  
G10  25714690.228 5 135131645.524 5      1671.150          34.000  
G16  23436131.327 7 123157701.941 7     -2504.234          42.000  
G21  21137788.766 7 111079853.296 7      2255.322          44.000  
G23  25908743.525 5 136151339.407 5       161.910          30.000  
G26  25932729.250 5 136277408.26925     -2931.040          35.000  
G27  21953255.938 7 115365109.177 7     -2484.674          46.000  
R14  22540988.840 6 120156092.628 6     -3013.411          37.000  
R15  19833938.354 6 105986494.120 6       -53.782          38.000  
R17  19831383.040 5 106121692.894 5     -1194.547          33.000  
R24  23477215.663 6 125543219.466 6     -3990.457          39.000  
E10  25236539.087 7 132618923.018 7      -561.693          46.000  
E11  24279041.766 6 127587245.139 6      1027.723          41.000  
E12  26828752.096 6 140986032.511 6     -1736.157          40.000  
E24  26315389.393 6 138288295.552 6     -1546.532          40.000  
J 2  39413365.560 5 207118641.387 5       403.868          35.000  
J 3  37893294.962 7 199130605.821 7      -216.392          44.000  
J 4  38213652.167 5 200814124.87025       -38.911          33.000  
> 2024 11 28 10 16 19.8010000  0 18                     
G 2  22635336.420 6 118949528.05526      3122.815          38.000  
G10  25714626.447 5 135131311.382 5      1670.040          35.000  
G16  23436226.640 7 123158202.766 7     -2504.627          42.000  
G21  21137702.910 7 111079402.176 7      2255.408          44.000  
G23  25908739.668 4 136151307.088 4       161.303          29.000  
G26  25932839.152 5 136277994.29225     -2930.300          35.000  
G27  21953350.431 7 115365606.081 7     -2484.896          46.000  
R14  22541101.918 6 120156695.246 6     -3013.647          36.000  
R15  19833940.291 6 105986504.885 6       -54.058          38.000  
R17  19831426.369 5 106121931.700 5     -1194.715          33.000  
R24  23477365.055 6 125544017.572 6     -3990.875          39.000  
E10  25236560.376 7 132619035.373 7      -561.992          46.000  
E11  24279002.695 6 127587039.584 6      1027.473          41.000  
E12  26828818.355 6 140986379.707 6     -1736.216          40.000  
E24  26315447.991 6 138288604.782 6     -1546.388          40.000  
J 2  39413350.187 5 207118560.550 5       403.815          35.000  
J 3  37893303.006 7 199130649.015 7      -216.221          44.000  
J 4  38213652.743 5 200814132.71625       -39.419          32.000  
> 2024 11 28 10 16 20.0010000  0 18                     
G 2  22635216.799 6 118948903.55226      3122.338          38.000  
G10  25714562.859 5 135130977.279 5      1670.123          35.000  
G16  23436321.953 7 123158703.653 7     -2504.726          42.000  
G21  21137617.021 7 111078951.147 7      2255.096          44.000  
G23  25908736.178 4 136151274.781 4       161.403          29.000  
G26  25932950.327 5 136278580.42525     -2930.523          35.000  
G27  21953444.959 7 115366103.049 7     -2484.699          46.000  
R14  22541214.838 6 120157297.923 6     -3013.587          36.000  
R15  19833942.333 6 105986515.735 6       -54.296          38.000  
R17  19831472.560 5 106122170.617 5     -1195.468          33.000  
R24  23477514.306 6 125544815.728 6     -3990.760          39.000  
E10  25236581.927 7 132619147.803 7      -562.058          46.000  
E11  24278963.623 6 127586834.091 6      1027.679          41.000  
E12  26828884.561 6 140986726.981 6     -1736.436          40.000  
E24  26315506.746 6 138288914.131 6     -1546.638          40.000  
J 2  39413334.761 5 207118479.753 5       403.459          35.000  
J 3  37893311.121 7 199130692.283 7      -216.333          44.000  
J 4  38213654.924 5 200814140.57025       -39.564          32.000  
> 2024 11 28 10 16 20.2010000  0 18                     
G 2  22635098.556 6 118948279.05026      3122.414          38.000  
G10  25714499.253 5 135130643.167 5      1670.518          35.000  
G16  23436417.336 7 123159204.527 7     -2504.750          42.000  
G21  21137531.131 7 111078500.121 7      2255.109          44.000  
G23  25908731.117 4 136151242.537 4       160.932          29.000  
G26  25933061.555 5 136279166.53725     -2930.874          35.000  
G27  21953539.521 7 115366600.021 7     -2484.963          46.000  
R14  22541327.916 6 120157900.619 6     -3013.798          36.000  
R15  19833944.340 6 105986526.602 6       -54.551          38.000  
R17  19831518.960 5 106122409.521 5     -1195.010          33.000  
R24  23477663.575 6 125545613.876 6     -3990.974          39.000  
E10  25236603.478 7 132619260.249 7      -562.386          46.000  
E11  24278924.430 6 127586628.640 6      1026.885          41.000  
E12  26828950.872 6 140987074.254 6     -1736.590          40.000  
E24  26315565.466 6 138289223.445 6     -1546.674          40.000  
J 2  39413319.370 5 207118398.923 5       404.370          35.000  
J 3  37893319.288 7 199130735.538 7      -216.425          44.000  
J 4  38213656.494 5 200814148.42425       -39.519          32.000  
> 2024 11 28 10 16 20.4010000  0 18                     
G 2  22634980.732 6 118947654.58126      3122.568          38.000  
G10  25714435.577 5 135130309.142 5      1669.693          35.000  
G16  23436512.632 7 123159705.441 7     -2504.904          42.000  
G21  21137445.241 7 111078049.158 7      2254.822          44.000  
G23  25908726.702 4 136151210.377 4       160.987          28.000  
G26  25933171.020 5 136279752.65725     -2931.183          35.000  
G27  21953634.189 7 115367097.024 7     -2485.083          46.000  
R14  22541440.958 6 120158503.329 6     -3013.707          36.000  
R15  19833946.294 6 105986537.488 6       -54.562          38.000  
R17  19831562.899 5 106122648.507 5     -1195.380          33.000  
R24  23477812.984 6 125546412.050 6     -3990.982          39.000  
E10  25236625.012 7 132619372.725 7      -562.424          46.000  
E11  24278885.324 6 127586423.193 6      1026.947          41.000  
E12  26829016.886 6 140987421.567 6     -1736.598          40.000  
E24  26315624.116 6 138289532.801 6     -1546.808          40.000  
J 2  39413304.066 5 207118318.162 5       404.114          35.000  
J 3  37893327.576 7 199130778.820 7      -216.561          44.000  
J 4  38213661.049 5 200814156.30525       -39.698          32.000  
> 2024 11 28 10 16 20.6010000  0 18                     
G 2  22634861.443 6 118947030.12826      3122.510          38.000  
G10  25714371.971 5 135129975.142 5      1670.058          35.000  
G16  23436607.997 7 123160206.356 7     -2504.197          42.000  
G21  21137359.525 7 111077598.208 7      2254.681          44.000  
G23  25908722.322 4 136151178.120 4       160.939          28.000  
G26  25933281.951 5 136280338.79125     -2930.208          35.000  
G27  21953728.786 7 115367594.047 7     -2485.005          47.000  
R14  22541554.070 6 120159106.082 6     -3013.545          36.000  
R15  19833948.336 6 105986548.438 6       -54.533          38.000  
R17  19831610.696 5 106122887.538 5     -1195.635          33.000  
R24  23477962.218 6 125547210.268 6     -3991.165          39.000  
E10  25236646.510 7 132619485.252 7      -562.485          46.000  
E11  24278846.358 6 127586217.784 6      1027.062          41.000  
E12  26829083.022 6 140987768.910 6     -1736.462          40.000  
E24  26315682.906 6 138289842.177 6     -1546.825          40.000  
J 2  39413288.587 5 207118237.381 5       403.972          35.000  
J 3  37893335.743 7 199130822.089 7      -216.079          44.000  
J 4  38213661.381 5 200814164.15025       -39.390          32.000  
> 2024 11 28 10 16 20.8010000  0 18                     
G 2  22634743.375 6 118946405.66326      3122.471          38.000  
G10  25714308.277 5 135129641.094 5      1670.008          35.000  
G16  23436703.345 7 123160707.276 7     -2504.585          42.000  
G21  21137273.740 7 111077147.235 7      2254.626          44.000  
G23  25908716.965 4 136151145.943 4       160.991          28.000  
G26  25933394.976 5 136280924.91925     -2930.729          35.000  
G27  21953823.314 7 115368091.059 7     -2485.271          47.000  
R14  22541667.148 6 120159708.828 6     -3014.105          36.000  
R15  19833950.360 6 105986559.335 6       -54.442          38.000  
R17  19831654.548 5 106123126.517 5     -1195.079          33.000  
R24  23478111.400 6 125548008.446 6     -3991.089          39.000  
E10  25236667.678 7 132619597.755 7      -562.748          46.000  
E11  24278807.374 6 127586012.347 6      1027.094          41.000  
E12  26829149.281 6 140988116.247 6     -1736.764          40.000  
E24  26315741.800 6 138290151.499 6     -1546.733          40.000  
J 2  39413273.283 5 207118156.549 5       404.057          35.000  
J 3  37893344.119 7 199130865.342 7      -216.082          44.000  
J 4  38213661.782 5 200814172.00325       -39.629          32.000  
