     3.03           OBSERVATION DATA    M: Mixed            RINEX VERSION / TYPE
Emlid RGL 1.2.7                         20241128 101901 UTC PGM / RUN BY / DATE 
format: u-blox                                              COMMENT             
                                                            MARKER NAME         
                                                            MARKER NUMBER       
                                                            MARKER TYPE         
                                                            OBSERVER / AGENCY   
                    EMLID REACH RS+                         REC # / TYPE / VERS 
                                                            ANT # / TYPE        
 -3035461.2946  4047948.9244  3870437.5687                  APPROX POSITION XYZ 
        1.8650        0.0000        0.0000                  ANTENNA: DELTA H/E/N
G    4 C1C L1C D1C S1C                                      SYS / # / OBS TYPES 
R    4 C1C L1C D1C S1C                                      SYS / # / OBS TYPES 
E    4 C1C L1C D1C S1C                                      SYS / # / OBS TYPES 
J    4 C1C L1C D1C S1C                                      SYS / # / OBS TYPES 
C    4 C1I L1I D1I S1I                                      SYS / # / OBS TYPES 
  2024    11    28    10     2    2.0000000     GPS         TIME OF FIRST OBS   
  2024    11    28    10    19   11.9970000     GPS         TIME OF LAST OBS    
G                                                           SYS / PHASE SHIFT   
R                                                           SYS / PHASE SHIFT   
E                                                           SYS / PHASE SHIFT   
J                                                           SYS / PHASE SHIFT   
C                                                           SYS / PHASE SHIFT   
  0                                                         GLONASS SLOT / FRQ #
 C1C    0.000 C1P    0.000 C2C    0.000 C2P    0.000        GLONASS COD/PHS/BIS 
                                                            END OF HEADER       
> 2024 11 28 10  2  2.0000000  0 10                     
G 2  21699009.162 7 114029062.176 7      3103.777          44.000  
G10  24538818.596 5 128952360.78215      1621.971          35.000  
G16  21569589.238 5 113348955.54115     -2654.360          33.000  
G21  20077163.449 8 105506205.44018      2450.155          49.000  
G23  24502391.545 5 128760935.79515       313.722          35.000  
G26  23990100.268 6 126068827.536 6     -3160.119          39.000  
G27  20093920.457 6 105594263.877 6     -2578.215          40.000  
R14  20613293.667 5 109880396.043 5     -2976.703          34.000  
E 5  25854111.925 6 135864284.780 6     -2920.990          36.000  
J 2  38003991.500 5 199712323.20425        38.333          35.000  
> 2024 11 28 10  2  3.0000000  0 10                     
G 2  21698418.018 7 114025958.759 7      3103.294          43.000  
G10  24538509.744 5 128950739.425 5      1621.168          34.000  
G16  21570090.217 5 113351610.264 5     -2654.440          32.000  
G21  20076697.232 8 105503755.731 8      2449.484          49.000  
G23  24502331.988 6 128760622.778 6       312.667          36.000  
G26  23990701.707 6 126071987.620 6     -3159.869          39.000  
G27  20094411.175 6 105596842.117 6     -2578.508          40.000  
R14  20613852.022 5 109883373.134 5     -2977.210          35.000  
E 5  25854667.558 6 135867206.235 6     -2921.179          36.000  
J 2  38003984.433 5 199712285.25625        37.799          35.000  
> 2024 11 28 10  2  4.0000000  0 10                     
G 2  21697826.735 7 114022855.698 7      3102.681          42.000  
G10  24538200.998 5 128949118.326 5      1621.212          34.000  
G16  21570598.053 5 113354265.253 5     -2655.348          31.000  
G21  20076231.311 8 105501306.632 8      2448.599          49.000  
G23  24502272.413 5 128760310.357 5       311.301          35.000  
G26  23991302.920 6 126075147.890 6     -3160.336          39.000  
G27  20094901.770 6 105599420.695 6     -2578.912          40.000  
R14  20614410.551 5 109886350.698 5     -2978.146          35.000  
E 5  25855222.771 6 135870127.593 6     -2921.210          36.000  
J 2  38003977.139 5 199712247.27525        37.592          35.000  
> 2024 11 28 10  2  5.0000000  0 10                     
G 2  21697235.679 7 114019753.095 7      3102.330          42.000  
G10  24537892.286 5 128947497.702 5      1621.051          34.000  
G16  21571104.284 5 113356920.646 5     -2656.091          31.000  
G21  20075765.163 8 105498858.251 8      2447.868          49.000  
G23  24502213.134 6 128759998.574 6       311.049          36.000  
G26  23991904.237 6 126078308.435 6     -3160.649          39.000  
G27  20095392.575 6 105601999.742 6     -2579.238          40.000  
R14  20614969.237 5 109889328.852 5     -2978.865          35.000  
E 5  25855778.700 6 135873049.006 6     -2921.713          36.000  
J 2  38003969.478 5 199712209.39425        37.769          35.000  
> 2024 11 28 10  2  6.0000000  0 10                     
G 2  21696644.466 7 114016651.119 7      3100.769          42.000  
G10  24537583.923 5 128945877.668 5      1618.998          34.000  
G16  21571610.567 5 113359576.513 5     -2657.699          32.000  
G21  20075299.504 8 105496410.728 8      2446.383          49.000  
G23  24502153.943 6 128759687.626 6       310.233          36.000  
G26  23992505.711 6 126081469.383 6     -3161.794          40.000  
G27  20095883.450 6 105604579.401 6     -2580.741          40.000  
R14  20615528.203 5 109892307.696 5     -2979.776          35.000  
E 5  25856334.542 5 135875970.554 5     -2922.264          35.000  
J 2  38003962.358 5 199712171.77625        36.841          35.000  
> 2024 11 28 10  2  6.9970000  0 10                     
G 2  21696055.887 7 114013560.247 7      3099.670          42.000  
G10  24537276.101 5 128944264.253 5      1617.595          34.000  
G16  21572114.878 5 113362226.116 5     -2658.379          32.000  
G21  20074835.416 8 105493972.619 8      2444.824          49.000  
G23  24502095.171 6 128759379.701 6       308.138          36.000  
G26  23993105.859 6 126084622.470 6     -3162.911          40.000  
G27  20096373.138 6 105607153.097 6     -2581.926          40.000  
R14  20616085.580 5 109895279.601 5     -2981.281          34.000  
E 5  25856888.848 5 135878884.732 5     -2923.087          35.000  
J 2  38003955.343 5 199712135.71225        35.809          35.000  
> 2024 11 28 10  2  7.9970000  0 10                     
G 2  21695465.878 7 114010459.868 7      3100.983          42.000  
G10  24536967.285 5 128942645.688 5      1619.815          33.000  
G16  21572620.708 5 113364883.325 5     -2656.643          32.000  
G21  20074370.071 8 105491527.206 8      2445.880          49.000  
G23  24502036.346 6 128759070.827 6       309.225          36.000  
G26  23993707.682 6 126087784.640 6     -3161.600          40.000  
G27  20096864.292 6 105609734.298 6     -2580.321          40.000  
R14  20616644.895 5 109898260.380 5     -2980.912          35.000  
E 5  25857445.213 5 135881807.024 5     -2921.330          35.000  
J 2  38003948.293 5 199712098.45015        37.897          35.000  
> 2024 11 28 10  2  8.9970000  0 10                     
G 2  21694875.607 6 114007358.747 6      3101.039          41.000  
G10  24536658.992 5 128941026.433 5      1619.222          33.000  
G16  21573125.944 5 113367539.763 5     -2656.965          31.000  
G21  20073904.639 8 105489081.302 8      2445.532          49.000  
G23  24501977.539 6 128758761.457 6       308.790          36.000  
G26  23994309.121 6 126090945.876 6     -3161.328          40.000  
G27  20097355.201 6 105612314.793 6     -2580.252          40.000  
R14  20617204.139 5 109901240.532 5     -2981.133          34.000  
E 5  25858001.125 5 135884728.116 5     -2920.695          35.000  
J 2  38003941.174 5 199712060.623 5        37.720          35.000  
> 2024 11 28 10  2  9.9970000  0 10                     
G 2  21694285.720 7 114004258.391 7      3099.479          42.000  
G10  24536350.594 5 128939407.857 5      1617.170          32.000  
G16  21573631.232 5 113370196.770 5     -2657.771          30.000  
G21  20073439.224 8 105486636.377 8      2443.695          49.000  
G23  24501918.959 6 128758452.891 6       307.252          36.000  
G26  23994911.049 6 126094107.647 6     -3162.752          40.000  
G27  20097845.954 6 105614896.013 6     -2582.450          39.000  
R14  20617763.227 5 109904221.528 5     -2982.498          34.000  
E 5  25858556.967 5 135887649.541 5     -2922.704          35.000  
J 2  38003934.071 5 199712023.131 5        36.554          35.000  
> 2024 11 28 10  2 10.9970000  0 11                     
G 2  21693696.129 7 114001159.263 7      3099.056          42.000  
G10  24536042.476 5 128937790.501 5      1617.093          31.000  
G16  21574137.044 5 113372854.982 5     -2657.224          31.000  
G21  20072974.211 8 105484192.962 8      2443.396          49.000  
G23  24501860.535 5 128758145.929 5       306.553          35.000  
G26  23995512.924 6 126097270.453 6     -3162.653          40.000  
G27  20098336.933 6 105617478.452 6     -2582.440          38.000  
R14  20618322.733 5 109907203.921 5     -2982.105          35.000  
E 5  25859112.809 5 135890571.732 5     -2921.977          35.000  
E10  23709665.661 6 124595144.352 6      -448.685          41.000  
J 2  38003927.213 5 199711986.533 5        36.780          35.000  
> 2024 11 28 10  2 11.9970000  0 11                     
G 2  21693106.539 7 113998059.278 7      3100.270          42.000  
G10  24535734.322 5 128936172.199 5      1618.733          30.000  
G16  21574642.839 5 113375512.232 5     -2656.581          30.000  
G21  20072509.215 8 105481748.952 8      2444.086          49.000  
G23  24501801.833 5 128757838.326 5       307.898          35.000  
G26  23996114.974 6 126100432.229 6     -3161.470          41.000  
G27  20098827.999 6 105620060.036 6     -2581.752          38.000  
R14  20618881.890 5 109910185.587 5     -2981.903          34.000  
E 5  25859668.197 5 135893492.661 5     -2920.558          35.000  
E10  23709755.617 7 124595592.559 7      -448.065          42.000  
J 2  38003919.797 5 199711948.731 5        38.190          35.000  
> 2024 11 28 10  2 12.9970000  0 11                     
G 2  21692516.896 7 113994959.031 7      3100.142          42.000  
G10  24535425.226 5               5      1618.762          30.000  
G16  21575147.255 5 113378169.097 5     -2656.651          30.000  
G21  20072044.097 8 105479304.911 8      2443.878          49.000  
G23  24501743.409 6 128757530.712 6       307.297          36.000  
G26  23996716.728 6 126103593.529 6     -3161.129          41.000  
G27  20099318.979 6 105622641.297 6     -2581.242          39.000  
R14  20619441.362 5 109913167.054 5     -2981.818          35.000  
E 5  25860224.004 5 135896412.813 5     -2919.466          35.000  
E10  23709840.006 7 124596040.684 7      -448.290          42.000  
J 2  38003912.346 5 199711906.76735        38.867          35.000  
> 2024 11 28 10  2 13.9970000  0 11                     
G 2  21691926.921 7 113991859.065 7      3099.176          42.000  
G10  24535118.207 5 128932910.83835      1616.925          30.000  
G16  21575651.461 4 113380826.113 4     -2657.499          29.000  
G21  20071579.223 8 105476861.414 8      2442.444          49.000  
G23  24501685.161 5 128757223.572 5       305.985          35.000  
G26  23997318.463 6 126106754.931 6     -3162.307          41.000  
G27  20099810.255 6 105625222.829 6     -2582.601          39.000  
R14  20620000.571 5 109916148.923 5     -2982.946          35.000  
E 5  25860779.915 5 135899332.860 5     -2920.634          35.000  
E10  23709924.814 7 124596489.322 7      -449.736          42.000  
J 2  38003904.982 5 199711868.24725        38.123          35.000  
> 2024 11 28 10  2 14.9970000  0 11                     
G 2  21691337.401 7 113988761.030 7      3097.172          42.000  
G10  24534813.177 5 128931294.40825      1614.957          31.000  
G16  21576159.141 4 113383484.975 4     -2659.657          29.000  
G21  20071114.925 8 105474420.101 8      2440.338          49.000  
G23  24501627.191 5 128756918.611 5       303.969          35.000  
G26  23997920.339 6 126109918.056 6     -3163.969          41.000  
G27  20100301.688 6 105627806.307 6     -2584.471          39.000  
R14  20620560.078 5 109919132.893 5     -2985.306          35.000  
E 5  25861336.176 5 135902254.416 5     -2922.196          35.000  
E10  23710011.856 7 124596940.077 7      -451.773          42.000  
J 2  38003897.932 5 199711831.28125        36.511          35.000  
> 2024 11 28 10  2 15.9970000  0 11                     
G 2  21690748.438 7 113985664.197 7      3096.564          42.000  
G10  24534507.816 5 128929679.18525      1614.210          31.000  
G16  21576661.166 5 113386144.933 5     -2660.623          30.000  
G21  20070650.801 8 105471980.241 8      2439.404          49.000  
G23  24501569.815 5 128756615.066 5       302.924          35.000  
G26  23998522.808 6 126113082.177 6     -3164.432          41.000  
G27  20100793.365 6 105630390.950 6     -2585.005          39.000  
R14  20621119.828 5 109922118.169 5     -2985.131          34.000  
E 5  25861892.227 5 135905176.692 5     -2922.290          35.000  
E10  23710097.083 7 124597392.248 7      -452.518          42.000  
J 2  38003890.952 5 199711795.16225        35.919          35.000  
> 2024 11 28 10  2 16.9970000  0 11                     
G 2  21690159.546 7 113982567.737 7      3096.208          43.000  
G10  24534201.582 5 128928064.25325      1614.536          32.000  
G16  21577163.715 5 113388805.109 5     -2660.577          30.000  
G21  20070186.748 8 105469541.009 8      2438.928          49.000  
G23  24501512.578 5 128756312.124 5       302.537          35.000  
G26  23999125.346 6 126116246.487 6     -3164.370          41.000  
G27  20101285.147 6 105632975.941 6     -2585.062          39.000  
R14  20621679.858 5 109925104.012 5     -2986.180          35.000  
E 5  25862448.488 5 135908098.922 5     -2922.420          35.000  
E10  23710183.391 7 124597845.006 7      -453.028          42.000  
J 2  38003883.937 5 199711759.03925        36.078          35.000  
> 2024 11 28 10  2 17.9970000  0 11                     
G 2  21689570.741 7 113979471.431 7      3096.289          43.000  
G10  24533896.291 5 128926449.46925      1614.625          33.000  
G16  21577666.019 4 113391465.316 4     -2659.909          29.000  
G21  20069722.485 8 105467102.181 8      2438.757          49.000  
G23  24501454.992 5 128756009.533 5       302.953          35.000  
G26  23999727.571 6 126119410.748 6     -3164.225          40.000  
G27  20101777.313 6 105635561.093 6     -2584.820          39.000  
R14  20622240.202 6 109928090.143 6     -2985.895          36.000  
E 5  25863004.626 5 135911020.828 5     -2921.413          35.000  
E10  23710269.927 6 124598298.149 6      -453.408          41.000  
J 2  38003876.800 5 199711722.71225        36.646          35.000  
> 2024 11 28 10  2 18.9970000  0 11                     
G 2  21688981.639 7 113976374.942 7      3096.925          43.000  
G10  24533587.945 5 128924834.43425      1615.662          33.000  
G16  21578177.241 5 113394125.318 5     -2660.208          30.000  
G21  20069258.065 8 105464663.419 8      2438.953          49.000  
G23  24501397.756 5 128755707.027 5       302.645          35.000  
G26  24000329.725 6 126122574.626 6     -3163.592          41.000  
G27  20102269.549 6 105638146.049 6     -2584.817          39.000  
R14  20622800.686 6 109931076.208 6     -2986.036          36.000  
E 5  25863560.450 5 135913942.138 5     -2920.736          35.000  
E10  23710355.695 6 124598751.294 6      -453.016          41.000  
J 2  38003869.959 5 199711685.84625        37.042          35.000  
> 2024 11 28 10  2 19.9970000  0 11                     
G 2  21688392.415 7 113973278.084 7      3096.532          42.000  
G10  24533283.107 5 128923219.02825      1615.155          33.000  
G16  21578684.379 4 113396784.755 4     -2659.577          29.000  
G21  20068793.644 8 105462224.543 8      2438.458          48.000  
G23  24501340.205 5 128755404.302 5       302.958          35.000  
G26  24000931.967 6 126125737.933 6     -3163.482          40.000  
G27  20102761.244 6 105640730.609 6     -2584.848          39.000  
R14  20623361.483 6 109934061.989 6     -2986.228          36.000  
E 5  25864116.362 5 135916862.637 5     -2920.738          35.000  
E10  23710441.463 6 124599204.267 6      -453.284          41.000  
J 2  38003863.032 5 199711647.70915        37.952          35.000  
> 2024 11 28 10  2 20.9970000  0 12                     
G 2  21687803.452 7 113970181.642 7      3096.163          43.000  
G10  24532976.402 5 128921604.00325      1614.918          34.000  
G16  21579188.778 4 113399444.551 4     -2660.543          29.000  
G21  20068329.224 8 105459786.324 8      2437.897          49.000  
G23  24501282.619 5 128755102.285 5       301.962          35.000  
G26  24001534.192 6 126128901.456 6     -3163.874          40.000  
G27  20103253.026 6 105643315.533 6     -2584.799          39.000  
R14  20623922.421 6 109937048.277 6     -2986.360          36.000  
R24  21396091.929 7 114414485.87017     -4108.763          44.000  
E 5  25864671.959 5 135919783.092 5     -2920.775          35.000  
E10  23710527.283 6 124599657.870 6      -453.868          41.000  
J 2  38003855.912 5 199711610.146 5        37.830          35.000  
> 2024 11 28 10  2 21.9970000  0 12                     
G 2  21687214.682 7 113967085.546 7      3096.022          43.000  
G10  24532669.139 5 128919989.26625      1614.663          34.000  
G16  21579698.010 5 113402104.556 5     -2659.493          30.000  
G21  20067864.944 8 105457348.714 8      2437.616          49.000  
G23  24501225.696 5 128754800.826 5       301.298          35.000  
G26  24002136.207 6 126132065.139 6     -3163.812          40.000  
G27  20103745.471 6 105645900.869 6     -2585.303          40.000  
R14  20624483.288 6 109940035.041 6     -2987.362          36.000  
R24  21396860.018 7 114418594.626 7     -4108.687          44.000  
E 5  25865227.714 5 135922703.419 5     -2919.488          35.000  
E10  23710613.644 6 124600112.041 6      -454.143          41.000  
J 2  38003848.461 5 199711572.573 5        38.074          35.000  
> 2024 11 28 10  2 22.9970000  0 12                     
G 2  21686625.528 7 113963989.459 7      3096.008          43.000  
G10  24532361.753 5 128918374.52425      1614.696          35.000  
G16  21580207.469 5 113404764.507 5     -2659.651          30.000  
G21  20067400.524 8 105454911.381 8      2437.048          49.000  
G23  24501168.512 5 128754499.601 5       301.321          35.000  
G26  24002738.292 6 126135228.640 6     -3163.808          40.000  
G27  20104237.899 6 105648486.167 6     -2585.667          40.000  
R14  20625044.121 5 109943021.905 5     -2987.152          35.000  
R24  21397628.455 7 114422703.448 7     -4109.181          44.000  
E 5  25865783.591 5 135925623.402 5     -2920.322          34.000  
E10  23710700.127 6 124600566.438 6      -454.718          41.000  
J 2  38003841.358 5 199711534.673 5        37.634          35.000  
> 2024 11 28 10  2 23.9970000  0 12                     
G 2  21686036.478 7 113960893.893 7      3095.354          43.000  
G10  24532054.822 5 128916760.27225      1613.971          35.000  
G16  21580715.235 5 113407424.813 5     -2660.623          31.000  
G21  20066936.959 8 105452474.798 8      2436.151          49.000  
G23  24501111.450 6 128754199.096 6       300.504          36.000  
G26  24003340.097 6 126138392.439 6     -3163.965          40.000  
G27  20104730.152 6 105651071.946 6     -2585.864          40.000  
R14  20625605.163 5 109946009.465 5     -2987.498          35.000  
R24  21398396.579 7 114426812.780 7     -4109.625          43.000  
E 5  25866339.310 5 135928543.391 5     -2920.049          34.000  
E10  23710786.506 6 124601021.540 6      -455.343          41.000  
J 2  38003834.204 5 199711496.892 5        37.372          35.000  
> 2024 11 28 10  2 24.9970000  0 12                     
G 2  21685447.289 7 113957798.735 7      3095.120          43.000  
G10  24531747.698 5 128915145.85315      1614.074          35.000  
G16  21581221.588 5 113410085.459 5     -2660.988          32.000  
G21  20066473.638 8 105450038.878 8      2435.645          49.000  
G23  24501054.702 5 128753899.245 5       299.837          35.000  
G26  24003942.252 6 126141556.474 6     -3164.147          40.000  
G27  20105222.579 6 105653658.136 6     -2586.244          40.000  
R14  20626165.611 5 109948997.676 5     -2988.557          34.000  
R24  21399164.685 7 114430922.510 7     -4109.734          43.000  
E 5  25866895.030 5 135931463.338 5     -2919.839          35.000  
E10  23710872.937 6 124601477.274 6      -455.842          41.000  
J 2  38003826.927 5 199711457.62735        37.787          35.000  
> 2024 11 28 10  2 25.9970000  0 14                     
G 2  21684858.362 7 113954703.771 7      3094.816          43.000  
G10  24531440.522 5 128913532.116 5      1613.527          35.000  
G16  21581724.730 5 113412746.094 5     -2659.928          32.000  
G21  20066010.317 8 105447603.395 8      2435.223          49.000  
G23  24500997.727 5 128753599.777 5       299.406          35.000  
G26  24004544.616 6 126144720.498 6     -3164.298          40.000  
G27  20105715.059 6 105656244.495 6     -2586.207          40.000  
R14  20626725.903 5 109951986.111 5     -2988.516          34.000  
R24  21399932.896 7 114435032.399 7     -4109.932          43.000  
E 5  25867450.505 5 135934383.048 5     -2919.517          35.000  
E10  23710959.926 6 124601933.402 6      -456.438          41.000  
J 2  38003819.825 5 199711419.70025        38.055          35.000  
J 3  36395013.875 7 191257088.76127      -459.847          46.000  
J 4  36735424.887 6 193045960.21326      -384.523          37.000  
> 2024 11 28 10  2 26.9970000  0 15                     
G 2  21684269.068 7 113951609.049 7      3094.714          42.000  
G10  24531133.066 5 128911918.611 5      1613.728          34.000  
G16  21582235.219 5 113415406.950 5     -2660.754          31.000  
G21  20065547.380 8 105445168.425 8      2434.680          49.000  
G23  24500941.188 6 128753300.952 6       298.524          36.000  
G26  24005146.561 6 126147884.553 6     -3164.249          40.000  
G27  20106207.731 6 105658831.093 6     -2586.694          41.000  
R14  20627286.456 5 109954974.875 5     -2988.563          35.000  
R17  18228614.952 6  97544977.57816      -829.240          37.000  
R24  21400701.840 7 114439142.542 7     -4110.357          45.000  
E 5  25868005.911 5 135937302.560 5     -2919.440          35.000  
E10  23711046.636 6 124602389.973 6      -456.741          41.000  
J 2  38003812.321 5 199711381.66325        38.312          35.000  
J 3  36395101.388 7 191257548.51627      -459.908          46.000  
J 4  36735497.585 6 193046344.09226      -383.987          37.000  
> 2024 11 28 10  2 27.9970000  0 15                     
G 2  21683679.844 7 113948514.561 7      3093.893          42.000  
G10  24530825.401 5 128910305.284 5      1612.259          35.000  
G16  21582740.211 5 113418067.943 5     -2661.245          32.000  
G21  20065084.618 8 105442733.925 8      2434.113          49.000  
G23  24500884.422 6 128753002.386 6       297.835          36.000  
G26  24005748.733 6 126151048.648 6     -3164.218          40.000  
G27  20106700.595 7 105661417.910 7     -2587.179          42.000  
R14  20627846.922 5 109957963.994 5     -2989.498          35.000  
R17  18228769.841 6  97545807.229 6      -830.550          37.000  
R24  21401470.697 7 114443252.886 7     -4110.537          44.000  
E 5  25868561.578 5 135940221.840 5     -2918.878          35.000  
E10  23711133.521 7 124602847.010 7      -457.567          42.000  
J 2  38003805.079 5 199711343.49825        38.147          35.000  
J 3  36395188.761 7 191258007.76617      -459.940          46.000  
J 4  36735570.474 6 193046727.925 6      -384.161          37.000  
> 2024 11 28 10  2 28.9970000  0 15                     
G 2  21683090.847 7 113945420.391 7      3094.382          42.000  
G10  24530518.190 5 128908692.241 5      1613.143          34.000  
G16  21583245.465 5 113420729.114 5     -2660.538          31.000  
G21  20064621.699 8 105440300.014 8      2433.917          49.000  
G23  24500827.535 6 128752704.353 6       297.922          36.000  
G26  24006350.382 6 126154212.870 6     -3163.880          40.000  
G27  20107193.634 7 105664005.011 7     -2586.618          42.000  
R14  20628407.528 6 109960953.522 6     -2989.170          37.000  
R17  18228925.322 6  97546637.769 6      -830.956          37.000  
R24  21402239.396 7 114447363.582 7     -4110.521          44.000  
E 5  25869117.071 5 135943141.020 5     -2918.690          35.000  
E10  23711220.528 7 124603304.576 7      -457.598          42.000  
J 2  38003797.803 5 199711305.29825        38.702          35.000  
J 3  36395276.169 7 191258467.645 7      -459.619          46.000  
J 4  36735643.451 6 193047111.719 6      -383.855          37.000  
> 2024 11 28 10  2 29.9970000  0 15                     
G 2  21682501.762 7 113942326.185 7      3094.413          42.000  
G10  24530210.665 5 128907079.083 5      1613.192          34.000  
G16  21583753.755 5 113423390.178 5     -2660.201          31.000  
G21  20064158.710 8 105437866.310 8      2433.801          49.000  
G23  24500770.682 5 128752406.610 5       297.977          35.000  
G26  24006952.572 6 126157376.851 6     -3163.785          40.000  
G27  20107686.062 6 105666592.085 6     -2586.967          41.000  
R14  20628968.762 6 109963943.153 6     -2989.469          37.000  
R17  18229080.629 6  97547468.804 6      -830.849          37.000  
R24  21403008.357 7 114451474.262 7     -4110.404          43.000  
E 5  25869673.157 5 135946059.736 5     -2918.625          35.000  
E10  23711308.197 7 124603762.289 7      -457.569          42.000  
J 2  38003790.474 5 199711266.66925        38.586          35.000  
J 3  36395363.682 7 191258927.261 7      -459.378          46.000  
J 4  36735716.393 6 193047495.112 6      -382.740          39.000  
> 2024 11 28 10  2 30.9970000  0 15                     
G 2  21681912.800 7 113939232.120 7      3093.777          42.000  
G10  24529902.896 5 128905466.064 5      1612.662          33.000  
G16  21584259.305 5 113426051.271 5     -2661.421          30.000  
G21  20063695.877 8 105435432.996 8      2432.959          49.000  
G23  24500713.916 5 128752109.182 5       296.790          35.000  
G26  24007554.534 6 126160540.791 6     -3164.564          40.000  
G27  20108178.734 6 105669179.255 6     -2587.331          41.000  
R14  20629529.839 6 109966933.089 6     -2990.405          38.000  
R17  18229235.988 6  97548300.556 6      -832.669          37.000  
R24  21403776.917 7 114455585.032 7     -4111.151          43.000  
E 5  25870228.580 5 135948978.130 5     -2918.808          35.000  
E10  23711395.414 7 124604220.353 7      -458.415          42.000  
J 2  38003783.057 5 199711227.80825        38.562          35.000  
J 3  36395451.230 7 191259386.795 7      -459.866          46.000  
J 4  36735789.195 6 193047878.360 6      -383.510          38.000  
> 2024 11 28 10  2 31.9970000  0 15                     
G 2  21681323.855 7 113936138.709 7      3092.892          42.000  
G10  24529595.423 5 128903853.661 5      1612.449          32.000  
G16  21584765.553 5 113428712.907 5     -2662.152          31.000  
G21  20063232.871 8 105433000.595 8      2431.921          49.000  
G23  24500657.325 5 128751812.637 5       295.867          35.000  
G26  24008156.549 6 126163705.151 6     -3164.596          40.000  
G27  20108671.039 6 105671767.077 6     -2588.147          41.000  
R14  20630091.177 6 109969923.796 6     -2990.891          38.000  
R17  18229391.574 6  97549133.483 6      -833.966          37.000  
R24  21404545.896 7 114459696.487 7     -4111.962          44.000  
E 5  25870784.352 5 135951896.718 5     -2918.755          35.000  
E10  23711483.031 7 124604679.289 7      -459.381          42.000  
J 2  38003775.676 5 199711188.74015        38.397          35.000  
J 3  36395538.515 7 191259846.772 7      -460.442          46.000  
J 4  36735862.155 6 193048261.903 6      -383.881          38.000  
> 2024 11 28 10  2 32.9970000  0 15                     
G 2  21680734.893 7 113933045.364 7      3093.198          42.000  
G10  24529282.104 5 128902241.337 5      1612.202          31.000  
G16  21585272.115 5 113431374.483 5     -2661.877          31.000  
G21  20062769.794 8 105430568.507 8      2431.921          49.000  
G23  24500600.979 5 128751516.367 5       296.413          35.000  
G26  24008758.338 6 126166869.400 6     -3164.273          40.000  
G27  20109163.240 6 105674354.961 6     -2587.885          41.000  
R14  20630652.411 6 109972914.704 6     -2991.088          38.000  
R17  18229546.864 6  97549967.014 6      -833.849          36.000  
R24  21405315.032 7 114463807.966 7     -4111.369          44.000  
E 5  25871339.705 5 135954814.933 5     -2917.988          35.000  
E10  23711570.561 6 124605138.505 6      -459.359          41.000  
J 2  38003768.312 5 199711149.902 5        39.032          34.000  
J 3  36395626.098 7 191260306.602 7      -459.934          46.000  
J 4  36735935.254 6 193048645.167 6      -383.312          38.000  
> 2024 11 28 10  2 33.9970000  0 15                     
G 2  21680146.471 7 113929952.427 7      3092.551          42.000  
G10  24528976.621 5 128900629.365 5      1611.209          31.000  
G16  21585776.008 5 113434036.336 5     -2661.925          30.000  
G21  20062306.840 8 105428137.085 8      2430.902          49.000  
G23  24500544.771 5 128751220.743 5       294.837          34.000  
G26  24009360.353 6 126170033.870 6     -3164.791          40.000  
G27  20109655.703 6 105676943.230 6     -2588.616          41.000  
R14  20631213.942 6 109975906.140 6     -2991.919          38.000  
R17  18229702.206 6  97550801.560 6      -835.280          37.000  
R24  21406083.958 7 114467919.853 7     -4112.419          44.000  
E 5  25871894.901 5 135957733.119 5     -2918.286          35.000  
E10  23711657.813 7 124605598.344 7      -460.361          42.000  
J 2  38003760.878 5 199711111.116 5        38.544          34.000  
J 3  36395713.471 7 191260766.619 7      -460.138          46.000  
J 4  36736008.283 6 193049028.504 6      -383.633          38.000  
> 2024 11 28 10  2 34.9970000  0 15                     
G 2  21679558.382 7 113926860.103 7      3092.212          42.000  
G10  24528669.793 5 128899017.979 5      1611.229          31.000  
G16  21586284.996 5 113436698.728 5     -2662.340          31.000  
G21  20061844.217 8 105425706.523 8      2430.194          49.000  
G23  24500488.337 5 128750925.955 5       294.209          34.000  
G26  24009962.542 6 126173198.744 6     -3165.219          40.000  
G27  20110148.514 6 105679532.079 6     -2589.027          41.000  
R14  20631775.542 6 109978898.323 6     -2992.511          38.000  
R17  18229858.472 6  97551637.258 6      -836.182          37.000  
R24  21406853.164 7 114472032.312 7     -4112.759          44.000  
E 5  25872450.185 5 135960651.467 5     -2918.578          35.000  
E10  23711745.622 6 124606058.992 6      -460.938          41.000  
J 2  38003753.654 5 199711072.525 5        38.708          34.000  
J 3  36395801.002 7 191261227.038 7      -460.555          46.000  
J 4  36736081.330 6 193049412.110 6      -383.566          38.000  
> 2024 11 28 10  2 35.9970000  0 15                     
G 2  21678970.065 7 113923768.081 7      3092.174          42.000  
G10  24528360.558 5 128897406.862 5      1611.127          32.000  
G16  21586794.106 5 113439361.307 5     -2663.280          31.000  
G21  20061381.752 8 105423276.521 8      2429.877          49.000  
G23  24500431.956 5 128750631.677 5       294.310          34.000  
G26  24010564.819 6 126176363.732 6     -3165.163          40.000  
G27  20110641.396 7 105682121.231 7     -2589.170          42.000  
R14  20632337.212 6 109981890.906 6     -2992.886          38.000  
R17  18230014.704 6  97552473.811 6      -836.915          37.000  
R24  21407622.003 7 114476145.141 7     -4113.071          44.000  
E 5  25873005.416 5 135963569.693 5     -2917.842          35.000  
E10  23711833.152 7 124606520.152 7      -461.071          42.000  
J 2  38003746.115 5 199711033.936 5        38.324          35.000  
J 3  36395888.567 7 191261687.550 7      -460.558          46.000  
J 4  36736154.376 6 193049795.709 6      -383.800          38.000  
> 2024 11 28 10  2 36.9970000  0 15                     
G 2  21678382.045 7 113920676.302 7      3091.603          42.000  
G10  24528056.366 5 128895795.935 5      1610.232          31.000  
G16  21587297.248 5 113442024.029 5     -2663.141          32.000  
G21  20060919.618 8 105420846.999 8      2429.266          49.000  
G23  24500375.749 5 128750337.876 5       293.755          33.000  
G26  24011167.218 6 126179528.733 6     -3165.117          40.000  
G27  20111134.137 7 105684710.595 7     -2589.434          42.000  
R14  20632898.690 6 109984883.804 6     -2992.644          38.000  
R17  18230171.582 6  97553311.134 6      -837.681          38.000  
R24  21408390.720 7 114480258.207 7     -4113.087          43.000  
E 5  25873560.943 5 135966487.688 5     -2918.009          35.000  
E10  23711921.171 6 124606981.757 6      -462.032          41.000  
J 2  38003738.629 5 199710993.64635        39.026          34.000  
J 3  36395976.150 7 191262145.56937      -460.564          46.000  
J 4  36736227.615 6 193050178.17136      -383.565          38.000  
> 2024 11 28 10  2 37.9970000  0 15                     
G 2  21677793.973 7 113917584.321 7      3092.419          43.000  
G10  24527748.317 5 128894184.704 5      1612.068          31.000  
G16  21587808.644 5 113444686.403 5     -2662.413          32.000  
G21  20060457.379 8 105418417.530 8      2429.840          49.000  
G23  24500319.524 5 128750044.089 5       293.919          33.000  
G26  24011769.233 6 126182693.333 6     -3163.952          40.000  
G27  20111626.809 7 105687299.730 7     -2588.698          42.000  
R14  20633460.710 6 109987876.662 6     -2991.750          38.000  
R17  18230328.773 6  97554148.791 6      -837.051          38.000  
R24  21409159.001 7 114484371.047 7     -4112.070          44.000  
E 5  25874116.384 5 135969405.010 5     -2916.380          35.000  
E10  23712009.051 7 124607443.359 7      -461.132          42.000  
J 2  38003731.248 5 199710954.31525        40.247          34.000  
J 3  36396063.593 7 191262605.66727      -459.252          46.000  
J 4  36736300.644 6 193050561.10926      -382.301          38.000  
> 2024 11 28 10  2 38.9970000  0 15                     
G 2  21677205.970 7 113914491.683 7      3092.225          43.000  
G10  24527444.614 5 128892572.871 5      1610.769          31.000  
G16  21588315.364 5 113447347.981 5     -2662.118          33.000  
G21  20059995.349 8 105415987.647 8      2429.468          49.000  
G23  24500263.422 5 128749749.875 5       293.175          32.000  
G26  24012371.353 6 126185857.090 6     -3164.139          40.000  
G27  20112119.499 7 105689888.188 7     -2588.739          42.000  
R14  20634022.607 6 109990869.001 6     -2992.710          38.000  
R17  18230485.947 6  97554986.352 6      -838.039          38.000  
R24  21409927.596 7 114488483.166 7     -4112.481          44.000  
E 5  25874671.318 5 135972321.255 5     -2916.241          35.000  
E10  23712096.790 6 124607904.514 6      -461.464          41.000  
J 2  38003723.657 5 199710913.95925        40.479          34.000  
J 3  36396150.879 7 191263064.90727      -459.622          45.000  
J 4  36736373.376 6 193050943.02426      -382.128          38.000  
> 2024 11 28 10  2 39.9970000  0 15                     
G 2  21676617.898 7 113911400.014 7      3091.191          43.000  
G10  24527134.052 5 128890961.956 5      1610.250          31.000  
G16  21588824.509 5 113450010.465 5     -2662.866          33.000  
G21  20059533.163 8 105413559.003 8      2428.070          49.000  
G23  24500207.529 5 128749456.810 5       292.600          32.000  
G26  24012973.891 6 126189021.599 6     -3164.775          40.000  
G27  20112612.450 7 105692477.628 7     -2589.933          42.000  
R14  20634584.364 6 109993862.476 6     -2994.056          37.000  
R17  18230642.947 6  97555825.466 6      -839.802          37.000  
R24  21410697.063 7 114492596.211 7     -4113.547          44.000  
E 5  25875226.375 5 135975238.028 5     -2916.952          35.000  
E10  23712184.896 7 124608366.864 7      -462.945          42.000  
J 2  38003715.961 5 199710874.24825        39.319          34.000  
J 3  36396238.356 7 191263524.88427      -460.165          46.000  
J 4  36736446.196 6 193051325.61626      -382.904          38.000  
> 2024 11 28 10  2 40.9970000  0 15                     
G 2  21676029.651 7 113908308.186 7      3092.282          43.000  
G10  24526822.810 5 128889350.881 5      1610.632          30.000  
G16  21589331.001 5 113452672.638 5     -2661.694          33.000  
G21  20059071.238 8 105411130.448 8      2428.693          49.000  
G23  24500151.583 5 128749163.857 5       293.234          32.000  
G26  24013575.784 6 126192185.773 6     -3163.586          40.000  
G27  20113105.628 7 105695066.871 7     -2589.051          42.000  
R14  20635146.052 6 109996855.833 6     -2992.954          37.000  
R17  18230799.912 6  97556664.948 6      -839.393          37.000  
R24  21411466.286 7 114496709.114 7     -4112.311          44.000  
E 5  25875781.326 5 135978154.207 5     -2915.705          35.000  
E10  23712272.863 6 124608829.244 6      -462.060          41.000  
J 2  38003708.213 5 199710833.97725        40.582          34.000  
J 3  36396325.904 7 191263984.49927      -459.061          45.000  
J 4  36736519.190 6 193051707.68926      -381.364          38.000  
> 2024 11 28 10  2 41.9970000  0 15                     
G 2  21675441.561 7 113905216.371 7      3091.155          43.000  
G10  24526517.588 5 128887739.740 5      1609.100          30.000  
G16  21589837.476 5 113455334.731 5     -2662.900          33.000  
G21  20058609.122 8 105408702.144 8      2427.570          49.000  
G23  24500095.865 5 128748871.065 5       292.409          32.000  
G26  24014177.747 6 126195349.760 6     -3164.685          40.000  
G27  20113598.440 7 105697656.087 7     -2589.793          43.000  
R14  20635707.669 6 109999849.326 6     -2993.783          37.000  
R17  18230956.859 6  97557504.937 6      -840.721          36.000  
R24  21412235.143 7 114500822.069 7     -4113.622          44.000  
E 5  25876336.523 5 135981069.910 5     -2915.772          35.000  
E10  23712361.353 6 124609291.829 6      -463.058          41.000  
J 2  38003700.169 5 199710793.32525        39.978          34.000  
J 3  36396413.225 7 191264443.90227      -459.949          46.000  
J 4  36736592.080 6 193052089.44726      -382.290          38.000  
> 2024 11 28 10  2 42.9970000  0 15                     
G 2  21674853.890 7 113902126.078 7      3090.260          43.000  
G10  24526209.662 5 128886130.068 5      1609.318          30.000  
G16  21590344.196 5 113457998.240 5     -2663.536          34.000  
G21  20058147.493 8 105406275.625 8      2426.251          49.000  
G23  24500040.565 5 128748580.114 5       290.466          32.000  
G26  24014779.884 6 126198515.068 6     -3165.604          40.000  
G27  20114091.792 7 105700246.836 7     -2591.086          43.000  
R14  20636269.532 6 110002844.501 6     -2995.451          37.000  
R17  18231113.963 6  97558347.035 6      -842.567          36.000  
R24  21413004.645 7 114504936.588 7     -4114.584          44.000  
E 5  25876891.125 5 135983986.748 5     -2916.710          34.000  
E10  23712450.244 6 124609756.182 6      -464.616          41.000  
J 2  38003692.613 5 199710753.86725        39.172          34.000  
J 3  36396500.965 7 191264904.61727      -460.903          46.000  
J 4  36736665.039 6 193052472.36426      -383.049          38.000  
> 2024 11 28 10  2 43.9970000  0 15                     
G 2  21674266.306 7 113899035.861 7      3089.592          44.000  
G10  24525909.117 5 128884520.370 5      1609.026          31.000  
G16  21590851.316 5 113460661.727 5     -2664.067          34.000  
G21  20057685.377 8 105403849.417 8      2425.439          49.000  
G23  24499985.195 5 128748289.364 5       289.998          32.000  
G26  24015382.405 6 126201680.212 6     -3165.955          40.000  
G27  20114585.249 7 105702837.600 7     -2591.229          43.000  
R14  20636831.271 6 110005839.859 6     -2996.170          36.000  
R17  18231271.259 6  97559189.734 6      -843.402          36.000  
R24  21413773.938 7 114509051.132 7     -4115.131          44.000  
E 5  25877446.042 5 135986903.146 5     -2916.823          34.000  
E10  23712538.787 6 124610220.770 6      -465.247          41.000  
J 2  38003684.987 5 199710713.59315        39.172          34.000  
J 3  36396588.425 7 191265364.65317      -461.078          46.000  
J 4  36736737.789 6 193052855.010 6      -383.180          38.000  
> 2024 11 28 10  2 44.9970000  0 15                     
G 2  21673678.653 7 113895946.683 7      3089.047          44.000  
G10  24525604.314 5 128882911.772 5      1608.314          31.000  
G16  21591358.542 5 113463326.115 5     -2664.597          34.000  
G21  20057223.609 8 105401424.515 8      2424.719          49.000  
G23  24499930.402 5 128747999.957 5       289.245          32.000  
G26  24015984.333 6 126204846.226 6     -3165.784          39.000  
G27  20115078.794 7 105705429.422 7     -2591.776          43.000  
R14  20637393.116 6 110008836.394 6     -2996.274          36.000  
R17  18231428.608 6  97560034.083 6      -844.592          36.000  
R24  21414543.684 7 114513166.706 7     -4115.648          44.000  
E 5  25878001.151 5 135989820.164 5     -2916.608          34.000  
E10  23712627.259 6 124610686.641 6      -466.130          41.000  
J 2  38003677.553 5 199710674.489 5        39.246          34.000  
J 3  36396676.217 7 191265826.044 7      -461.334          45.000  
J 4  36736810.592 6 193053238.381 6      -383.171          38.000  
> 2024 11 28 10  2 45.9970000  0 15                     
G 2  21673091.052 7 113892857.077 7      3089.985          44.000  
G10  24525302.198 5 128881302.696 5      1609.583          32.000  
G16  21591865.733 5 113465989.979 5     -2663.401          34.000  
G21  20056761.841 8 105398999.431 8      2425.323          48.000  
G23  24499875.207 5 128747710.295 5       289.502          32.000  
G26  24016586.680 6 126208011.612 6     -3165.057          40.000  
G27  20115572.478 7 105708020.772 7     -2590.685          43.000  
R14  20637954.682 6 110011832.641 6     -2995.899          36.000  
R17  18231586.253 6  97560878.535 6      -844.393          37.000  
R24  21415313.169 7 114517281.796 7     -4114.736          44.000  
E 5  25878555.998 5 135992736.335 5     -2915.932          35.000  
E10  23712715.924 6 124611152.278 6      -465.593          41.000  
J 2  38003669.666 5 199710634.561 5        41.223          34.000  
J 3  36396763.817 7 191266286.776 7      -460.215          45.000  
J 4  36736883.621 6 193053620.960 6      -381.910          38.000  
> 2024 11 28 10  2 46.9970000  0 15                     
G 2  21672503.224 7 113889767.485 7      3088.894          44.000  
G10  24524997.954 5 128879693.616 5      1608.506          32.000  
G16  21592373.342 5 113468653.747 5     -2664.377          34.000  
G21  20056299.760 8 105396574.613 8      2423.907          48.000  
G23  24499819.854 5 128747420.882 5       288.654          32.000  
G26  24017188.992 6 126211176.810 6     -3166.031          40.000  
G27  20116066.215 7 105710612.145 7     -2592.094          43.000  
R14  20638516.369 6 110014828.994 6     -2997.367          37.000  
R17  18231744.492 6  97561723.536 6      -846.381          37.000  
R24  21416083.090 7 114521396.904 7     -4116.125          44.000  
E 5  25879110.880 5 135995652.047 5     -2916.446          34.000  
E10  23712804.885 6 124611618.117 6      -466.615          41.000  
J 2  38003662.127 5 199710594.350 5        39.111          34.000  
J 3  36396851.522 7 191266747.309 7      -461.228          45.000  
J 4  36736956.632 6 193054003.226 6      -382.737          38.000  
> 2024 11 28 10  2 47.9970000  0 15                     
G 2  21671915.518 7 113886679.598 7      3087.225          44.000  
G10  24524693.028 5 128878086.202 5      1606.942          33.000  
G16  21592881.388 5 113471319.110 5     -2666.226          35.000  
G21  20055838.079 8 105394151.748 8      2422.076          48.000  
G23  24499765.288 5 128747133.435 5       286.372          32.000  
G26  24017791.617 6 126214343.515 6     -3167.283          40.000  
G27  20116560.317 7 105713205.199 7     -2593.990          44.000  
R14  20639078.755 6 110017827.184 6     -2999.149          38.000  
R17  18231903.271 6  97562570.768 6      -847.740          37.000  
R24  21416852.749 7 114525513.774 7     -4117.538          44.000  
E 5  25879666.233 5 135998569.008 5     -2917.477          35.000  
E10  23712894.283 6 124612085.887 6      -468.486          41.000  
J 2  38003654.624 5 199710555.432 5        38.379          34.000  
J 3  36396939.593 7 191267209.322 7      -462.499          46.000  
J 4  36737029.871 6 193054386.867 6      -384.036          38.000  
> 2024 11 28 10  2 48.9970000  0 15                     
G 2  21671328.335 7 113883592.813 7      3086.531          43.000  
G10  24524389.656 5 128876479.836 5      1605.954          33.000  
G16  21593388.857 5 113473985.446 5     -2666.681          35.000  
G21  20055376.678 8 105391730.230 8      2421.136          48.000  
G23  24499710.930 5 128746847.243 5       285.654          32.000  
G26  24018394.540 6 126217511.113 6     -3167.823          40.000  
G27  20117053.862 7 105715799.315 7     -2594.653          43.000  
R14  20639641.420 6 110020826.589 6     -2999.763          38.000  
R17  18232062.191 6  97563419.735 6      -849.611          36.000  
R24  21417622.915 7 114529631.728 7     -4118.101          44.000  
E 5  25880220.906 5 136001486.636 5     -2917.615          34.000  
E10  23712983.261 6 124612554.961 6      -469.537          41.000  
J 2  38003647.172 5 199710513.76235        38.007          34.000  
J 3  36397027.630 7 191267670.72737      -463.105          45.000  
J 4  36737103.267 6 193054780.29136      -384.960          38.000  
> 2024 11 28 10  2 49.9970000  0 15                     
G 2  21670740.577 7 113880506.236 7      3086.360          43.000  
G10  24524082.812 5 128874873.722 5      1605.528          33.000  
G16  21593897.165 6 113476651.913 6     -2667.037          36.000  
G21  20054915.731 8 105389309.180 8      2420.630          48.000  
G23  24499656.590 5 128746561.391 5       285.463          33.000  
G26  24018997.445 6 126220678.699 6     -3167.613          40.000  
G27  20117547.563 7 105718393.622 7     -2594.823          43.000  
R14  20640203.805 6 110023826.327 6     -2999.993          38.000  
R17  18232221.110 6  97564269.448 6      -850.327          36.000  
R24  21418392.853 7 114533749.860 7     -4118.448          44.000  
E 5  25880776.399 5 136004403.987 5     -2916.878          35.000  
E10  23713072.589 6 124613024.441 6      -469.590          41.000  
J 2  38003639.634 5 199710475.40225        38.275          34.000  
J 3  36397115.858 7 191268133.61427      -462.989          46.000  
J 4  36737176.610 6 193055164.47926      -384.007          39.000  
> 2024 11 28 10  2 50.9970000  0 15                     
G 2  21670152.767 7 113877419.288 7      3087.023          43.000  
G10  24523775.566 5 128873267.120 5      1606.437          33.000  
G16  21594404.896 5 113479317.844 5     -2665.592          35.000  
G21  20054455.045 8 105386888.010 8      2421.100          48.000  
G23  24499602.861 5 128746275.535 5       284.891          33.000  
G26  24019600.367 6 126223845.765 6     -3166.983          40.000  
G27  20118041.405 7 105720987.536 7     -2593.878          43.000  
R14  20640766.924 6 110026825.827 6     -2999.485          38.000  
R17  18232380.116 5  97565119.295 5      -849.753          35.000  
R24  21419162.792 7 114537867.605 7     -4117.907          45.000  
E 5  25881331.735 5 136007320.583 5     -2916.392          35.000  
E10  23713161.864 7 124613493.766 7      -469.350          42.000  
J 2  38003632.061 5 199710436.31125        39.899          34.000  
J 3  36397203.982 7 191268595.92127      -462.281          46.000  
J 4  36737249.953 6 193055548.05426      -383.404          38.000  
> 2024 11 28 10  2 51.9970000  0 15                     
G 2  21669565.375 7 113874332.582 7      3086.259          43.000  
G10  24523469.629 5 128871660.738 5      1606.808          33.000  
G16  21594912.715 5 113481983.943 5     -2666.467          34.000  
G21  20053994.883 8 105384467.330 8      2420.154          48.000  
G23  24499548.940 5 128745990.093 5       285.073          34.000  
G26  24020203.290 6 126227012.850 6     -3167.697          40.000  
G27  20118535.159 7 105723581.684 7     -2594.625          43.000  
R14  20641329.938 6 110029825.694 6     -3000.302          38.000  
R17  18232538.861 5  97565969.913 5      -850.571          35.000  
R24  21419932.120 7 114541985.611 7     -4118.622          45.000  
E 5  25881887.175 5 136010236.940 5     -2916.583          35.000  
E10  23713251.174 7 124613963.544 7      -470.333          42.000  
J 2  38003624.592 5 199710397.12625        39.093          34.000  
J 3  36397291.896 7 191269058.24627      -462.642          46.000  
J 4  36737322.878 6 193055931.50926      -383.613          38.000  
> 2024 11 28 10  2 52.9970000  0 15                     
G 2  21668977.966 7 113871246.426 7      3085.992          43.000  
G10  24523164.215 5 128870054.884 5      1606.019          33.000  
G16  21595420.324 5 113484650.461 5     -2666.545          34.000  
G21  20053534.860 8 105382047.452 8      2419.672          48.000  
G23  24499495.141 5 128745705.475 5       284.281          34.000  
G26  24020806.247 6 126230180.275 6     -3167.701          41.000  
G27  20119028.755 7 105726176.354 7     -2594.858          44.000  
R14  20641893.091 6 110032826.205 6     -3000.759          38.000  
R17  18232697.780 5  97566821.673 5      -851.862          35.000  
R24  21420702.145 7 114546104.181 7     -4118.723          45.000  
E 5  25882442.179 5 136013153.379 5     -2916.006          35.000  
E10  23713340.764 6 124614434.071 6      -470.835          41.000  
J 2  38003617.298 5 199710358.10925        38.605          34.000  
J 3  36397380.020 7 191269520.91127      -462.831          46.000  
J 4  36737395.854 6 193056315.19126      -383.922          38.000  
> 2024 11 28 10  2 53.9970000  0 15                     
G 2  21668390.486 7 113868160.173 7      3085.969          43.000  
G10  24522858.696 5 128868448.913 5      1605.535          33.000  
G16  21595927.881 5 113487316.776 5     -2666.346          34.000  
G21  20053074.872 8 105379627.725 8      2419.519          48.000  
G23  24499441.185 5 128745420.936 5       284.358          34.000  
G26  24021408.751 6 126233347.387 6     -3167.290          41.000  
G27  20119522.352 7 105728770.908 7     -2594.621          43.000  
R14  20642456.262 6 110035826.736 6     -3000.643          38.000  
R17  18232857.135 6  97567673.871 6      -853.127          36.000  
R24  21421472.398 7 114550222.634 7     -4118.533          45.000  
E 5  25882997.375 5 136016069.288 5     -2915.601          35.000  
E10  23713430.161 6 124614904.682 6      -470.645          41.000  
J 2  38003609.742 5 199710318.61625        39.545          34.000  
J 3  36397468.073 7 191269983.24727      -462.442          46.000  
J 4  36737468.901 6 193056698.38926      -383.042          38.000  
> 2024 11 28 10  2 54.9970000  0 15                     
G 2  21667803.252 7 113865074.308 7      3085.688          43.000  
G10  24522553.353 5 128866843.289 5      1605.183          33.000  
G16  21596435.543 5 113489983.373 5     -2666.273          34.000  
G21  20052614.937 8 105377208.650 8      2418.707          48.000  
G23  24499387.386 5 128745137.045 5       283.135          34.000  
G26  24022011.673 6 126236514.708 6     -3167.644          41.000  
G27  20120016.193 7 105731365.834 7     -2595.054          43.000  
R14  20643019.189 6 110038827.830 6     -3001.534          38.000  
R17  18233016.752 6  97568527.019 6      -854.113          36.000  
R24  21422242.441 7 114554341.457 7     -4118.974          45.000  
E 5  25883552.257 5 136018985.174 5     -2915.949          35.000  
E10  23713519.698 6 124615375.939 6      -471.640          41.000  
J 2  38003602.360 5 199710279.15025        39.752          34.000  
J 3  36397556.284 7 191270445.76227      -462.465          46.000  
J 4  36737541.930 6 193057081.68326      -383.179          38.000  
> 2024 11 28 10  2 55.9970000  0 15                     
G 2  21667215.668 7 113861988.774 7      3085.182          43.000  
G10  24522248.009 5 128865237.981 5      1604.880          33.000  
G16  21596942.647 5 113492650.206 5     -2666.844          34.000  
G21  20052155.141 8 105374790.150 8      2418.115          49.000  
G23  24499333.552 5 128744853.692 5       282.723          34.000  
G26  24022614.526 6 126239682.137 6     -3167.733          41.000  
G27  20120510.157 7 105733961.073 7     -2595.569          44.000  
R14  20643582.255 6 110041829.353 6     -3001.784          38.000  
R17  18233176.474 6  97569381.034 6      -854.383          36.000  
R24  21423013.025 7 114558460.557 7     -4119.359          45.000  
E 5  25884107.279 5 136021900.901 5     -2916.048          35.000  
E10  23713609.532 7 124615847.685 7      -472.059          42.000  
J 2  38003595.066 5 199710239.13815        39.929          34.000  
J 3  36397644.443 7 191270907.89417      -462.850          46.000  
J 4  36737614.890 6 193057464.955 6      -383.638          38.000  
> 2024 11 28 10  2 56.9970000  0 15                     
G 2  21666628.294 7 113858903.517 7      3085.274          42.000  
G10  24521942.717 5 128863632.861 5      1605.044          32.000  
G16  21597449.785 5 113495317.204 5     -2666.967          34.000  
G21  20051695.398 8 105372372.194 8      2417.615          49.000  
G23  24499279.945 5 128744570.807 5       282.533          33.000  
G26  24023217.379 6 126242849.654 6     -3167.452          41.000  
G27  20121004.015 7 105736556.562 7     -2595.625          44.000  
R14  20644145.548 6 110044831.281 6     -3001.985          38.000  
R17  18233336.440 6  97570235.879 6      -854.463          36.000  
R24  21423783.348 7 114562579.908 7     -4119.479          45.000  
E 5  25884662.004 5 136024816.469 5     -2915.580          35.000  
E10  23713699.802 6 124616319.950 6      -472.568          41.000  
J 2  38003587.545 5 199710199.542 5        39.948          33.000  
J 3  36397732.741 7 191271370.575 7      -462.589          46.000  
J 4  36737687.849 6 193057848.140 6      -383.210          38.000  
> 2024 11 28 10  2 57.9970000  0 15                     
G 2  21666040.972 7 113855818.420 7      3084.653          42.000  
G10  24521637.234 5 128862027.864 5      1605.220          32.000  
G16  21597957.028 5 113497984.239 5     -2667.022          33.000  
G21  20051235.619 8 105369954.613 8      2417.285          49.000  
G23  24499226.373 5 128744288.318 5       282.303          33.000  
G26  24023820.127 6 126246017.109 6     -3167.730          41.000  
G27  20121498.083 7 105739152.175 7     -2595.985          44.000  
R14  20644708.527 6 110047833.439 6     -3002.477          38.000  
R17  18233496.302 5  97571091.433 5      -855.975          35.000  
R24  21424554.019 7 114566699.364 7     -4119.654          45.000  
E 5  25885216.903 5 136027731.710 5     -2914.966          35.000  
E10  23713789.758 6 124616792.545 6      -473.029          41.000  
J 2  38003580.076 5 199710159.719 5        39.966          33.000  
J 3  36397820.620 7 191271833.190 7      -462.884          46.000  
J 4  36737760.704 6 193058231.152 6      -383.356          38.000  
> 2024 11 28 10  2 58.9970000  0 15                     
G 2  21665453.615 7 113852733.562 7      3084.694          42.000  
G10  24521328.975 5 128860423.104 5      1605.224          31.000  
G16  21598464.096 5 113500651.405 5     -2667.025          32.000  
G21  20050775.981 8 105367537.556 8      2416.901          49.000  
G23  24499173.027 5 128744006.290 5       282.402          32.000  
G26  24024423.189 6 126249184.622 6     -3167.706          41.000  
G27  20121992.029 7 105741748.021 7     -2595.957          44.000  
R14  20645271.855 6 110050835.954 6     -3002.810          38.000  
R17  18233656.059 5  97571947.736 5      -856.638          35.000  
R24  21425324.516 7 114570819.150 7     -4119.952          45.000  
E 5  25885771.628 5 136030646.781 5     -2914.705          35.000  
E10  23713879.295 6 124617265.607 6      -473.302          41.000  
J 2  38003572.590 5 199710119.804 5        39.954          33.000  
J 3  36397908.691 7 191272295.841 7      -462.721          46.000  
J 4  36737833.750 6 193058614.080 6      -382.897          38.000  
> 2024 11 28 10  2 59.9970000  0 15                     
G 2  21664866.153 7 113849649.000 7      3084.533          42.000  
G10  24521020.490 5 128858818.592 5      1605.205          31.000  
G16  21598967.238 5 113503318.814 5     -2667.759          31.000  
G21  20050316.132 8 105365121.053 8      2416.229          49.000  
G23  24499119.385 5 128743724.807 5       281.095          32.000  
G26  24025025.657 6 126252352.234 6     -3167.595          41.000  
G27  20122486.202 7 105744344.142 7     -2596.226          44.000  
R14  20645834.903 6 110053838.897 6     -3003.293          39.000  
R17  18233815.868 5  97572804.869 5      -857.734          35.000  
R24  21426095.275 7 114574939.248 7     -4120.227          45.000  
E 5  25886326.545 5 136033561.708 5     -2915.098          35.000  
E10  23713969.251 6 124617739.147 6      -473.517          41.000  
J 2  38003564.772 5 199710079.813 5        40.106          33.000  
J 3  36397996.658 7 191272758.551 7      -462.549          46.000  
J 4  36737906.657 6 193058996.946 6      -382.826          38.000  
> 2024 11 28 10  3  0.9970000  0 15                     
G 2  21664279.023 6 113846564.530 6      3084.665          41.000  
G10  24520714.414 5 128857214.119 5      1605.391          31.000  
G16  21599468.217 5 113505986.105 5     -2666.543          30.000  
G21  20049856.249 8 105362704.884 8      2416.272          49.000  
G23  24499065.848 5 128743443.624 5       280.806          32.000  
G26  24025627.917 6 126255519.732 6     -3167.202          41.000  
G27  20122980.567 7 105746940.341 7     -2596.038          44.000  
R14  20646398.388 6 110056842.048 6     -3003.000          39.000  
R17  18233976.130 5  97573662.618 5      -857.345          34.000  
R24  21426865.597 7 114579059.410 7     -4119.767          45.000  
E 5  25886881.497 5 136036476.247 5     -2913.973          35.000  
E10  23714059.277 6 124618213.013 6      -473.511          41.000  
J 2  38003557.112 5 199710040.01835        40.723          33.000  
J 3  36398084.415 7 191273223.65737      -462.125          45.000  
J 4  36737979.634 6 193059385.57336      -381.886          38.000  
> 2024 11 28 10  3  1.9970000  0 15                     
G 2  21663691.980 6 113843479.949 6      3084.026          41.000  
G10  24520412.856 5 128855609.571 5      1604.582          30.000  
G16  21599978.339 5 113508653.180 5     -2667.267          30.000  
G21  20049396.349 8 105360288.842 8      2415.448          49.000  
G23  24499012.346 5 128743162.552 5       280.201          32.000  
G26  24026230.368 6 126258686.893 6     -3167.594          41.000  
G27  20123474.739 7 105749536.371 7     -2596.459          44.000  
R14  20646961.751 6 110059845.222 6     -3003.829          39.000  
R17  18234136.341 5  97574520.858 5      -859.383          34.000  
R24  21427635.675 7 114583179.374 7     -4120.348          45.000  
E 5  25887436.152 5 136039390.217 5     -2913.911          35.000  
E10  23714149.512 6 124618686.947 6      -474.495          41.000  
J 2  38003549.277 5 199709999.24125        40.588          33.000  
J 3  36398172.608 7 191273685.91427      -462.705          46.000  
J 4  36738052.192 6 193059767.74326      -382.610          39.000  
> 2024 11 28 10  3  2.9970000  0 15                     
G 2  21663105.182 6 113840396.075 6      3083.480          41.000  
G10  24520103.359 5 128854005.650 5      1603.522          30.000  
G16  21600484.133 5 113511320.886 5     -2668.292          30.000  
G21  20048936.553 8 105357873.774 8      2414.429          49.000  
G23  24498958.913 5 128742882.421 5       278.706          31.000  
G26  24026833.029 6 126261854.583 6     -3167.669          40.000  
G27  20123969.121 7 105752133.125 7     -2597.231          44.000  
R14  20647525.603 6 110062849.236 6     -3004.771          39.000  
R17  18234296.691 5  97575380.368 5      -860.610          34.000  
R24  21428405.858 7 114587300.023 7     -4120.841          45.000  
E 5  25887990.546 5 136042304.470 5     -2914.212          35.000  
E10  23714240.096 6 124619161.804 6      -475.150          41.000  
J 2  38003541.424 5 199709958.80725        40.344          33.000  
J 3  36398260.662 7 191274148.66127      -462.994          46.000  
J 4  36738125.099 6 193060150.27826      -382.879          38.000  
> 2024 11 28 10  3  3.9970000  0 15                     
G 2  21662518.663 7 113837312.434 7      3083.902          42.000  
G10  24519798.382 4 128852401.974 4      1603.441          29.000  
G16  21600986.403 5 113513988.754 5     -2667.720          30.000  
G21  20048477.071 8 105355459.200 8      2414.441          49.000  
G23  24498905.271 5 128742602.698 5       279.700          31.000  
G26  24027435.463 6 126265022.317 6     -3167.517          40.000  
G27  20124463.556 7 105754730.083 7     -2596.888          44.000  
R14  20648089.471 6 110065853.575 6     -3004.300          38.000  
R17  18234457.233 5  97576240.642 5      -860.334          34.000  
R24  21429176.215 7 114591420.957 7     -4120.875          45.000  
E 5  25888545.271 5 136045218.499 5     -2913.484          35.000  
E10  23714330.226 6 124619637.113 6      -475.231          41.000  
J 2  38003533.537 5 199709918.26325        40.863          33.000  
J 3  36398348.856 7 191274611.43327      -462.535          46.000  
J 4  36738197.832 6 193060532.71126      -382.002          38.000  
> 2024 11 28 10  3  4.9970000  0 15                     
G 2  21661931.986 7 113834228.987 7      3083.194          42.000  
G10  24519485.674 4 128850798.394 4      1603.034          28.000  
G16  21601496.578 5 113516656.655 5     -2667.851          31.000  
G21  20048017.764 8 105353045.058 8      2413.678          49.000  
G23  24498852.240 5 128742323.453 5       278.604          30.000  
G26  24028038.315 6 126268190.004 6     -3167.790          40.000  
G27  20124957.851 7 105757327.210 7     -2597.446          44.000  
R14  20648653.724 6 110068858.217 6     -3005.145          37.000  
R17  18234617.705 5  97577101.665 5      -861.534          34.000  
R24  21429946.590 7 114595542.083 7     -4121.429          44.000  
E 5  25889099.647 5 136048132.310 5     -2914.143          35.000  
E10  23714420.828 6 124620112.813 6      -476.186          41.000  
J 2  38003525.946 5 199709877.53825        40.881          33.000  
J 3  36398436.909 7 191275074.17027      -462.956          46.000  
J 4  36738270.390 6 193060915.00526      -382.328          38.000  
> 2024 11 28 10  3  5.9970000  0 15                     
G 2  21661345.659 7 113831146.022 7      3083.022          42.000  
G10  24519186.385 4 128849195.299 4      1602.477          27.000  
G16  21602003.925 5 113519296.43735     -2668.318          30.000  
G21  20047558.283 8 105350631.653 8      2413.055          49.000  
G23  24498798.825 5 128742044.851 5       278.302          31.000  
G26  24028641.081 6 126271358.014 6     -3168.237          41.000  
G27  20125452.373 7 105759924.798 7     -2597.829          45.000  
R14  20649217.645 6 110071863.452 6     -3005.219          38.000  
R17  18234778.718 5  97577963.736 5      -862.946          34.000  
R24  21430716.930 7 114599663.671 7     -4121.686          44.000  
E 5  25889654.389 5 136051046.089 5     -2913.431          35.000  
E10  23714511.586 6 124620589.199 6      -476.652          41.000  
J 2  38003518.163 5 199709836.91425        41.095          33.000  
J 3  36398525.085 7 191275537.17627      -462.989          46.000  
J 4  36738342.982 6 193061297.45126      -382.697          38.000  
> 2024 11 28 10  3  6.9970000  0 15                     
G 2  21660759.541 7 113828063.407 7      3082.529          42.000  
G10  24518875.475 4 128847592.396 4      1602.846          26.000  
G16  21602515.967 5 113521964.92325     -2668.588          30.000  
G21  20047099.063 8 105348218.825 8      2412.506          48.000  
G23  24498745.288 5 128741766.830 5       277.955          30.000  
G26  24029243.881 6 126274526.139 6     -3168.281          40.000  
G27  20125946.563 7 105762522.711 7     -2598.318          44.000  
R14  20649781.741 6 110074869.157 6     -3006.110          37.000  
R17  18234939.679 5  97578826.604 5      -863.101          34.000  
R24  21431487.444 7 114603785.582 7     -4122.306          44.000  
E 5  25890208.748 5 136053959.799 5     -2913.424          35.000  
E10  23714602.083 6 124621066.119 6      -477.103          41.000  
J 2  38003510.171 5 199709796.28325        40.143          33.000  
J 3  36398613.069 7 191276000.29827      -463.246          46.000  
J 4  36738415.855 6 193061679.85526      -382.309          38.000  
> 2024 11 28 10  3  7.9970000  0 15                     
G 2  21660173.039 6 113824980.824 6      3083.152          40.000  
G10  24518571.946 4               4      1604.849          24.000  
G16  21603026.927 4 113524633.36724     -2667.920          27.000  
G21  20046639.755 7 105345806.292 7      2412.842          46.000  
G23  24498691.942 4 128741489.082 4       278.408          27.000  
G26  24029846.594 6 126277694.096 6     -3167.601          38.000  
G27  20126440.892 6 105765120.610 6     -2597.392          41.000  
R14  20650345.575 5 110077875.039 5     -3005.751          32.000  
R17  18235098.581 4  97579690.123 4      -863.337          29.000  
R24  21432258.814 6 114607907.501 6     -4121.771          39.000  
E 5  25890763.158 5 136056873.098 5     -2912.731          31.000  
E10  23714692.685 6 124621543.279 6      -476.734          38.000  
J 2  38003502.423 5 199709754.76615        42.194          31.000  
J 3  36398701.263 7 191276462.74317      -462.550          43.000  
J 4  36738488.727 6 193062062.000 6      -382.064          36.000  
> 2024 11 28 10  3  8.9970000  0 15                     
G 2  21659586.677 6 113821897.934 6      3082.389          41.000  
G10  24518268.818 3               3      1598.552          23.000  
G16  21603534.135 4 113527301.34324     -2668.310          27.000  
G21  20046180.309 7 105343393.708 7      2411.871          47.000  
G23  24498637.881 4 128741211.239 4       277.339          27.000  
G26  24030449.674 6 126280861.562 6     -3168.093          40.000  
G27  20126935.309 7 105767718.191 7     -2597.804          43.000  
R14  20650909.462 5 110080880.786 5     -3007.345          32.000  
R17  18235259.315 4  97580553.830 4      -864.949          29.000  
R24  21433029.764 6 114612029.079 6     -4122.126          40.000  
E 5  25891317.517 5 136059785.622 5     -2912.793          32.000  
E10  23714783.408 6 124622020.356 6      -477.943          40.000  
J 2  38003490.452 5 199709713.102 5        41.833          31.000  
J 3  36398789.247 7 191276925.139 7      -462.680          45.000  
J 4  36738561.337 6 193062443.443 6      -381.522          38.000  
> 2024 11 28 10  3  9.9970000  0 15                     
G 2  21659000.175 6 113818816.363 6      3081.465          41.000  
G10  24517966.772 3               3      1599.479          22.000  
G16  21604054.500 4 113529970.58524     -2669.291          28.000  
G21  20045721.804 7 105340982.678 7      2410.596          47.000  
G23  24498586.508 4 128740934.993 4       275.287          28.000  
G26  24031052.736 6 126284030.089 6     -3168.401          40.000  
G27  20127430.041 7 105770317.090 7     -2599.385          43.000  
R14  20651473.138 5 110083887.888 5     -3007.069          32.000  
R17  18235427.430 5  97581419.426 5      -865.833          30.000  
R24  21433800.715 6 114616151.977 6     -4122.973          40.000  
E 5  25891871.823 5 136062698.986 5     -2913.189          33.000  
E10  23714874.167 6 124622498.928 6      -478.902          40.000  
J 2  38003485.915 5 199709672.409 5        40.179          31.000  
J 3  36398877.545 7 191277388.643 7      -463.634          45.000  
J 4  36738634.122 6 193062825.879 6      -382.495          37.000  
> 2024 11 28 10  3 10.9970000  0 15                     
G 2  21658413.778 6 113815734.972 6      3081.172          41.000  
G10  24517662.597 3               3      1606.022          23.000  
G16  21604563.663 4 113532639.83224     -2669.526          29.000  
G21  20045263.125 7 105338572.087 7      2410.266          47.000  
G23  24498535.518 4 128740659.049 4       275.513          28.000  
G26  24031655.920 6 126287198.632 6     -3168.622          40.000  
G27  20127924.353 7 105772916.105 7     -2599.316          43.000  
R14  20652037.339 5 110086895.310 5     -3007.688          32.000  
R17  18235592.282 5  97582285.752 5      -867.098          30.000  
R24  21434571.858 6 114620275.027 6     -4123.391          41.000  
E 5  25892426.112 5 136065612.094 5     -2912.790          33.000  
E10  23714965.170 6 124622977.888 6      -479.137          40.000  
J 2  38003474.119 5 199709631.473 5        40.845          32.000  
J 3  36398965.703 7 191277852.103 7      -463.490          44.000  
J 4  36738706.697 6 193063208.153 6      -382.088          37.000  
> 2024 11 28 10  3 11.9970000  0 15                     
G 2  21657827.782 6 113812654.074 6      3081.194          41.000  
G10  24517360.447 4               4      1600.241          25.000  
G16  21605068.201 5 113535309.51125     -2669.439          30.000  
G21  20044804.376 7 105336162.250 7      2410.016          47.000  
G23  24498482.016 4 128740383.842 4       275.382          29.000  
G26  24032258.930 6 126290367.464 6     -3168.530          40.000  
G27  20128419.154 7 105775515.614 7     -2599.581          43.000  
R14  20652601.574 5 110089903.308 5     -3007.800          34.000  
R17  18235754.709 5  97583153.191 5      -868.059          31.000  
R24  21435343.053 6 114624398.558 6     -4123.414          41.000  
E 5  25892980.191 5 136068525.281 5     -2912.773          33.000  
E10  23715056.853 6 124623457.558 6      -479.416          40.000  
J 2  38003465.341 5 199709590.725 5        40.979          32.000  
J 3  36399053.967 7 191278315.848 7      -463.440          44.000  
J 4  36738779.552 6 193063590.606 6      -382.343          37.000  
> 2024 11 28 10  3 12.9970000  0 16                     
G 2  21657241.717 6 113809572.505 6      3081.448          41.000  
G10  24517060.879 4               4      1602.614          25.000  
G16  21605569.807 5 113537977.82115     -2667.777          30.000  
G21  20044346.134 7 105333751.986 7      2409.900          47.000  
G23  24498428.095 4 128740108.245 4       275.111          29.000  
G26  24032861.800 6 126293535.419 6     -3168.104          40.000  
G27  20128913.728 7 105778114.407 7     -2598.987          43.000  
R14  20653165.670 5 110092910.740 5     -3007.959          33.000  
R17  18235912.180 5  97584020.445 5      -867.427          31.000  
R24  21436114.335 6 114628521.403 6     -4122.983          41.000  
E 5  25893534.044 5 136071437.297 5     -2911.730          33.000  
E10  23715148.066 6 124623936.748 6      -479.480          40.000  
E12  25126104.285 6 132038579.169 6     -1723.381          36.000  
J 2  38003463.683 5 199709549.39135        41.760          32.000  
J 3  36399141.951 7 191278781.19037      -463.064          44.000  
J 4  36738851.953 6 193063970.00736      -381.466          36.000  
> 2024 11 28 10  3 13.9970000  0 16                     
G 2  21656655.529 6 113806491.649 6      3080.281          41.000  
G10  24516759.810 4               4      1600.624          25.000  
G16  21606081.814 5 113540647.310 5     -2669.442          30.000  
G21  20043887.908 7 105331342.692 7      2408.978          47.000  
G23  24498375.622 4 128739833.532 4       274.342          28.000  
G26  24033464.914 6 126296703.861 6     -3168.539          39.000  
G27  20129408.407 7 105780713.905 7     -2600.085          42.000  
R14  20653730.219 5 110095919.048 5     -3008.486          33.000  
R17  18236075.235 5  97584888.948 5      -869.105          30.000  
R24  21436885.722 6 114632644.966 6     -4123.750          41.000  
E 5  25894087.914 5 136074349.602 5     -2912.417          32.000  
E10  23715239.383 6 124624416.854 6      -480.638          39.000  
E12  25126440.550 6 132040303.308 6     -1724.112          36.000  
J 2  38003456.075 5 199709507.93125        41.016          31.000  
J 3  36399230.127 7 191279244.52427      -463.622          44.000  
J 4  36738924.284 6 193064351.79926      -382.073          36.000  
> 2024 11 28 10  3 14.9970000  0 16                     
G 2  21656069.359 6 113803410.503 6      3081.587          41.000  
G10  24516457.206 4               4      1602.028          26.000  
G16  21606585.044 5 113543316.357 5     -2668.480          30.000  
G21  20043429.736 7 105328933.360 7      2409.753          47.000  
G23  24498323.167 4 128739558.719 4       275.347          28.000  
G26  24034067.872 6 126299871.831 6     -3167.351          39.000  
G27  20129902.998 7 105783313.086 7     -2598.799          42.000  
R14  20654294.333 5 110098927.223 5     -3007.947          32.000  
R17  18236234.258 5  97585757.634 5      -868.184          30.000  
R24  21437656.934 6 114636768.183 6     -4122.659          41.000  
E 5  25894642.307 5 136077261.166 5     -2910.829          32.000  
E10  23715330.717 6 124624896.879 6      -479.599          39.000  
E12  25126767.114 6 132042027.288 6     -1723.324          36.000  
J 2  38003441.591 5 199709465.74625        42.859          31.000  
J 3  36399318.302 7 191279707.34327      -462.047          44.000  
J 4  36738996.598 6 193064732.96026      -380.552          36.000  
> 2024 11 28 10  3 15.9970000  0 16                     
G 2  21655483.032 6 113800328.965 6      3081.030          41.000  
G10  24516155.771 4               4      1600.713          26.000  
G16  21607094.677 5 113545984.909 5     -2669.319          30.000  
G21  20042971.597 7 105326523.918 7      2408.655          47.000  
G23  24498270.589 4 128739283.788 4       274.479          29.000  
G26  24034670.620 6 126303039.237 6     -3168.117          39.000  
G27  20130397.729 7 105785911.847 7     -2599.493          42.000  
R14  20654858.498 5 110101935.132 5     -3008.915          32.000  
R17  18236393.387 5  97586626.547 5      -869.992          31.000  
R24  21438427.902 7 114640890.986 7     -4123.395          42.000  
E 5  25895196.247 5 136080171.902 5     -2911.353          32.000  
E10  23715421.807 6 124625376.735 6      -480.739          39.000  
E12  25127095.387 6 132043751.026 6     -1724.742          36.000  
J 2  38003430.929 5 199709422.87025        42.212          31.000  
J 3  36399405.972 7 191280169.57527      -462.804          44.000  
J 4  36739068.859 6 193065113.38926      -381.010          36.000  
> 2024 11 28 10  3 16.9970000  0 16                     
G 2  21654896.757 6 113797248.943 6      3079.707          41.000  
G10  24515851.771 4               4      1599.705          26.000  
G16  21607596.039 5 113548654.863 5     -2670.857          30.000  
G21  20042513.686 7 105324116.215 7      2407.220          47.000  
G23  24498216.686 4 128739010.589 4       272.825          29.000  
G26  24035273.734 6 126306207.892 6     -3168.810          39.000  
G27  20130892.443 7 105788512.105 7     -2600.755          42.000  
R14  20655422.925 5 110104944.634 5     -3009.998          32.000  
R17  18236552.114 5  97587497.470 5      -872.134          31.000  
R24  21439199.620 7 114645015.294 7     -4124.673          42.000  
E 5  25895750.343 5 136083083.643 5     -2911.960          32.000  
E10  23715513.456 6 124625858.269 6      -482.040          39.000  
E12  25127423.765 6 132045476.347 6     -1725.559          36.000  
J 2  38003426.165 5 199709381.10725        41.162          31.000  
J 3  36399494.218 7 191280633.08027      -463.879          44.000  
J 4  36739141.190 5 193065494.97625      -382.136          35.000  
> 2024 11 28 10  3 17.9970000  0 16                     
G 2  21654310.883 6 113794169.064 6      3079.603          41.000  
G10  24515546.828 4               4      1600.475          26.000  
G16  21608098.047 5 113551324.798 5     -2669.248          30.000  
G21  20042055.810 7 105321708.917 7      2406.934          47.000  
G23  24498164.440 4 128738737.759 4       272.339          29.000  
G26  24035876.936 6 126309376.505 6     -3168.749          39.000  
G27  20131387.052 7 105791112.479 7     -2600.879          42.000  
R14  20655987.300 5 110107954.331 5     -3009.951          33.000  
R17  18236720.596 5  97588369.154 5      -873.030          31.000  
R24  21439971.060 7 114649139.790 7     -4124.471          42.000  
E 5  25896305.016 5 136085995.104 5     -2911.295          32.000  
E10  23715605.418 6 124626340.168 6      -481.991          39.000  
E12  25127751.533 6 132047201.984 6     -1725.710          36.000  
J 2  38003421.733 5 199709339.09025        42.371          31.000  
J 3  36399582.359 7 191281096.51527      -463.760          44.000  
J 4  36739213.452 5 193065876.34125      -381.131          35.000  
> 2024 11 28 10  3 18.9970000  0 16                     
G 2  21653724.783 6 113791090.032 6      3078.436          41.000  
G10  24515241.118 4               4      1598.682          27.000  
G16  21608603.336 4 113553976.54834     -2671.562          29.000  
G21  20041597.986 7 105319302.706 7      2405.499          47.000  
G23  24498112.124 4 128738465.994 4       270.819          29.000  
G26  24036479.876 6 126312545.751 6     -3169.325          39.000  
G27  20131881.870 7 105793713.637 7     -2601.508          42.000  
R14  20656551.797 5 110110965.046 5     -3011.305          33.000  
R17  18236890.212 5  97589242.185 5      -873.621          32.000  
R24  21440742.673 6 114653265.141 6     -4126.033          41.000  
E 5  25896859.113 5 136088906.964 5     -2912.395          32.000  
E10  23715696.927 6 124626823.111 6      -483.404          39.000  
E12  25128080.487 6 132048928.588 6     -1727.191          36.000  
J 2  38003415.102 5 199709297.58025        40.997          31.000  
J 3  36399670.745 7 191281560.55527      -464.410          44.000  
J 4  36739285.940 5 193066258.24825      -382.335          35.000  
> 2024 11 28 10  3 19.9970000  0 16                     
G 2  21653139.188 6 113788011.633 6      3078.270          41.000  
G10  24514939.805 4               4      1599.018          27.000  
G16  21609110.736 4 113556647.76024     -2671.219          29.000  
G21  20041139.988 7 105316897.387 7      2404.962          47.000  
G23  24498062.722 4 128738195.072 4       270.410          29.000  
G26  24037083.287 6 126315715.455 6     -3169.580          39.000  
G27  20132376.811 7 105796315.452 7     -2601.881          42.000  
R14  20657116.556 5 110113976.536 5     -3011.932          32.000  
R17  18237054.122 5  97590116.450 5      -874.974          32.000  
R24  21441514.130 6 114657391.102 6     -4126.036          41.000  
E 5  25897413.210 5 136091818.981 5     -2912.007          32.000  
E10  23715788.750 6 124627306.907 6      -484.102          39.000  
E12  25128409.301 6 132050655.952 6     -1727.360          36.000  
J 2  38003406.220 5 199709255.82615        41.437          31.000  
J 3  36399759.165 7 191282024.52917      -464.522          44.000  
J 4  36739358.585 5 193066640.423 5      -381.882          35.000  
> 2024 11 28 10  3 20.9970000  0 16                     
G 2  21652553.489 6 113784933.613 6      3078.246          41.000  
G10  24514638.143 4 128825279.32734      1598.976          27.000  
G16  21609614.820 4 113559319.29624     -2671.742          29.000  
G21  20040681.832 7 105314492.701 7      2404.547          46.000  
G23  24498010.284 4 128737924.707 4       270.322          28.000  
G26  24037686.663 6 126318885.337 6     -3169.844          39.000  
G27  20132872.048 7 105798917.613 7     -2602.159          42.000  
R14  20657681.786 5 110116988.559 5     -3012.499          33.000  
R17  18237214.350 5  97590991.616 5      -875.638          32.000  
R24  21442285.412 6 114661517.425 6     -4126.354          40.000  
E 5  25897967.498 5 136094730.948 5     -2911.097          32.000  
E10  23715880.591 6 124627791.285 6      -484.517          39.000  
E12  25128737.889 6 132052383.833 6     -1728.074          36.000  
J 2  38003396.936 5 199709214.614 5        40.936          31.000  
J 3  36399847.847 7 191282489.163 7      -464.475          44.000  
J 4  36739431.318 5 193067022.691 5      -382.163          35.000  
> 2024 11 28 10  3 21.9970000  0 16                     
G 2  21651967.668 6 113781855.655 6      3077.783          41.000  
G10  24514332.921 4 128823680.74324      1598.603          28.000  
G16  21610132.655 5 113561990.71525     -2671.618          30.000  
G21  20040223.764 7 105312088.321 7      2404.126          46.000  
G23  24497959.190 4 128737654.748 4       269.734          28.000  
G26  24038289.969 6 126322055.038 6     -3169.624          40.000  
G27  20133366.954 7 105801519.787 7     -2602.195          42.000  
R14  20658246.999 5 110120000.712 5     -3012.621          34.000  
R17  18237378.661 5  97591867.358 5      -875.881          32.000  
R24  21443057.096 6 114665643.703 6     -4126.187          41.000  
E 5  25898521.647 5 136097642.500 5     -2910.896          32.000  
E10  23715972.728 6 124628275.914 6      -484.991          39.000  
E12  25129067.070 6 132054111.876 6     -1728.227          36.000  
J 2  38003389.747 5 199709173.059 5        41.650          31.000  
J 3  36399936.215 7 191282953.627 7      -464.500          44.000  
J 4  36739503.876 5 193067404.630 5      -382.321          35.000  
> 2024 11 28 10  3 22.9970000  0 16                     
G 2  21651381.759 6 113778777.482 6      3078.376          41.000  
G10  24514029.532 4 128822081.80224      1598.914          28.000  
G16  21610643.249 5 113564661.90925     -2671.638          30.000  
G21  20039765.539 7 105309683.970 7      2404.510          46.000  
G23  24497909.754 4 128737384.851 4       270.003          29.000  
G26  24038893.258 6 126325224.360 6     -3168.861          39.000  
G27  20133862.086 7 105804121.756 7     -2601.292          42.000  
R14  20658812.194 5 110123012.716 5     -3012.072          34.000  
R17  18237542.431 5  97592743.457 5      -876.563          32.000  
R24  21443828.500 6 114669769.766 6     -4125.846          41.000  
E 5  25899075.430 5 136100553.442 5     -2910.648          32.000  
E10  23716064.848 6 124628760.509 6      -484.545          39.000  
E12  25129395.919 6 132055839.859 6     -1727.923          37.000  
J 2  38003382.016 5 199709130.961 5        42.249          31.000  
J 3  36400024.321 7 191283417.639 7      -463.376          43.000  
J 4  36739576.346 5 193067785.962 5      -380.216          35.000  
> 2024 11 28 10  3 23.9970000  0 16                     
G 2  21650795.851 6 113775698.999 6      3078.679          41.000  
G10  24513726.020 4 128820482.56724      1599.278          28.000  
G16  21611155.605 5 113567332.60225     -2670.880          31.000  
G21  20039307.610 7 105307279.577 7      2404.205          46.000  
G23  24497857.333 4 128737114.751 4       269.589          29.000  
G26  24039496.355 6 126328393.145 6     -3168.542          39.000  
G27  20134357.219 7 105806723.379 7     -2601.522          42.000  
R14  20659377.459 5 110126024.545 5     -3011.562          34.000  
R17  18237706.551 5  97593619.742 5      -875.941          31.000  
R24  21444599.660 6 114673895.557 6     -4125.472          39.000  
E 5  25899629.283 5 136103463.580 5     -2910.278          32.000  
E10  23716157.142 6 124629245.026 6      -484.453          39.000  
E12  25129724.908 6 132057567.649 6     -1728.053          37.000  
J 2  38003373.832 5 199709088.107 5        42.883          31.000  
J 3  36400112.357 7 191283881.143 7      -462.981          43.000  
J 4  36739648.643 5 193068166.731 5      -380.283          35.000  
> 2024 11 28 10  3 24.9970000  0 16                     
G 2  21650210.326 6 113772620.898 6      3078.060          41.000  
G10  24513420.449 4 128818883.67624      1598.956          27.000  
G16  21611663.022 5 113570003.53925     -2671.038          31.000  
G21  20038849.943 7 105304875.798 7      2403.589          46.000  
G23  24497805.628 5 128736845.217 5       269.425          31.000  
G26  24040099.452 6 126331562.095 6     -3168.732          39.000  
G27  20134852.403 7 105809325.356 7     -2602.160          42.000  
R14  20659942.828 5 110129036.905 5     -3012.512          34.000  
R17  18237866.534 5  97594496.987 5      -877.357          31.000  
R24  21445370.733 6 114678021.725 6     -4126.051          39.000  
E 5  25900183.118 5 136106373.672 5     -2910.283          32.000  
E10  23716249.227 6 124629730.110 6      -485.141          39.000  
E12  25130053.723 6 132059295.939 6     -1728.506          37.000  
J 2  38003365.404 5 199709032.77835        43.317          31.000  
J 3  36400200.463 7 191284344.30837      -463.658          43.000  
J 4  36739720.974 5 193068536.51135      -381.115          35.000  
> 2024 11 28 10  3 25.9970000  0 16                     
G 2  21649624.453 6 113769543.208 6      3077.510          40.000  
G10  24513116.938 4 128817285.19424      1597.713          26.000  
G16  21612171.556 5 113572674.78825     -2671.855          32.000  
G21  20038392.608 7 105302472.687 7      2402.722          46.000  
G23  24497752.754 5 128736576.312 5       268.330          30.000  
G26  24040702.619 6 126334731.257 6     -3169.248          40.000  
G27  20135347.449 7 105811927.697 7     -2602.771          42.000  
R14  20660508.460 5 110132049.771 5     -3012.781          34.000  
R17  18238033.219 5  97595375.101 5      -878.189          31.000  
R24  21446142.085 6 114682148.221 6     -4126.548          40.000  
E 5  25900737.145 5 136109283.673 5     -2910.297          32.000  
E10  23716341.835 6 124630215.802 6      -486.173          39.000  
E12  25130382.764 6 132061024.741 6     -1729.041          37.000  
J 2  38003357.254 5 199708990.02125        42.584          31.000  
J 3  36400288.535 7 191284808.13627      -463.877          43.000  
J 4  36739793.375 5 193068917.36225      -381.247          35.000  
> 2024 11 28 10  3 26.9970000  0 16                     
G 2  21649038.771 6 113766465.814 6      3077.601          40.000  
G10  24512810.285 4               4      1599.482          24.000  
G16  21612680.806 5 113575346.19725     -2671.143          32.000  
G21  20037935.744 7 105300070.117 7      2402.618          46.000  
G23  24497704.696 5 128736307.919 5       267.886          30.000  
G26  24041306.082 6 126337900.504 6     -3168.899          40.000  
G27  20135843.105 7 105814530.303 7     -2602.644          42.000  
R14  20661074.144 5 110135063.069 5     -3013.308          34.000  
R17  18238194.162 5  97596254.098 5      -878.125          31.000  
R24  21446913.576 6 114686275.023 6     -4127.196          39.000  
E 5  25901291.206 5 136112193.505 5     -2909.614          32.000  
E10  23716434.583 6 124630701.979 6      -486.122          39.000  
E12  25130712.172 6 132062753.979 6     -1729.230          37.000  
J 2  38003349.088 5 199708947.17025        42.822          31.000  
J 3  36400376.606 7 191285272.03927      -463.777          43.000  
J 4  36739865.758 5 193069298.14825      -380.905          35.000  
> 2024 11 28 10  3 27.9970000  0 16                     
G 2  21648452.827 6 113763388.630 6      3077.065          40.000  
G10  24512501.469 3               3      1603.069          23.000  
G16  21613189.044 5 113578017.74625     -2672.322          33.000  
G21  20037478.897 7 105297668.032 7      2401.587          47.000  
G23  24497649.553 4 128736039.942 4       267.714          29.000  
G26  24041909.319 6 126341069.781 6     -3169.762          40.000  
G27  20136338.394 7 105817133.107 7     -2603.096          42.000  
R14  20661639.531 5 110138076.675 5     -3013.953          34.000  
R17  18238358.369 5  97597133.960 5      -881.298          31.000  
R24  21447684.684 6 114690401.971 6     -4127.643          39.000  
E 5  25901844.849 5 136115103.129 5     -2909.892          32.000  
E10  23716527.366 6 124631188.585 6      -486.784          39.000  
E12  25131040.916 6 132064483.570 6     -1729.875          37.000  
J 2  38003341.130 5 199708904.18325        42.548          31.000  
J 3  36400464.799 7 191285735.93427      -464.034          43.000  
J 4  36739937.985 5 193069678.77525      -380.721          35.000  
> 2024 11 28 10  3 28.9970000  0 16                     
G 2  21647867.093 6 113760311.665 6      3076.985          40.000  
G10  24512194.572 3               3      1597.002          22.000  
G16  21613698.764 5 113580689.37425     -2671.908          33.000  
G21  20037022.557 7 105295266.424 7      2401.288          47.000  
G23  24497592.770 4 128735772.391 4       267.723          29.000  
G26  24042512.329 6 126344239.032 6     -3169.082          40.000  
G27  20136833.666 7 105819736.065 7     -2602.634          42.000  
R14  20662205.022 5 110141090.620 5     -3014.037          33.000  
R17  18238512.035 5  97598014.451 5      -881.049          30.000  
R24  21448456.507 6 114694529.109 6     -4127.220          39.000  
E 5  25902398.702 5 136118012.513 5     -2909.270          32.000  
E10  23716620.218 6 124631675.616 6      -487.045          39.000  
E12  25131370.010 6 132066213.490 6     -1729.986          37.000  
J 2  38003332.859 5 199708860.99125        42.987          31.000  
J 3  36400552.818 7 191286199.84327      -463.893          43.000  
J 4  36740010.333 5 193070059.30725      -380.977          35.000  
> 2024 11 28 10  3 29.9970000  0 16                     
G 2  21647281.516 6 113757234.782 6      3076.799          40.000  
G10  24511884.534 3               3      1600.976          19.000  
G16  21614207.473 5 113583360.96325     -2671.156          33.000  
G21  20036566.059 7 105292865.125 7      2401.227          47.000  
G23  24497538.151 4 128735505.219 4       267.100          29.000  
G26  24043115.408 6 126347408.187 6     -3169.302          40.000  
G27  20137329.095 7 105822339.149 7     -2603.212          42.000  
R14  20662770.252 5 110144104.697 5     -3013.342          33.000  
R17  18238679.592 4  97598895.506 4      -880.504          29.000  
R24  21449228.313 6 114698656.324 6     -4127.037          39.000  
E 5  25902952.136 5 136120921.532 5     -2909.213          32.000  
E10  23716712.774 6 124632162.924 6      -487.245          39.000  
E12  25131699.627 6 132067943.619 6     -1730.159          37.000  
J 2  38003324.657 5 199708817.53325        43.738          31.000  
J 3  36400640.994 7 191286663.58527      -463.605          43.000  
J 4  36740082.787 5 193070439.53825      -380.222          35.000  
> 2024 11 28 10  3 30.9970000  0 15                     
G 2  21646695.748 6 113754157.993 6      3076.731          39.000  
G16  21614716.269 5 113586032.528 5     -2671.752          33.000  
G21  20036109.212 7 105290464.185 7      2400.586          46.000  
G23  24497486.568 4 128735238.294 4       266.387          28.000  
G26  24043718.418 6 126350577.206 6     -3168.871          40.000  
G27  20137824.647 7 105824942.230 7     -2602.975          42.000  
R14  20663335.762 5 110147119.014 5     -3014.465          33.000  
R17  18238847.970 4  97599777.322 4      -882.163          29.000  
R24  21450000.084 6 114702783.611 6     -4127.789          39.000  
E 5  25903505.779 5 136123830.156 5     -2908.803          32.000  
E10  23716805.714 6 124632650.528 6      -487.755          39.000  
E12  25132028.843 6 132069673.961 6     -1730.496          37.000  
J 2  38003316.473 5 199708773.78325        43.683          31.000  
J 3  36400729.310 7 191287127.21027      -463.632          43.000  
J 4  36740155.292 5 193070819.56025      -380.058          35.000  
> 2024 11 28 10  3 31.9970000  0 15                     
G 2  21646110.310 6 113751081.407 6      3076.402          40.000  
G16  21615225.187 5 113588704.197 5     -2671.929          34.000  
G21  20035652.173 7 105288063.707 7      2400.043          46.000  
G23  24497436.975 4 128734971.762 4       266.489          27.000  
G26  24044321.410 6 126353746.236 6     -3168.863          40.000  
G27  20138319.901 7 105827545.542 7     -2603.259          42.000  
R14  20663901.201 5 110150133.643 5     -3014.737          33.000  
R17  18239003.643 4  97600659.813 4      -882.661          29.000  
R24  21450771.837 6 114706911.097 6     -4127.870          39.000  
E 5  25904056.193 5 136126738.553 5     -2908.375          33.000  
E10  23716898.985 6 124633138.558 6      -488.473          39.000  
E12  25132357.971 6 132071404.628 6     -1731.032          37.000  
J 2  38003307.940 5 199708729.38415        44.452          31.000  
J 3  36400817.503 7 191287590.33417      -463.724          43.000  
J 4  36740227.274 5 193071199.425 5      -379.576          35.000  
> 2024 11 28 10  3 32.9970000  0 15                     
G 2  21645524.768 6 113748005.003 6      3076.238          39.000  
G16  21615733.739 5 113591375.908 5     -2671.910          33.000  
G21  20035195.327 7 105285663.637 7      2399.799          46.000  
G23  24497386.614 4 128734705.702 4       265.851          27.000  
G26  24044924.123 6 126356915.252 6     -3168.935          40.000  
G27  20138815.208 7 105830148.988 7     -2603.283          42.000  
R14  20664466.693 5 110153148.550 5     -3014.562          33.000  
R17  18239167.797 4  97601543.040 4      -883.607          29.000  
R24  21451543.416 6 114711038.728 6     -4128.079          39.000  
E 5  25904611.128 5 136129646.672 5     -2908.041          33.000  
E10  23716992.065 6 124633626.935 6      -488.613          39.000  
E12  25132687.309 6 132073135.602 6     -1730.926          37.000  
J 2  38003299.250 5 199708685.278 5        44.415          31.000  
J 3  36400905.906 7 191288053.900 7      -463.564          43.000  
J 4  36740299.553 5 193071579.113 5      -379.379          34.000  
> 2024 11 28 10  3 33.9970000  0 15                     
G 2  21644938.720 6 113744928.357 6      3076.681          39.000  
G16  21616242.326 5 113594047.285 5     -2671.312          34.000  
G21  20034738.323 7 105283263.589 7      2399.854          46.000  
G23  24497333.984 4 128734439.592 4       266.446          26.000  
G26  24045526.941 6 126360083.811 6     -3168.376          40.000  
G27  20139310.411 7 105832752.157 7     -2603.075          42.000  
R14  20665032.481 5 110156163.373 5     -3014.787          33.000  
R17  18239331.724 4  97602426.558 4      -883.386          28.000  
R24  21452315.082 6 114715166.067 6     -4127.094          39.000  
E 5  25905164.893 5 136132554.070 5     -2906.867          33.000  
E10  23717084.760 6 124634115.288 6      -488.285          39.000  
E12  25133016.822 6 132074866.471 6     -1730.856          37.000  
J 2  38003290.734 5 199708640.564 5        45.703          31.000  
J 3  36400993.995 7 191288516.992 7      -462.742          43.000  
J 4  36740371.466 5 193071958.247 5      -378.879          35.000  
> 2024 11 28 10  3 34.9970000  0 15                     
G 2  21644353.161 6 113741851.853 6      3076.387          39.000  
G16  21616750.860 5 113596718.695 5     -2671.199          34.000  
G21  20034281.407 7 105280863.933 7      2399.323          46.000  
G23  24497283.430 4 128734173.825 4       265.586          26.000  
G26  24046130.073 6 126363252.322 6     -3168.670          40.000  
G27  20139805.770 7 105835355.463 7     -2603.607          42.000  
R14  20665597.886 5 110159178.449 5     -3015.233          32.000  
R17  18239501.585 4  97603310.766 4      -884.605          28.000  
R24  21453086.870 6 114719293.591 6     -4127.753          39.000  
E 5  25905719.566 5 136135461.203 5     -2906.810          33.000  
E10  23717177.543 6 124634603.995 6      -489.021          39.000  
E12  25133346.334 6 132076597.618 6     -1731.367          37.000  
J 2  38003281.922 5 199708595.684 5        44.312          31.000  
J 3  36401082.031 7 191288980.038 7      -463.318          43.000  
J 4  36740443.448 5 193072337.183 5      -379.321          34.000  
> 2024 11 28 10  3 35.9970000  0 15                     
G 2  21643767.200 6 113738775.630 6      3076.126          39.000  
G16  21617259.586 5 113599390.303 5     -2672.221          34.000  
G21  20033824.752 7 105278464.825 7      2398.730          46.000  
G23  24497231.132 4 128733908.629 4       264.858          26.000  
G26  24046732.961 6 126366420.908 6     -3168.889          40.000  
G27  20140301.478 7 105837959.017 7     -2604.354          42.000  
R14  20666163.604 5 110162193.922 5     -3015.746          32.000  
R17  18239669.351 4  97604195.789 4      -885.437          29.000  
R24  21453858.973 6 114723421.343 6     -4128.042          39.000  
E 5  25906274.203 5 136138368.143 5     -2906.799          33.000  
E10  23717270.885 6 124635093.193 6      -489.875          39.000  
E12  25133675.847 6 132078329.171 6     -1731.812          37.000  
J 2  38003273.354 5 199708550.622 5        45.227          31.000  
J 3  36401170.067 7 191289443.124 7      -463.512          43.000  
J 4  36740515.604 5 193072716.077 5      -379.825          35.000  
> 2024 11 28 10  3 36.9970000  0 15                     
G 2  21643181.588 6 113735700.141 6      3075.192          39.000  
G16  21617768.242 5 113602062.475 5     -2672.347          33.000  
G21  20033368.272 7 105276066.683 7      2397.943          46.000  
G23  24497181.608 4 128733644.330 4       263.896          25.000  
G26  24047336.180 6 126369590.008 6     -3169.323          40.000  
G27  20140796.907 7 105840563.261 7     -2604.824          42.000  
R14  20666729.515 5 110165210.223 5     -3016.937          32.000  
R17  18239836.367 4  97605082.052 4      -886.719          29.000  
R24  21454631.389 6 114727549.810 6     -4128.960          39.000  
E 5  25906827.515 5 136141275.369 5     -2907.209          33.000  
E10  23717363.964 6 124635583.305 6      -490.460          39.000  
E12  25134005.586 6 132080061.570 6     -1732.701          36.000  
J 2  38003264.716 5 199708503.47935        44.360          31.000  
J 3  36401258.261 7 191289903.22337      -464.040          43.000  
J 4  36740587.866 5 193073092.28735      -379.036          35.000  
> 2024 11 28 10  3 37.9970000  0 15                     
G 2  21642596.168 6 113732624.887 6      3075.722          39.000  
G16  21618276.951 5 113604734.806 5     -2671.647          33.000  
G21  20032912.053 7 105273669.056 7      2398.004          46.000  
G23  24497130.479 4 128733380.478 4       264.488          25.000  
G26  24047939.259 6 126372759.141 6     -3168.522          40.000  
G27  20141292.197 7 105843167.716 7     -2603.736          42.000  
R14  20667295.164 5 110168226.921 5     -3017.052          31.000  
R17  18240012.562 5  97605969.124 5      -886.333          30.000  
R24  21455403.387 6 114731678.523 6     -4128.182          39.000  
E 5  25907380.896 5 136144182.354 5     -2906.070          33.000  
E10  23717457.532 6 124636073.878 6      -490.257          39.000  
E12  25134335.657 6 132081794.357 6     -1732.467          36.000  
J 2  38003256.235 5 199708458.68325        45.575          31.000  
J 3  36401346.629 7 191290366.84727      -463.101          43.000  
J 4  36740659.865 5 193073471.41125      -378.949          35.000  
> 2024 11 28 10  3 38.9970000  0 15                     
G 2  21642010.818 6 113729548.848 6      3075.717          38.000  
G16  21618785.433 5 113607406.225 5     -2671.824          33.000  
G21  20032456.271 7 105271270.878 7      2397.797          46.000  
G23  24497085.981 4               4       265.507          25.000  
G26  24048542.234 6 126375927.281 6     -3168.160          40.000  
G27  20141787.294 6 105845771.359 6     -2604.259          41.000  
R14  20667860.900 5 110171242.878 5     -3017.029          32.000  
R17  18240185.407 4  97606856.018 4      -887.724          29.000  
R24  21456175.227 6 114735806.359 6     -4127.790          39.000  
E 5  25907933.597 5 136147088.135 5     -2905.809          33.000  
E10  23717550.664 6 124636563.845 6      -490.406          39.000  
E12  25134665.361 6 132083526.446 6     -1732.534          36.000  
J 2  38003246.131 5 199708412.72325        46.155          31.000  
J 3  36401434.874 7 191290829.43727      -462.701          43.000  
J 4  36740731.865 5 193073849.46025      -378.344          35.000  
> 2024 11 28 10  3 39.9970000  0 15                     
G 2  21641425.380 6 113726473.476 6      3075.276          39.000  
G16  21619293.758 5 113610078.206 5     -2672.109          33.000  
G21  20032000.227 7 105268873.619 7      2396.997          46.000  
G23  24497042.094 4 128732824.27334       263.525          27.000  
G26  24049145.314 6 126379095.877 6     -3168.228          40.000  
G27  20142282.759 6 105848375.635 6     -2604.906          41.000  
R14  20668426.967 5 110174259.711 5     -3017.941          32.000  
R17  18240355.162 4  97607744.079 4      -888.359          29.000  
R24  21456947.347 6 114739934.922 6     -4128.993          39.000  
E 5  25908486.751 5 136149994.099 5     -2906.046          33.000  
E10  23717643.988 6 124637054.686 6      -491.074          38.000  
E12  25134994.909 6 132085259.350 6     -1733.014          36.000  
J 2  38003232.032 5 199708367.06225        45.648          31.000  
J 3  36401522.684 7 191291292.47027      -462.789          43.000  
J 4  36740804.004 5 193074227.73625      -378.341          35.000  
> 2024 11 28 10  3 40.9970000  0 15                     
G 2  21640839.891 6 113723397.922 6      3075.351          39.000  
G16  21619801.140 5 113612749.826 5     -2672.356          32.000  
G21  20031543.991 7 105266476.407 7      2396.606          46.000  
G23  24496994.961 4               4       265.570          25.000  
G26  24049748.114 6 126382264.065 6     -3168.420          40.000  
G27  20142778.275 6 105850979.691 6     -2604.373          41.000  
R14  20668992.721 5 110177276.417 5     -3017.760          33.000  
R17  18240506.299 4  97608606.83234      -888.501          28.000  
R24  21457718.961 6 114744063.206 6     -4128.966          38.000  
E 5  25909039.853 5 136152899.424 5     -2905.405          33.000  
E10  23717737.399 6 124637545.507 6      -491.278          38.000  
E12  25135324.404 6 132086992.157 6     -1733.078          36.000  
J 2  38003224.057 5 199708320.84525        45.898          31.000  
J 3  36401610.563 7 191291755.09127      -462.988          43.000  
J 4  36740875.847 5 193074605.56025      -377.663          34.000  
> 2024 11 28 10  3 41.9970000  0 15                     
G 2  21640255.151 6 113720323.290 6      3074.390          39.000  
G16  21620310.757 5 113615422.280 5     -2672.686          32.000  
G21  20031087.999 7 105264080.386 7      2395.502          46.000  
G23  24496943.936 3               3       261.633          23.000  
G26  24050351.176 6 126385433.006 6     -3169.279          40.000  
G27  20143274.018 7 105853584.673 7     -2605.724          42.000  
R14  20669558.684 5 110180294.108 5     -3018.275          33.000  
R17  18240660.995 4  97609496.64924      -890.122          28.000  
R24  21458491.203 6 114748192.426 6     -4129.617          38.000  
E 5  25909593.060 5 136155805.179 5     -2906.000          33.000  
E10  23717830.653 6 124638037.460 6      -492.495          38.000  
E12  25135654.649 6 132088726.042 6     -1734.332          36.000  
J 2  38003218.857 5 199708275.15925        45.599          31.000  
J 3  36401698.512 7 191292218.43627      -463.662          43.000  
J 4  36740947.986 5 193074983.94225      -379.308          34.000  
> 2024 11 28 10  3 42.9970000  0 16                     
G 2  21639670.133 6 113717249.064 6      3073.993          39.000  
G10  24507979.384 3               3      1600.609          22.000  
G16  21620824.770 5 113618095.006 5     -2673.274          33.000  
G21  20030631.990 7 105261685.009 7      2394.775          46.000  
G23  24496896.350 3               3       269.770          22.000  
G26  24050954.308 6 126388602.118 6     -3169.368          39.000  
G27  20143769.796 7 105856189.971 7     -2605.761          42.000  
R14  20670124.682 5 110183312.359 5     -3018.623          33.000  
R17  18240826.266 4  97610387.43724      -891.401          28.000  
R24  21459263.392 6 114752322.057 6     -4129.996          39.000  
E 5  25910146.075 5 136158710.923 5     -2906.120          33.000  
E10  23717924.168 6 124638530.033 6      -493.092          38.000  
E12  25135984.266 6 132090460.438 6     -1734.685          36.000  
J 2  38003208.840 5 199708229.50425        45.428          31.000  
J 3  36401786.845 7 191292681.93127      -463.794          43.000  
J 4  36741019.567 5 193075362.35725      -378.957          34.000  
> 2024 11 28 10  3 43.9970000  0 16                     
G 2  21639085.516 6 113714175.421 6      3074.080          40.000  
G10  24507666.991 3               3      1600.609          22.000  
G16  21621332.921 5 113620768.207 5     -2673.022          34.000  
G21  20030175.929 7 105259290.490 7      2394.501          46.000  
G23  24496848.903 3               3       257.583          22.000  
G26  24051557.440 6 126391771.623 6     -3169.316          39.000  
G27  20144265.854 7 105858795.862 7     -2605.827          42.000  
R14  20670691.360 5 110186331.348 5     -3019.048          33.000  
R17  18240998.168 4  97611279.32524      -891.362          29.000  
R24  21460035.844 6 114756452.223 6     -4129.920          39.000  
E 5  25910699.195 5 136161616.800 5     -2906.125          33.000  
E10  23718017.859 6 124639023.394 6      -493.244          38.000  
E12  25136314.547 6 132092195.552 6     -1734.814          36.000  
J 2  38003199.190 5 199708183.58615        45.593          32.000  
J 3  36401874.951 7 191293145.31017      -463.641          43.000  
J 4  36741091.671 5 193075741.000 5      -378.333          34.000  
> 2024 11 28 10  3 44.9970000  0 16                     
G 2  21638500.776 6 113711101.041 6      3074.577          40.000  
G10  24507354.719 3               3      1600.609          23.000  
G16  21621835.609 5 113623440.553 5     -2672.589          33.000  
G21  20029719.763 7 105256895.445 7      2395.081          45.000  
G23  24496801.717 4               4       256.136          24.000  
G26  24052160.292 6 126394940.147 6     -3168.249          39.000  
G27  20144761.719 7 105861400.958 7     -2604.759          42.000  
R14  20671257.445 5 110189349.632 5     -3018.157          33.000  
R17  18241170.698 4  97612171.03424      -890.982          29.000  
R24  21460808.469 6 114760581.611 6     -4129.693          39.000  
E 5  25911251.965 5 136164521.446 5     -2904.137          33.000  
E10  23718111.636 6 124639516.183 6      -492.511          38.000  
E12  25136644.670 6 132093930.030 6     -1734.473          36.000  
J 2  38003193.833 5 199708137.024 5        46.594          32.000  
J 3  36401962.866 7 191293608.191 7      -462.528          43.000  
J 4  36741163.199 5 193076118.584 5      -377.277          34.000  
> 2024 11 28 10  3 45.9970000  0 16                     
G 2  21637915.775 6 113708026.378 6      3074.520          40.000  
G10  24507040.214 4               4      1600.609          25.000  
G16  21622341.404 5 113626112.509 5     -2672.263          32.000  
G21  20029263.596 7 105254500.386 7      2394.904          45.000  
G23  24496755.544 4               4       261.572          25.000  
G26  24052763.023 6 126398108.199 6     -3168.213          39.000  
G27  20145257.584 7 105864005.753 7     -2604.810          42.000  
R14  20671823.425 5 110192367.742 5     -3018.365          32.000  
R17  18241339.581 5  97613063.02725      -891.966          30.000  
R24  21461580.624 6 114764710.678 6     -4129.465          39.000  
E 5  25911804.526 5 136167425.359 5     -2904.108          33.000  
E10  23718205.379 6 124640008.942 6      -493.238          38.000  
E12  25136974.130 6 132095664.347 6     -1734.246          36.000  
J 2  38003185.160 5 199708089.814 5        46.765          32.000  
J 3  36402051.024 7 191294070.601 7      -462.563          43.000  
J 4  36741234.780 5 193076495.538 5      -377.001          34.000  
> 2024 11 28 10  3 46.9970000  0 15                     
G 2  21637331.001 6 113704952.220 6      3073.146          40.000  
G16  21622851.491 5 113628784.873 5     -2673.796          33.000  
G21  20028807.622 7 105252106.092 7      2393.219          45.000  
G23  24496707.486 4               4       276.482          24.000  
G26  24053365.753 6 126401276.576 6     -3169.417          39.000  
G27  20145753.397 7 105866611.060 7     -2606.313          42.000  
R14  20672389.790 5 110195386.543 5     -3019.469          32.000  
R17  18241512.653 5  97613956.03225      -894.151          31.000  
R24  21462352.814 6 114768840.240 6     -4130.514          39.000  
E 5  25912357.297 5 136170329.333 5     -2904.537          33.000  
E10  23718299.383 6 124640502.369 6      -494.261          38.000  
E12  25137304.462 6 132097399.333 6     -1735.943          37.000  
J 2  38003175.266 5 199708042.731 5        46.173          32.000  
J 3  36402139.235 7 191294533.283 7      -463.563          43.000  
J 4  36741306.675 5 193076872.637 5      -378.281          34.000  
> 2024 11 28 10  3 47.9970000  0 15                     
G 2  21636746.436 6 113701880.047 6      3071.404          40.000  
G16  21623360.304 5 113631459.045 5     -2675.566          33.000  
G21  20028352.154 7 105249714.016 7      2391.174          45.000  
G23  24496663.442 4               4       257.368          26.000  
G26  24053969.060 6 126404446.715 6     -3171.095          39.000  
G27  20146249.507 7 105869218.293 7     -2608.084          42.000  
R14  20672956.224 5 110198407.419 5     -3021.716          33.000  
R17  18241685.096 5  97614851.53825      -896.799          31.000  
R24  21463125.387 6 114772971.813 6     -4132.301          39.000  
E 5  25912910.085 5 136173234.802 5     -2905.761          33.000  
E10  23718393.823 6 124640998.003 6      -496.708          38.000  
E12  25137635.039 6 132099136.386 6     -1737.581          37.000  
J 2  38003165.843 5 199707997.285 5        45.001          32.000  
J 3  36402227.498 7 191294997.716 7      -465.160          43.000  
J 4  36741378.553 5 193077251.373 5      -379.207          34.000  
> 2024 11 28 10  3 48.9970000  0 16                     
G 2  21636162.238 6 113698809.081 6      3070.615          40.000  
G10  24506125.595 4               4      1592.343          26.000  
G16  21623874.615 5 113634134.331 5     -2675.107          33.000  
G21  20027897.070 7 105247323.427 7      2389.777          45.000  
G23  24496617.129 4               4       256.574          25.000  
G26  24054572.471 6 126407617.832 6     -3171.586          39.000  
G27  20146745.425 6 105871826.715 6     -2609.148          41.000  
R14  20673523.094 5 110201429.746 5     -3023.746          34.000  
R17  18241848.465 5  97615748.38215      -898.441          31.000  
R24  21463898.188 6 114777104.614 6     -4133.618          39.000  
E 5  25913463.065 5 136176141.101 5     -2906.433          33.000  
E10  23718488.596 6 124641495.037 6      -497.530          39.000  
E12  25137965.651 6 132100874.776 6     -1738.723          36.000  
J 2  38003162.004 5 199707964.16535        44.025          31.000  
J 3  36402315.953 7 191295460.64337      -465.752          43.000  
J 4  36741450.971 5 193077628.00935      -379.993          34.000  
> 2024 11 28 10  3 49.9970000  0 16                     
G 2  21635578.074 6 113695738.420 6      3070.187          40.000  
G10  24505825.399 4 128778965.84934      1592.227          27.000  
G16  21624377.757 5 113636809.795 5     -2675.231          33.000  
G21  20027442.335 7 105244933.333 7      2389.941          45.000  
G23  24496570.921 4               4       255.340          25.000  
G26  24055175.952 6 126410789.032 6     -3171.083          39.000  
G27  20147241.953 6 105874435.358 6     -2608.654          41.000  
R14  20674089.947 5 110204452.292 5     -3022.407          34.000  
R17  18242013.177 5  97616646.465 5      -899.199          31.000  
R24  21464671.145 6 114781237.582 6     -4132.794          40.000  
E 5  25914016.097 5 136179047.179 5     -2906.353          33.000  
E10  23718583.385 6 124641992.540 6      -497.594          39.000  
E12  25138296.193 6 132102613.566 6     -1738.508          36.000  
J 2  38003151.342 5 199707919.40125        45.648          31.000  
J 3  36402404.513 7 191295926.11927      -465.408          43.000  
J 4  36741523.162 5 193078007.54425      -379.033          34.000  
> 2024 11 28 10  3 50.9970000  0 16                     
G 2  21634993.981 6 113692667.872 6      3070.619          40.000  
G10  24505523.877 4 128777373.57224      1592.746          27.000  
G16  21624884.860 5 113639485.315 5     -2675.836          33.000  
G21  20026987.983 7 105242543.671 7      2389.606          45.000  
G23  24496526.143 4               4       257.592          25.000  
G26  24055779.258 6 126413960.185 6     -3170.921          39.000  
G27  20147738.133 6 105877044.144 6     -2608.490          41.000  
R14  20674656.887 5 110207475.175 5     -3022.361          33.000  
R17  18242178.099 5  97617545.306 5      -899.732          30.000  
R24  21465444.137 6 114785370.689 6     -4132.792          40.000  
E 5  25914569.461 5 136181952.925 5     -2905.665          33.000  
E10  23718678.663 6 124642490.417 6      -497.970          39.000  
E12  25138627.137 6 132104352.665 6     -1738.902          36.000  
J 2  38003143.018 5 199707874.48225        45.093          32.000  
J 3  36402492.916 7 191296391.53027      -465.230          43.000  
J 4  36741595.616 5 193078386.92025      -379.407          34.000  
> 2024 11 28 10  3 51.9970000  0 16                     
G 2  21634410.061 6 113689597.344 6      3070.510          40.000  
G10  24505221.622 4 128775781.30424      1591.746          27.000  
G16  21625396.972 5 113642160.694 5     -2675.341          33.000  
G21  20026533.545 7 105240154.256 7      2389.276          46.000  
G23  24496478.871 3               3       259.598          23.000  
G26  24056382.338 6 126417131.093 6     -3170.906          39.000  
G27  20148234.068 6 105879652.905 6     -2608.736          41.000  
R14  20675224.246 5 110210498.187 5     -3023.167          33.000  
R17  18242344.313 5  97618444.640 5      -899.116          31.000  
R24  21466217.007 6 114789503.781 6     -4133.035          39.000  
E 5  25915122.162 5 136184858.212 5     -2904.412          33.000  
E10  23718773.470 6 124642988.469 6      -498.270          39.000  
E12  25138958.010 6 132106091.862 6     -1739.531          36.000  
J 2  38003134.642 5 199707829.14125        45.740          31.000  
J 3  36402581.319 7 191296856.71227      -465.044          43.000  
J 4  36741667.598 5 193078765.94825      -379.222          34.000  
> 2024 11 28 10  3 52.9970000  0 16                     
G 2  21633826.020 6 113686526.904 6      3070.162          40.000  
G10  24504918.983 4 128774189.03524      1592.192          26.000  
G16  21625902.504 5 113644836.027 5     -2675.661          31.000  
G21  20026079.560 7 105237765.198 7      2388.574          46.000  
G23  24496429.504 3               3       255.774          23.000  
G26  24056985.836 6 126420301.946 6     -3171.283          39.000  
G27  20148730.387 6 105882261.708 6     -2608.920          41.000  
R14  20675791.378 5 110213521.383 5     -3023.438          33.000  
R17  18242515.901 5  97619344.625 5      -899.968          31.000  
R24  21466989.563 6 114793636.899 6     -4133.139          39.000  
E 5  25915675.281 5 136187763.190 5     -2905.087          33.000  
E10  23718868.120 6 124643486.826 6      -498.554          38.000  
E12  25139288.936 6 132107831.261 6     -1739.525          36.000  
J 2  38003125.847 5 199707783.55325        45.532          32.000  
J 3  36402669.879 7 191297321.77127      -465.271          43.000  
J 4  36741739.702 5 193079144.71525      -379.214          34.000  
> 2024 11 28 10  3 53.9970000  0 16                     
G 2  21633241.473 6 113683456.460 6      3070.553          40.000  
G10  24504617.425 4 128772596.75324      1592.441          26.000  
G16  21626412.435 5 113647511.250 5     -2675.070          32.000  
G21  20025625.052 7 105235376.375 7      2388.635          46.000  
G23  24496383.174 3               3       251.938          20.000  
G26  24057589.264 6 126423472.533 6     -3170.394          39.000  
G27  20149226.671 6 105884870.497 6     -2608.951          41.000  
R14  20676358.580 5 110216544.671 5     -3023.597          34.000  
R17  18242684.417 5  97620245.173 5      -901.305          31.000  
R24  21467762.730 6 114797770.052 6     -4133.146          39.000  
E 5  25916227.930 5 136190667.671 5     -2904.070          33.000  
E10  23718962.631 6 124643985.349 6      -498.542          38.000  
E12  25139620.229 5 132109570.836 5     -1739.947          35.000  
J 2  38003111.747 5 199707737.60225        45.612          32.000  
J 3  36402758.473 7 191297786.59027      -464.774          43.000  
J 4  36741811.911 5 193079523.11425      -377.983          34.000  
> 2024 11 28 10  3 54.9970000  0 16                     
G 2  21632657.047 6 113680385.527 6      3070.953          40.000  
G10  24504312.064 4 128771004.12124      1591.724          25.000  
G16  21626922.539 5 113650185.834 5     -2674.105          35.000  
G21  20025170.648 7 105232987.299 7      2388.879          46.000  
G23  24496334.575 3               3       260.881          19.000  
G26  24058192.676 6 126426642.430 6     -3169.697          40.000  
G27  20149722.851 6 105887478.751 6     -2608.090          41.000  
R14  20676925.537 5 110219567.558 5     -3023.248          33.000  
R17  18242852.829 5  97621145.693 5      -900.670          31.000  
R24  21468535.688 6 114801902.707 6     -4133.138          39.000  
E 5  25916780.787 5 136193571.208 5     -2903.630          33.000  
E10  23719057.543 6 124644483.625 6      -498.462          38.000  
E12  25139951.312 5 132111310.002 5     -1739.440          35.000  
J 2  38003106.268 5 199707690.72825        47.601          32.000  
J 3  36402846.876 7 191298250.69627      -464.171          43.000  
J 4  36741883.457 5 193079900.64925      -376.953          34.000  
> 2024 11 28 10  3 55.9970000  0 16                     
G 2  21632072.413 6 113677314.939 6      3070.361          40.000  
G10  24504006.249 4 128769411.53124      1592.365          26.000  
G16  21627431.650 5 113652860.703 5     -2675.354          34.000  
G21  20024716.262 7 105230598.828 7      2388.367          46.000  
G23  24496283.568 2               2       263.312          16.000  
G26  24058795.598 6 126429812.467 6     -3170.522          38.000  
G27  20150218.577 6 105890087.313 6     -2608.716          41.000  
R14  20677492.757 5 110222590.899 5     -3023.053          33.000  
R17  18243021.311 5  97622047.106 5      -901.740          31.000  
R24  21469308.872 6 114806035.583 6     -4133.188          39.000  
E 5  25917333.331 5 136196474.625 5     -2903.555          33.000  
E10  23719152.489 6 124644982.392 6      -498.959          38.000  
E12  25140282.464 5 132113049.642 5     -1739.770          35.000  
J 2  38003098.066 5 199707643.86525        46.716          32.000  
J 3  36402935.087 7 191298714.40217      -464.127          43.000  
J 4  36741955.020 5 193080278.210 5      -377.392          33.000  
> 2024 11 28 10  3 56.9970000  0 16                     
G 2  21631487.639 6 113674244.440 6      3070.048          40.000  
G10  24503697.083 4 128767819.32024      1592.199          27.000  
G16  21627941.126 5 113655535.470 5     -2674.700          34.000  
G21  20024261.980 7 105228210.696 7      2387.842          46.000  
G23  24496228.163 3               3       252.540          19.000  
G26  24059398.555 6 126432982.420 6     -3171.381          38.000  
G27  20150714.634 6 105892695.957 6     -2609.248          41.000  
R14  20678060.151 5 110225614.370 5     -3023.019          34.000  
R17  18243190.107 5  97622949.151 5      -901.616          31.000  
R24  21470081.707 6 114810168.543 6     -4133.559          40.000  
E 5  25917885.543 5 136199377.624 5     -2902.767          33.000  
E10  23719247.366 6 124645481.486 6      -499.147          38.000  
E12  25140613.390 5 132114789.450 5     -1740.156          35.000  
J 2  38003089.655 5 199707596.22215        46.674          32.000  
J 3  36403023.560 7 191299178.492 7      -464.092          43.000  
J 4  36742026.793 5 193080655.492 5      -376.666          34.000  
> 2024 11 28 10  3 57.9970000  0 16                     
G 2  21630903.039 6 113671174.573 6      3069.356          40.000  
G10  24503393.572 4               4      1586.310          27.000  
G16  21628450.463 5 113658210.796 5     -2676.015          35.000  
G21  20023807.891 7 105225823.450 7      2386.731          46.000  
G23  24496178.587 3               3       248.821          18.000  
G26  24060001.478 6 126436152.741 6     -3170.644          40.000  
G27  20151210.552 6 105895305.164 6     -2609.023          41.000  
R14  20678627.719 5 110228638.768 5     -3025.343          32.000  
R17  18243358.938 5  97623852.436 5      -904.115          31.000  
R24  21470854.734 6 114814302.082 6     -4133.774          39.000  
E 5  25918437.878 5 136202280.882 5     -2903.993          33.000  
E10  23719342.313 6 124645981.393 6      -500.156          37.000  
E12  25140945.049 6 132116530.073 6     -1741.052          36.000  
J 2  38003082.571 5 199707549.276 5        47.388          32.000  
J 3  36403112.050 7 191299642.978 7      -464.814          43.000  
J 4  36742098.601 5 193081033.097 5      -377.592          35.000  
> 2024 11 28 10  3 58.9970000  0 16                     
G 2  21630318.893 6 113668105.101 6      3069.167          39.000  
G10  24503089.484 4               4      1591.155          26.000  
G16  21628960.044 5 113660886.403 5     -2675.796          33.000  
G21  20023353.941 7 105223436.902 7      2386.133          46.000  
G23  24496126.690 3               3       260.434          19.000  
G26  24060604.662 6 126439323.333 6     -3170.499          41.000  
G27  20151706.714 6 105897914.809 6     -2609.858          41.000  
R14  20679195.287 5 110231663.537 5     -3024.487          33.000  
R17  18243530.194 5  97624756.594 5      -903.735          31.000  
R24  21471627.831 6 114818436.162 6     -4134.673          39.000  
E 5  25918987.751 5 136205184.122 5     -2903.004          32.000  
E10  23719437.608 6 124646481.943 6      -500.820          37.000  
E12  25141276.027 5 132118271.183 5     -1741.073          35.000  
J 2  38003073.496 5 199707502.472 5        46.259          32.000  
J 3  36403200.854 7 191300107.683 7      -464.885          43.000  
J 4  36742170.077 5 193081410.799 5      -377.795          32.000  
> 2024 11 28 10  3 59.9970000  0 16                     
G 2  21629734.729 6 113665035.797 6      3069.491          40.000  
G10  24502786.496 4 128763011.96634      1591.229          27.000  
G16  21629469.503 5 113663562.038 5     -2675.305          33.000  
G21  20022899.642 7 105221050.752 7      2385.974          46.000  
G23  24496076.486 2               2       253.905          17.000  
G26  24061207.689 6 126442493.864 6     -3170.663          39.000  
G27  20152203.242 6 105900524.528 6     -2609.615          41.000  
R14  20679762.873 5 110234688.737 5     -3026.146          33.000  
R17  18243698.013 5  97625661.552 5      -905.963          31.000  
R24  21472401.242 6 114822570.297 6     -4134.157          40.000  
E 5  25919540.051 5 136208086.907 5     -2902.872          31.000  
E10  23719532.886 6 124646982.825 6      -501.002          38.000  
E12  25141607.808 5 132120012.610 5     -1741.270          35.000  
J 2  38003064.475 5 199707455.440 5        46.216          32.000  
J 3  36403289.100 7 191300572.307 7      -464.519          43.000  
J 4  36742241.885 5 193081788.316 5      -377.607          35.000  
> 2024 11 28 10  4  0.9970000  0 15                     
G 2  21629150.810 6 113661966.607 6      3069.205          39.000  
G10  24502483.037 4 128761420.65224      1591.566          27.000  
G16  21629978.317 5 113666237.672 5     -2675.383          32.000  
G21  20022445.692 7 105218664.919 7      2385.870          47.000  
G26  24061810.716 6 126445664.210 6     -3170.289          38.000  
G27  20152699.701 6 105903134.361 6     -2610.546          40.000  
R14  20680327.475 5 110237713.964 5     -3025.255          32.000  
R17  18243863.930 5  97626567.081 5      -906.252          31.000  
R24  21473174.217 6 114826704.491 6     -4133.894          39.000  
E 5  25920091.600 5 136210989.479 5     -2901.928          32.000  
E10  23719628.461 6 124647483.992 6      -501.034          38.000  
E12  25141938.909 5 132121754.243 5     -1741.930          35.000  
J 2  38003054.633 5 199707399.55035        47.528          32.000  
J 3  36403377.345 7 191301038.29037      -464.395          43.000  
J 4  36742313.710 5 193082161.46935      -376.362          35.000  
> 2024 11 28 10  4  1.9970000  0 15                     
G 2  21628566.594 6 113658897.676 6      3068.578          39.000  
G10  24502182.003 4 128759829.65824      1590.611          27.000  
G16  21630487.305 5 113668913.463 5     -2675.710          31.000  
G21  20021991.672 7 105216279.612 7      2384.924          46.000  
G26  24062414.285 6 126448834.636 6     -3169.910          38.000  
G27  20153196.439 6 105905744.347 6     -2610.219          40.000  
R14  20680891.920 5 110240739.652 5     -3026.471          33.000  
R17  18244035.204 5  97627473.365 5      -906.422          31.000  
R24  21473947.262 6 114830838.910 6     -4134.358          39.000  
E 5  25920647.878 5 136213891.787 5     -2902.250          33.000  
E10  23719724.123 6 124647985.643 6      -501.943          38.000  
E12  25142270.219 5 132123496.240 5     -1742.133          35.000  
J 2  38003045.524 5 199707352.10725        46.753          32.000  
J 3  36403465.905 7 191301502.82027      -464.715          43.000  
J 4  36742385.465 5 193082538.67625      -377.429          34.000  
> 2024 11 28 10  4  2.9970000  0 16                     
G 2  21627982.588 6 113655829.012 6      3068.613          39.000  
G10  24501880.219 4 128758238.91324      1589.997          27.000  
G16  21630998.736 5 113671589.420 5     -2676.169          31.000  
G21  20021537.757 7 105213894.836 7      2384.656          46.000  
G23  24495930.131 2               2       252.000          16.000  
G26  24063017.626 6 126452005.174 6     -3170.253          38.000  
G27  20153693.421 6 105908354.627 6     -2610.350          40.000  
R14  20681463.973 5 110243765.707 5     -3026.217          33.000  
R17  18244204.261 5  97628380.502 5      -908.154          31.000  
R24  21474720.673 6 114834973.535 6     -4134.296          39.000  
E 5  25921203.807 5 136216793.893 5     -2901.617          33.000  
E10  23719819.646 6 124648487.759 6      -502.379          38.000  
E12  25142602.000 5 132125238.644 5     -1742.391          35.000  
J 2  38003036.450 5 199707304.52925        47.198          32.000  
J 3  36403554.238 7 191301967.38327      -464.294          43.000  
J 4  36742457.220 5 193082915.71125      -377.205          34.000  
> 2024 11 28 10  4  3.9970000  0 16                     
G 2  21627398.634 6 113652760.493 6      3068.187          39.000  
G10  24501576.481 4 128756648.17424      1590.769          27.000  
G16  21631511.615 5 113674265.344 5     -2675.799          31.000  
G21  20021083.929 7 105211510.448 7      2383.911          46.000  
G23  24495880.764 2               2       244.933          17.000  
G26  24063621.107 6 126455175.645 6     -3170.912          38.000  
G27  20154189.880 6 105910964.980 6     -2610.213          40.000  
R14  20682036.183 5 110246792.063 5     -3026.989          33.000  
R17  18244380.858 5  97629288.225 5      -908.433          31.000  
R24  21475494.136 6 114839108.286 6     -4134.760          39.000  
E 5  25921755.810 5 136219695.695 5     -2901.368          33.000  
E10  23719915.256 6 124648990.181 6      -502.666          38.000  
E12  25142933.362 5 132126981.294 5     -1742.623          35.000  
J 2  38003027.568 5 199707256.70925        47.772          32.000  
J 3  36403642.519 7 191302431.86927      -464.668          43.000  
J 4  36742529.185 5 193083292.57725      -376.968          34.000  
> 2024 11 28 10  4  4.9970000  0 16                     
G 2  21626814.435 6 113649692.055 6      3068.479          39.000  
G10  24501272.515 4 128755057.53724      1591.163          28.000  
G16  21632008.562 5 113676941.288 5     -2675.566          31.000  
G21  20020630.380 7 105209126.369 7      2384.308          46.000  
G23  24495833.090 3               3       250.460          19.000  
G26  24064224.570 6 126458345.931 6     -3169.650          38.000  
G27  20154686.443 6 105913575.449 6     -2610.695          40.000  
R14  20682605.165 5 110249818.543 5     -3026.497          33.000  
R17  18244547.263 5  97630196.648 5      -909.322          31.000  
R24  21476267.513 6 114843243.099 6     -4134.376          39.000  
E 5  25922305.753 5 136222597.139 5     -2900.740          33.000  
E10  23720011.232 6 124649492.916 6      -502.580          38.000  
E12  25143265.195 5 132128724.164 5     -1742.551          35.000  
J 2  38003018.301 5 199707208.60025        48.761          32.000  
J 3  36403731.061 7 191302896.19527      -463.795          43.000  
J 4  36742600.888 5 193083669.14625      -376.240          34.000  
> 2024 11 28 10  4  5.9970000  0 16                     
G 2  21626230.359 6 113646623.304 6      3068.498          39.000  
G10  24500969.562 4 128753466.64824      1590.547          29.000  
G16  21632517.376 5 113679616.808 5     -2675.724          30.000  
G21  20020176.745 7 105206742.278 7      2383.679          46.000  
G23  24495783.270 3               3       249.569          19.000  
G26  24064827.737 6 126461515.733 6     -3169.531          38.000  
G27  20155183.198 6 105916185.510 6     -2610.386          40.000  
R14  20683174.338 5 110252844.819 5     -3026.619          33.000  
R17  18244712.831 5  97631105.190 5      -908.885          31.000  
R24  21477040.854 6 114847377.627 6     -4134.562          39.000  
E 5  25922857.424 5 136225497.814 5     -2900.546          33.000  
E10  23720106.789 6 124649995.546 6      -503.198          38.000  
E12  25143596.575 6 132130466.854 6     -1743.042          36.000  
J 2  38003009.367 5 199707159.85025        48.505          32.000  
J 3  36403819.342 7 191303360.01627      -463.940          43.000  
J 4  36742672.521 5 193084045.10525      -376.373          34.000  
> 2024 11 28 10  4  6.9970000  0 16                     
G 2  21625646.230 6 113643554.873 6      3067.928          39.000  
G10  24500668.371 4 128751875.97124      1589.358          29.000  
G16  21633027.707 5 113682292.511 5     -2675.874          31.000  
G21  20019723.266 7 105204358.726 7      2383.240          46.000  
G23  24495732.787 3               3       247.971          20.000  
G26  24065431.061 6 126464685.633 6     -3169.794          38.000  
G27  20155679.832 6 105918795.898 6     -2611.245          40.000  
R14  20683741.592 5 110255871.460 5     -3026.952          33.000  
R17  18244883.546 5  97632014.687 5      -909.868          30.000  
R24  21477814.038 6 114851512.422 6     -4135.289          39.000  
E 5  25923409.724 5 136228398.340 5     -2900.513          33.000  
E10  23720202.259 6 124650498.672 6      -503.663          38.000  
E12  25143928.321 6 132132209.967 6     -1743.379          36.000  
J 2  38002999.839 5 199707111.01225        48.291          32.000  
J 3  36403907.657 7 191303823.92527      -464.171          43.000  
J 4  36742744.207 5 193084420.98725      -375.978          34.000  
> 2024 11 28 10  4  7.9970000  0 16                     
G 2  21625062.207 6 113640486.806 6      3068.221          39.000  
G10  24500364.650 5 128750285.56125      1590.392          30.000  
G16  21633532.734 5 113684968.471 5     -2676.497          30.000  
G21  20019270.241 7 105201975.798 7      2383.002          47.000  
G23  24495683.734 3               3       251.390          21.000  
G26  24066034.175 6 126467855.706 6     -3170.204          38.000  
G27  20156176.639 6 105921406.560 6     -2610.394          40.000  
R14  20684310.295 5 110258898.669 5     -3027.417          33.000  
R17  18245056.199 5  97632925.094 5      -910.403          30.000  
R24  21478587.187 6 114855647.493 6     -4134.756          39.000  
E 5  25923961.360 5 136231298.755 5     -2900.027          34.000  
E10  23720298.201 6 124651002.372 6      -503.899          38.000  
E12  25144260.084 6 132133953.568 6     -1743.613          36.000  
J 2  38002990.625 5 199707061.64015        49.280          32.000  
J 3  36403996.147 7 191304287.44917      -463.706          43.000  
J 4  36742815.752 5 193084796.901 5      -375.330          34.000  
> 2024 11 28 10  4  8.9970000  0 16                     
G 2  21624478.061 6 113637418.053 6      3069.236          39.000  
G10  24500062.098 5 128748694.50825      1590.820          30.000  
G16  21634043.869 5 113687643.579 5     -2674.418          31.000  
G21  20018816.936 7 105199592.436 7      2383.759          47.000  
G23  24495634.856 3               3       251.814          21.000  
G26  24066637.185 6 126471024.865 6     -3168.667          38.000  
G27  20156673.238 6 105924016.530 6     -2608.974          40.000  
R14  20684878.474 5 110261925.282 5     -3026.201          32.000  
R17  18245225.274 4  97633835.242 4      -909.191          29.000  
R24  21479360.599 6 114859781.839 6     -4134.036          37.000  
E 5  25924513.223 5 136234198.053 5     -2899.040          34.000  
E10  23720393.828 6 124651505.546 6      -502.646          38.000  
E12  25144591.761 5 132135696.606 5     -1742.530          35.000  
J 2  38002981.202 5 199707011.748 5        50.079          32.000  
J 3  36404084.114 7 191304750.579 7      -462.399          43.000  
J 4  36742887.002 5 193085171.782 5      -373.721          34.000  
> 2024 11 28 10  4  9.9970000  0 16                     
G 2  21623894.351 6 113634349.152 6      3068.073          38.000  
G10  24499763.106 4 128747103.20324      1590.615          29.000  
G16  21634554.340 5 113690318.456 5     -2675.927          30.000  
G21  20018363.597 7 105197209.185 7      2382.300          46.000  
G23  24495586.170 3               3       251.312          20.000  
G26  24067240.317 6 126474193.682 6     -3169.668          37.000  
G27  20157169.906 6 105926626.361 6     -2610.772          39.000  
R14  20685442.867 5 110264951.894 5     -3027.437          33.000  
R17  18245393.162 5  97634745.774 5      -911.485          30.000  
R24  21480133.957 6 114863916.014 6     -4135.113          39.000  
E 5  25925064.842 5 136237096.739 5     -2899.675          33.000  
E10  23720489.385 6 124652008.816 6      -504.282          37.000  
E12  25144923.193 5 132137439.620 5     -1743.912          35.000  
J 2  38002971.448 5 199706961.294 5        50.037          31.000  
J 3  36404172.133 7 191305213.341 7      -463.552          42.000  
J 4  36742958.268 5 193085546.195 5      -375.556          33.000  
> 2024 11 28 10  4 10.9970000  0 16                     
G 2  21623310.589 6 113631281.437 6      3067.624          38.000  
G10  24499458.583 5 128745513.12125      1590.012          30.000  
G16  21635072.873 5 113692994.350 5     -2675.947          31.000  
G21  20017910.485 7 105194827.362 7      2381.537          46.000  
G23  24495538.042 3               3       254.640          20.000  
G26  24067843.518 6 126477363.451 6     -3169.976          37.000  
G27  20157666.417 6 105929237.290 6     -2610.672          40.000  
R14  20686007.695 5 110267979.766 5     -3027.667          32.000  
R17  18245567.473 5  97635658.107 5      -912.612          30.000  
R24  21480907.299 6 114868051.407 6     -4135.532          38.000  
E 5  25925616.321 5 136239996.085 5     -2899.273          33.000  
E10  23720585.187 6 124652513.453 6      -504.992          37.000  
E12  25145255.340 5 132139183.939 5     -1744.759          35.000  
J 2  38002961.850 5 199706911.671 5        49.261          32.000  
J 3  36404260.134 7 191305677.051 7      -463.824          43.000  
J 4  36743030.163 5 193085921.418 5      -374.943          33.000  
> 2024 11 28 10  4 11.9970000  0 16                     
G 2  21622727.176 6 113628213.921 6      3066.735          39.000  
G10  24499157.671 5 128743923.19525      1588.976          30.000  
G16  21635580.552 5 113695670.368 5     -2676.969          32.000  
G21  20017457.303 7 105192445.993 7      2380.634          46.000  
G23  24495490.665 3               3       246.548          20.000  
G26  24068446.668 6 126480533.210 6     -3170.405          37.000  
G27  20158163.416 6 105931848.421 6     -2612.160          40.000  
R14  20686572.803 5 110271007.955 5     -3028.053          33.000  
R17  18245739.479 5  97636571.162 5      -913.134          31.000  
R24  21481680.413 6 114872186.966 6     -4136.333          40.000  
E 5  25926168.150 5 136242895.219 5     -2899.647          33.000  
E10  23720680.919 6 124653018.480 6      -505.960          37.000  
E12  25145587.331 5 132140928.573 5     -1745.436          35.000  
J 2  38002952.217 5 199706861.889 5        49.298          32.000  
J 3  36404348.520 7 191306140.741 7      -464.439          43.000  
J 4  36743101.290 5 193086296.510 5      -375.552          33.000  
> 2024 11 28 10  4 12.9970000  0 16                     
G 2  21622143.727 6 113625147.338 6      3066.167          39.000  
G10  24498849.902 5 128742334.12225      1588.032          30.000  
G16  21636090.709 5 113698347.158 5     -2676.617          32.000  
G21  20017004.522 7 105190065.817 7      2379.730          46.000  
G23  24495442.398 3               3       241.502          20.000  
G26  24069050.149 6 126483703.678 6     -3170.758          37.000  
G27  20158660.503 6 105934460.427 6     -2612.399          40.000  
R14  20687139.918 5 110274037.225 5     -3029.151          32.000  
R17  18245908.869 5  97637485.695 5      -915.381          31.000  
R24  21482453.807 6 114876323.395 6     -4136.752          40.000  
E 5  25926720.082 5 136245794.817 5     -2899.627          33.000  
E10  23720776.790 6 124653524.635 6      -506.629          37.000  
E12  25145919.391 5 132142674.253 5     -1746.611          35.000  
J 2  38002942.812 5 199706812.10235        49.536          32.000  
J 3  36404436.835 7 191306606.62037      -464.732          43.000  
J 4  36743172.854 5 193086676.16235      -375.681          33.000  
> 2024 11 28 10  4 13.9970000  0 16                     
G 2  21621560.332 6 113622081.351 6      3066.191          39.000  
G10  24498552.183 5 128740745.63025      1588.689          30.000  
G16  21636600.378 5 113701024.477 5     -2677.615          32.000  
G21  20016551.846 7 105187686.483 7      2379.474          47.000  
G23  24495392.298 3               3       243.553          19.000  
G26  24069653.612 6 126486874.551 6     -3170.645          37.000  
G27  20159157.171 6 105937072.992 6     -2612.599          40.000  
R14  20687711.412 5 110277067.204 5     -3030.323          33.000  
R17  18246078.205 5  97638401.360 5      -915.562          30.000  
R24  21483227.584 6 114880460.377 6     -4137.205          40.000  
E 5  25927272.347 5 136248694.540 5     -2899.127          33.000  
E10  23720873.517 6 124654031.579 6      -506.654          37.000  
E12  25146252.097 5 132144420.627 5     -1746.401          35.000  
J 2  38002933.057 5 199706763.10825        49.072          32.000  
J 3  36404525.168 7 191307071.37027      -464.464          43.000  
J 4  36743244.417 5 193087052.05925      -375.400          33.000  
> 2024 11 28 10  4 14.9970000  0 16                     
G 2  21620976.901 6 113619014.525 6      3067.330          39.000  
G10  24498248.776 4 128739156.30224      1589.398          29.000  
G16  21637114.653 5 113703700.770 5     -2675.164          33.000  
G21  20016098.855 7 105185306.578 7      2380.231          47.000  
G23  24495342.652 3               3       248.164          18.000  
G26  24070256.901 6 126490044.371 6     -3169.284          37.000  
G27  20159654.049 6 105939684.694 6     -2611.340          39.000  
R14  20688281.755 5 110280096.371 5     -3028.492          31.000  
R17  18246246.757 4  97639316.612 4      -914.757          29.000  
R24  21484001.152 6 114884596.464 6     -4135.522          38.000  
E 5  25927824.280 5 136251592.982 5     -2897.745          30.000  
E10  23720969.929 6 124654537.892 6      -505.832          38.000  
E12  25146584.453 5 132146166.279 5     -1744.878          35.000  
J 2  38002925.030 5 199706712.86925        50.842          33.000  
J 3  36404613.763 7 191307535.07327      -463.168          43.000  
J 4  36743315.614 5 193087426.75725      -373.676          33.000  
> 2024 11 28 10  4 15.9970000  0 16                     
G 2  21620393.436 6 113615947.460 6      3066.515          40.000  
G10  24497942.769 5 128737566.64925      1589.008          31.000  
G16  21637627.498 5 113706376.813 5     -2676.992          34.000  
G21  20015646.075 8 105182926.693 8      2378.888          48.000  
G23  24495295.624 3               3       252.572          20.000  
G26  24070859.946 6 126493213.768 6     -3170.096          38.000  
G27  20160150.892 6 105942296.109 6     -2612.074          41.000  
R14  20688849.533 5 110283125.467 5     -3030.401          31.000  
R17  18246415.344 5  97640232.211 5      -916.355          30.000  
R24  21484774.755 6 114888732.366 6     -4137.066          40.000  
E 5  25928375.637 5 136254490.734 5     -2898.402          35.000  
E10  23721065.906 6 124655044.169 6      -507.025          39.000  
E12  25146916.339 6 132147911.844 6     -1746.254          36.000  
J 2  38002915.450 5 199706662.02525        50.568          33.000  
J 3  36404701.782 7 191307998.31027      -463.883          44.000  
J 4  36743386.340 5 193087800.95025      -375.187          35.000  
> 2024 11 28 10  4 16.9970000  0 16                     
G 2  21619810.110 6 113612882.025 6      3065.041          39.000  
G10  24497639.345 5 128735978.57325      1587.901          31.000  
G16  21638135.264 5 113709054.228 5     -2677.415          33.000  
G21  20015193.852 7 105180548.636 7      2377.594          47.000  
G23  24495248.840 3               3       242.645          21.000  
G26  24071463.339 6 126496384.520 6     -3170.791          37.000  
G27  20160647.944 6 105944909.105 6     -2613.065          39.000  
R14  20689417.904 5 110286156.162 5     -3030.202          31.000  
R17  18246586.984 5  97641150.000 5      -918.494          31.000  
R24  21485548.725 6 114892869.852 6     -4138.065          40.000  
E 5  25928927.343 5 136257389.604 5     -2898.914          34.000  
E10  23721161.847 6 124655552.236 6      -508.497          37.000  
E12  25147246.567 6 132149659.130 6     -1747.634          36.000  
J 2  38002906.969 5 199706612.40125        49.194          32.000  
J 3  36404790.254 7 191308462.92327      -464.985          43.000  
J 4  36743455.198 5 193088176.29525      -375.099          34.000  
> 2024 11 28 10  4 17.9970000  0 16                     
G 2  21619226.784 6 113609816.430 6      3065.226          39.000  
G10  24497340.562 5 128734390.27325      1589.289          30.000  
G16  21638640.622 5 113711731.432 5     -2676.606          32.000  
G21  20014741.159 7 105178170.702 7      2377.905          47.000  
G23  24495202.597 3               3       243.314          21.000  
G26  24072066.820 6 126499554.946 6     -3170.110          37.000  
G27  20161145.170 6 105947521.926 6     -2612.652          39.000  
R14  20689986.188 5 110289186.930 5     -3030.636          30.000  
R17  18246754.576 5  97642068.115 5      -917.812          31.000  
R24  21486322.590 6 114897007.115 6     -4137.106          40.000  
E 5  25929479.067 5 136260287.878 5     -2897.689          33.000  
E10  23721258.696 6 124656060.376 6      -508.398          37.000  
E12  25147582.623 5 132151406.379 5     -1747.280          35.000  
J 2  38002896.150 5 199706562.25825        49.878          32.000  
J 3  36404878.500 7 191308927.16227      -464.161          43.000  
J 4  36743527.477 5 193088551.22525      -374.809          33.000  
> 2024 11 28 10  4 18.9970000  0 16                     
G 2  21618643.476 6 113606751.306 6      3064.391          38.000  
G10  24497038.656 4 128732802.514 4      1587.376          29.000  
G16  21639146.242 5 113714409.009 5     -2678.182          32.000  
G21  20014289.024 7 105175793.497 7      2376.288          47.000  
G23  24495157.052 3               3       241.512          21.000  
G26  24072670.406 6 126502725.628 6     -3171.503          37.000  
G27  20161642.292 6 105950135.169 6     -2613.658          39.000  
R14  20690549.184 5 110292218.301 5     -3032.401          30.000  
R17  18246930.561 5  97642987.290 5      -919.026          31.000  
R24  21487096.524 6 114901144.812 6     -4138.379          40.000  
E 5  25930030.738 5 136263186.178 5     -2898.887          33.000  
E10  23721355.335 6 124656569.160 6      -509.474          37.000  
E12  25147914.422 5 132153154.233 5     -1748.601          35.000  
J 2  38002886.378 5 199706512.21225        49.426          31.000  
J 3  36404967.165 7 191309391.64427      -465.312          43.000  
J 4  36743601.989 5 193088926.23825      -375.408          33.000  
> 2024 11 28 10  4 19.9970000  0 16                     
G 2  21618060.062 6 113603687.464 6      3063.456          38.000  
G10  24496734.412 4 128731215.936 4      1586.551          28.000  
G16  21639656.452 5 113717087.748 5     -2679.154          32.000  
G21  20013836.836 7 105173417.815 7      2375.244          47.000  
G23  24495115.346 3               3       241.350          21.000  
G26  24073274.183 6 126505897.383 6     -3172.085          37.000  
G27  20162139.588 6 105952749.685 6     -2614.785          39.000  
R14  20691114.048 5 110295251.062 5     -3032.406          30.000  
R17  18247105.831 5  97643908.303 5      -920.546          31.000  
R24  21487870.564 6 114905283.772 6     -4139.072          40.000  
E 5  25930582.531 5 136266085.272 5     -2899.265          33.000  
E10  23721452.759 6 124657079.448 6      -510.728          37.000  
E12  25148246.360 5 132154903.483 5     -1749.597          35.000  
J 2  38002875.279 5 199706462.56015        48.889          32.000  
J 3  36405055.952 7 191309856.68017      -465.602          43.000  
J 4  36743673.989 5 193089302.181 5      -375.726          33.000  
> 2024 11 28 10  4 20.9970000  0 16                     
G 2  21617477.190 6 113600624.089 6      3063.365          37.000  
G10  24496429.190 4 128729629.901 4      1586.050          27.000  
G16  21640165.597 5 113719766.788 5     -2679.094          31.000  
G21  20013384.439 7 105171042.863 7      2374.725          46.000  
G23  24495072.750 3               3       239.879          21.000  
G26  24073877.594 6 126509069.387 6     -3171.844          36.000  
G27  20162636.972 6 105955364.637 6     -2615.037          39.000  
R14  20691683.239 5 110298284.422 5     -3031.990          30.000  
R17  18247277.960 5  97644830.369 5      -922.707          31.000  
R24  21488644.708 6 114909423.203 6     -4139.472          40.000  
E 5  25931133.871 5 136268984.381 5     -2898.568          32.000  
E10  23721550.411 6 124657590.377 6      -511.102          37.000  
E12  25148581.317 5 132156653.333 5     -1750.235          35.000  
J 2  38002867.776 5 199706413.528 5        49.365          31.000  
J 3  36405144.581 7 191310322.471 7      -465.919          42.000  
J 4  36743744.209 5 193089678.321 5      -376.499          32.000  
> 2024 11 28 10  4 21.9970000  0 17                     
G 2  21616894.056 6 113597560.950 6      3062.953          37.000  
G10  24496127.703 4 128728043.927 4      1586.083          27.000  
G16  21640673.189 5 113722445.954 5     -2678.687          31.000  
G21  20012932.426 7 105168668.389 7      2374.310          46.000  
G23  24495030.084 3               3       241.511          22.000  
G26  24074481.232 6 126512241.422 6     -3172.080          37.000  
G27  20163134.512 6 105957979.771 6     -2615.221          39.000  
R14  20692253.111 5 110301318.219 5     -3034.053          31.000  
R15  18392750.820 4               4        52.200          29.000  
R17  18247451.730 5  97645753.161 5      -923.482          30.000  
R24  21489418.747 6 114913562.819 6     -4139.681          40.000  
E 5  25931685.420 5 136271883.273 5     -2898.447          32.000  
E10  23721647.748 6 124658101.747 6      -511.351          37.000  
E12  25148914.023 5 132158403.517 5     -1750.922          35.000  
J 2  38002858.719 5 199706364.339 5        49.353          31.000  
J 3  36405233.490 7 191310788.258 7      -465.836          42.000  
J 4  36743815.912 5 193090054.274 5      -375.918          33.000  
> 2024 11 28 10  4 22.9970000  0 17                     
G 2  21616311.010 6 113594497.966 6      3062.850          37.000  
G10  24495826.459 4 128726458.107 4      1586.222          26.000  
G16  21641179.210 5 113725125.201 5     -2679.436          30.000  
G21  20012480.378 7 105166294.335 7      2373.859          46.000  
G23  24494988.029 3               3       246.337          23.000  
G26  24075085.027 6 126515413.395 6     -3171.884          37.000  
G27  20163632.053 6 105960595.045 6     -2615.419          39.000  
R14  20692821.028 5 110304352.168 5     -3033.580          30.000  
R15  18392744.381 4  98285176.88724        52.750          29.000  
R17  18247625.638 5  97646676.594 5      -922.807          30.000  
R24  21490193.415 6 114917702.589 6     -4139.973          40.000  
E 5  25932237.562 5 136274781.849 5     -2898.062          32.000  
E10  23721745.557 6 124658613.470 6      -511.796          37.000  
E12  25149246.606 5 132160153.975 5     -1750.625          34.000  
J 2  38002849.244 5 199706314.952 5        49.121          31.000  
J 3  36405321.998 7 191311253.975 7      -465.729          42.000  
J 4  36743887.213 5 193090430.060 5      -375.682          33.000  
> 2024 11 28 10  4 23.9970000  0 17                     
G 2  21615727.858 6 113591435.073 6      3063.016          37.000  
G10  24495523.890 4               4      1585.105          25.000  
G16  21641685.511 5 113727804.396 5     -2678.764          30.000  
G21  20012028.261 7 105163920.625 7      2373.743          46.000  
G23  24494945.485 4               4       241.738          24.000  
G26  24075688.595 6 126518585.266 6     -3171.595          37.000  
G27  20164129.559 6 105963210.359 6     -2615.472          39.000  
R14  20693392.540 5 110307386.379 5     -3034.471          31.000  
R15  18392734.626 4  98285124.26724        52.427          29.000  
R17  18247802.496 5  97647600.726 5      -923.956          31.000  
R24  21490967.925 6 114921842.405 6     -4139.860          41.000  
E 5  25932789.390 5 136277680.093 5     -2897.840          32.000  
E10  23721843.208 6 124659125.507 6      -512.147          37.000  
E12  25149579.522 5 132161904.644 5     -1750.638          34.000  
J 2  38002839.367 5 199706265.241 5        50.226          31.000  
J 3  36405410.645 7 191311719.562 7      -465.350          42.000  
J 4  36743958.585 5 193090805.594 5      -375.212          33.000  
> 2024 11 28 10  4 24.9970000  0 17                     
G 2  21615144.812 6 113588372.242 6      3062.743          37.000  
G10  24495220.797 4               4      1585.550          24.000  
G16  21642195.616 5 113730483.588 5     -2679.486          30.000  
G21  20011576.579 7 105161547.231 7      2373.242          46.000  
G23  24494902.540 4               4       235.480          24.000  
G26  24076292.268 6 126521756.981 6     -3171.825          37.000  
G27  20164627.309 6 105965825.686 6     -2615.221          39.000  
R14  20693954.664 5 110310420.673 5     -3034.760          30.000  
R15  18392719.846 4  98285071.87724        52.497          29.000  
R17  18247979.354 5  97648525.412 5      -924.790          31.000  
R24  21491742.924 6 114925982.228 6     -4139.785          41.000  
E 5  25933340.660 5 136280577.895 5     -2897.476          32.000  
E10  23721940.999 6 124659637.754 6      -512.147          37.000  
E12  25149912.786 5 132163655.513 5     -1751.066          35.000  
J 2  38002829.926 5 199706218.76935        50.104          31.000  
J 3  36405499.292 7 191312189.47837      -465.223          42.000  
J 4  36744029.921 5 193091179.79835      -374.780          33.000  
> 2024 11 28 10  4 25.9970000  0 17                     
G 2  21614561.992 6 113585309.126 6      3063.202          38.000  
G10  24494916.849 3               3      1588.782          22.000  
G16  21642707.361 5 113733162.283 5     -2678.255          30.000  
G21  20011124.741 7 105159173.836 7      2373.444          46.000  
G23  24494858.845 4               4       246.433          25.000  
G26  24076895.644 6 126524928.210 6     -3170.958          37.000  
G27  20165124.954 6 105968440.723 6     -2614.881          40.000  
R14  20694529.212 5 110313454.768 5     -3034.034          30.000  
R15  18392710.423 4  98285019.52124        52.187          29.000  
R17  18248152.216 5  97649450.307 5      -924.823          31.000  
R24  21492517.574 6 114930121.765 6     -4139.414          41.000  
E 5  25933892.209 5 136283474.953 5     -2896.610          33.000  
E10  23722038.319 6 124660149.951 6      -511.986          37.000  
E12  25150245.910 5 132165406.199 5     -1750.194          35.000  
J 2  38002820.294 5 199706168.10625        50.885          32.000  
J 3  36405587.747 7 191312654.39427      -464.648          43.000  
J 4  36744101.275 5 193091554.44025      -374.471          33.000  
> 2024 11 28 10  4 26.9970000  0 17                     
G 2  21613979.207 6 113582246.008 6      3062.583          38.000  
G10  24494610.877 3               3      1586.815          22.000  
G16  21643215.371 5 113735840.851 5     -2678.070          30.000  
G21  20010673.199 7 105156800.640 7      2372.827          46.000  
G23  24494817.261 4               4       241.239          25.000  
G26  24077499.143 6 126528099.173 6     -3171.020          37.000  
G27  20165622.599 6 105971055.670 6     -2615.083          40.000  
R14  20695101.056 5 110316488.959 5     -3035.044          30.000  
R15  18392705.763 5  98284967.26425        52.700          30.000  
R17  18248318.115 5  97650375.652 5      -925.094          31.000  
R24  21493291.893 6 114934261.226 6     -4139.727          41.000  
E 5  25934443.671 5 136286371.544 5     -2896.878          33.000  
E10  23722136.110 6 124660662.303 6      -512.573          37.000  
E12  25150578.895 5 132167156.996 5     -1751.264          35.000  
J 2  38002810.731 5 199706117.02225        50.787          32.000  
J 3  36405676.307 7 191313119.04227      -464.810          43.000  
J 4  36744172.681 5 193091928.66125      -374.501          34.000  
> 2024 11 28 10  4 27.9970000  0 17                     
G 2  21613396.666 6 113579183.109 6      3062.583          38.000  
G10  24494307.750 3               3      1589.293          22.000  
G16  21643722.335 5 113738519.598 5     -2678.488          30.000  
G21  20010221.605 7 105154427.961 7      2372.375          46.000  
G23  24494772.554 4               4       242.319          26.000  
G26  24078102.763 6 126531270.195 6     -3171.092          37.000  
G27  20166120.506 6 105973670.858 6     -2615.573          40.000  
R14  20695675.255 5 110319523.515 5     -3035.330          30.000  
R15  18392712.098 5  98284915.59925        52.031          31.000  
R17  18248488.779 5  97651301.954 5      -927.698          31.000  
R24  21494066.124 6 114938400.876 6     -4139.869          41.000  
E 5  25934995.115 5 136289267.915 5     -2896.384          33.000  
E10  23722233.796 6 124661175.111 6      -513.042          37.000  
E12  25150912.334 5 132168908.141 5     -1751.528          35.000  
J 2  38002801.011 5 199706065.84525        51.270          32.000  
J 3  36405764.849 7 191313583.72927      -464.797          43.000  
J 4  36744243.774 5 193092302.77825      -374.312          34.000  
> 2024 11 28 10  4 28.9970000  0 17                     
G 2  21612813.794 6 113576120.618 6      3061.778          38.000  
G10  24494007.466 3               3      1587.053          22.000  
G16  21644239.036 5 113741198.570 5     -2679.464          31.000  
G21  20009770.342 7 105152055.905 7      2371.613          46.000  
G23  24494730.010 4               4       240.306          25.000  
G26  24078706.454 6 126534441.396 6     -3171.707          37.000  
G27  20166618.378 6 105976286.384 6     -2615.929          40.000  
R14  20696242.178 5 110322558.627 5     -3036.772          30.000  
R15  18392713.023 5  98284864.11515        50.202          31.000  
R17  18248662.094 5  97652229.078 5      -928.021          32.000  
R24  21494840.896 6 114942540.867 6     -4140.359          40.000  
E 5  25935546.193 5 136292164.217 5     -2897.101          33.000  
E10  23722331.849 6 124661688.485 6      -513.751          37.000  
E12  25151245.476 5 132170659.811 5     -1752.140          35.000  
J 2  38002791.414 5 199706014.63125        50.903          32.000  
J 3  36405853.322 7 191314048.55627      -465.058          43.000  
J 4  36744314.848 5 193092676.92725      -373.971          33.000  
> 2024 11 28 10  4 29.9970000  0 17                     
G 2  21612231.306 6 113573058.696 6      3061.974          38.000  
G10  24493705.385 3               3      1597.078          22.000  
G16  21644753.713 5 113743878.006 5     -2680.061          31.000  
G21  20009319.551 7 105149684.684 7      2371.033          46.000  
G23  24494683.121 4               4       239.019          26.000  
G26  24079310.266 6 126537612.940 6     -3171.511          37.000  
G27  20167116.198 6 105978902.429 6     -2615.885          40.000  
R14  20696815.313 5 110325594.346 5     -3037.411          30.000  
R15  18392711.644 5  98284813.898 5        50.203          32.000  
R17  18248839.668 5  97653157.319 5      -928.495          32.000  
R24  21495614.953 6 114946681.423 6     -4140.849          40.000  
E 5  25936097.149 5 136295060.595 5     -2896.632          33.000  
E10  23722429.605 6 124662202.638 6      -514.479          37.000  
E12  25151579.194 5 132172412.175 5     -1752.837          35.000  
J 2  38002781.659 5 199705963.67325        51.007          32.000  
J 3  36405941.707 7 191314513.75127      -465.300          43.000  
J 4  36744385.958 5 193093051.33425      -374.456          33.000  
> 2024 11 28 10  4 30.9970000  0 17                     
G 2  21611648.870 6 113569997.079 6      3061.379          38.000  
G10  24493404.195 3               3      1582.579          23.000  
G16  21645259.682 5 113746557.651 5     -2679.835          30.000  
G21  20008868.724 7 105147314.021 7      2370.166          47.000  
G23  24494637.227 4               4       237.203          26.000  
G26  24079913.642 6 126540784.593 6     -3172.092          37.000  
G27  20167614.315 6 105981518.759 6     -2616.648          39.000  
R14  20697390.699 5 110328630.467 5     -3036.499          31.000  
R15  18392695.346 5  98284764.266 5        49.018          32.000  
R17  18249016.525 5  97654086.377 5      -929.734          32.000  
R24  21496389.132 6 114950822.306 6     -4141.392          39.000  
E 5  25936648.454 5 136297956.825 5     -2896.219          33.000  
E10  23722527.588 6 124662717.280 6      -514.978          36.000  
E12  25151912.354 5 132174164.952 5     -1753.296          35.000  
J 2  38002771.782 5 199705912.58425        51.306          32.000  
J 3  36406030.337 7 191314978.99827      -465.317          43.000  
J 4  36744457.225 5 193093425.70125      -375.137          33.000  
> 2024 11 28 10  4 31.9970000  0 17                     
G 2  21611066.940 6 113566935.650 6      3061.195          39.000  
G10  24493106.738 3               3      1587.450          23.000  
G16  21645767.937 5 113749237.280 5     -2679.027          30.000  
G21  20008417.845 7 105144943.780 7      2370.007          47.000  
G23  24494591.298 4               4       237.960          26.000  
G26  24080517.071 6 126543956.181 6     -3171.258          37.000  
G27  20168112.030 6 105984135.206 6     -2616.228          39.000  
R14  20697962.944 5 110331666.865 5     -3036.154          31.000  
R15  18392688.173 5  98284715.024 5        49.415          33.000  
R17  18249188.934 5  97655016.131 5      -929.841          32.000  
R24  21497163.468 6 114954963.306 6     -4141.055          40.000  
E 5  25937199.322 5 136300852.763 5     -2895.501          33.000  
E10  23722625.536 6 124663232.300 6      -515.206          37.000  
E12  25152245.775 5 132175917.991 5     -1752.960          35.000  
J 2  38002761.975 5 199705860.86615        50.861          32.000  
J 3  36406118.530 7 191315443.70217      -464.886          43.000  
J 4  36744528.683 5 193093799.849 5      -374.193          33.000  
> 2024 11 28 10  4 32.9970000  0 17                     
G 2  21610484.522 6 113563874.306 6      3060.973          39.000  
G10  24492809.526 4               4      1583.166          25.000  
G16  21646280.380 5 113751916.895 5     -2679.398          30.000  
G21  20007966.949 7 105142573.868 7      2369.623          47.000  
G23  24494544.008 4               4       237.014          25.000  
G26  24081120.674 6 126547127.689 6     -3171.952          37.000  
G27  20168609.989 6 105986751.734 6     -2616.714          39.000  
R14  20698530.198 5 110334703.488 5     -3036.387          30.000  
R15  18392679.099 5  98284666.173 5        47.700          33.000  
R17  18249362.790 5  97655946.582 5      -931.790          32.000  
R24  21497937.996 6 114959104.305 6     -4140.914          40.000  
E 5  25937750.505 5 136303748.346 5     -2895.475          33.000  
E10  23722723.589 6 124663747.613 6      -515.624          37.000  
E12  25152579.144 5 132177671.230 5     -1753.207          35.000  
J 2  38002752.186 5 199705809.270 5        51.874          32.000  
J 3  36406206.985 7 191315908.777 7      -465.086          43.000  
J 4  36744599.775 5 193094173.716 5      -373.678          33.000  
> 2024 11 28 10  4 33.9970000  0 17                     
G 2  21609902.208 6 113560813.022 6      3061.160          39.000  
G10  24492511.878 4               4      1584.562          27.000  
G16  21646789.892 5 113754596.489 5     -2679.834          30.000  
G21  20007515.896 7 105140204.281 7      2369.379          47.000  
G23  24494496.683 4               4       237.654          25.000  
G26  24081724.224 6 126550299.001 6     -3170.905          37.000  
G27  20169107.931 6 105989368.268 6     -2616.788          40.000  
R14  20699097.365 5 110337740.365 5     -3037.166          30.000  
R15  18392671.369 5  98284617.566 5        48.621          33.000  
R17  18249536.350 5  97656877.576 5      -931.571          32.000  
R24  21498712.279 6 114963245.341 6     -4141.032          40.000  
E 5  25938301.338 5 136306643.529 5     -2895.298          33.000  
E10  23722821.694 6 124664263.155 6      -515.554          37.000  
E12  25152912.775 5 132179424.678 5     -1753.449          35.000  
J 2  38002742.536 5 199705757.392 5        51.886          32.000  
J 3  36406295.353 7 191316373.677 7      -464.745          43.000  
J 4  36744671.182 5 193094547.319 5      -372.944          34.000  
> 2024 11 28 10  4 34.9970000  0 17                     
G 2  21609319.754 6 113557751.780 6      3061.257          39.000  
G10  24492217.388 4 128707433.77334      1584.463          27.000  
G16  21647299.595 5 113757275.978 5     -2679.713          31.000  
G21  20007064.843 7 105137835.007 7      2369.037          46.000  
G23  24494448.224 4               4       236.794          24.000  
G26  24082327.548 6 126553470.196 6     -3171.121          37.000  
G27  20169605.995 6 105991984.829 6     -2616.939          40.000  
R14  20699667.255 5 110340777.309 5     -3037.070          30.000  
R15  18392662.347 5  98284569.292 5        48.291          33.000  
R17  18249710.573 5  97657809.126 5      -932.076          32.000  
R24  21499486.266 6 114967386.397 6     -4141.325          40.000  
E 5  25938852.311 5 136309538.291 5     -2894.941          33.000  
E10  23722919.450 6 124664778.978 6      -516.112          37.000  
E12  25153246.493 5 132181178.300 5     -1754.053          35.000  
J 2  38002732.432 5 199705705.197 5        52.545          32.000  
J 3  36406383.878 7 191316838.396 7      -464.636          43.000  
J 4  36744742.152 5 193094920.698 5      -373.627          34.000  
> 2024 11 28 10  4 35.9970000  0 17                     
G 2  21608737.702 6 113554690.779 6      3061.114          39.000  
G10  24491923.073 4 128705849.54324      1584.429          27.000  
G16  21647810.625 5 113759955.604 5     -2679.851          32.000  
G21  20006613.929 7 105135466.195 7      2368.878          46.000  
G23  24494401.981 3               3       237.637          22.000  
G26  24082931.116 6 126556641.379 6     -3171.177          37.000  
G27  20170103.937 6 105994601.575 6     -2616.742          40.000  
R14  20700238.540 5 110343814.589 5     -3037.632          30.000  
R15  18392653.866 5  98284521.505 5        47.514          34.000  
R17  18249884.552 5  97658741.428 5      -932.229          32.000  
R24  21500260.550 6 114971527.654 6     -4141.168          40.000  
E 5  25939403.145 5 136312432.798 5     -2893.898          33.000  
E10  23723017.957 6 124665295.205 6      -516.027          37.000  
E12  25153580.141 5 132182932.239 5     -1754.001          35.000  
J 2  38002722.241 5 199705652.861 5        52.588          31.000  
J 3  36406472.386 7 191317303.130 7      -464.717          43.000  
J 4  36744813.069 5 193095293.862 5      -372.775          34.000  
> 2024 11 28 10  4 36.9970000  0 17                     
G 2  21608155.406 6 113551629.486 6      3061.212          39.000  
G10  24491624.447 4 128704264.97024      1583.845          26.000  
G16  21648323.643 5 113762634.763 5     -2679.509          32.000  
G21  20006162.981 7 105133097.336 7      2368.732          46.000  
G23  24494354.115 3               3       242.864          21.000  
G26  24083534.684 6 126559812.087 6     -3171.159          37.000  
G27  20170601.740 6 105997217.959 6     -2616.504          40.000  
R14  20700799.582 4 110346851.669 4     -3037.331          29.000  
R15  18392644.967 5  98284473.650 5        47.140          33.000  
R17  18250057.920 5  97659673.962 5      -932.497          30.000  
R24  21501034.799 6 114975668.584 6     -4140.726          38.000  
E 5  25939954.153 5 136315326.571 5     -2894.107          33.000  
E10  23723116.306 6 124665811.338 6      -516.396          37.000  
E12  25153913.754 5 132184686.033 5     -1754.216          35.000  
J 2  38002715.139 5 199705615.33635        53.381          32.000  
J 3  36406561.033 7 191317768.81037      -464.022          43.000  
J 4  36744884.022 5 193095668.39235      -372.058          34.000  
> 2024 11 28 10  4 37.9970000  0 17                     
G 2  21607572.726 6 113548568.473 6      3060.933          39.000  
G10  24491327.025 4 128702680.61124      1584.215          25.000  
G16  21648827.885 5 113765314.093 5     -2679.183          32.000  
G21  20005712.102 7 105130729.015 7      2368.427          46.000  
G23  24494305.394 3               3       239.092          20.000  
G26  24084138.043 6 126562982.802 6     -3170.501          36.000  
G27  20171099.559 6 105999834.626 6     -2616.491          40.000  
R14  20701359.978 4 110349889.174 4     -3037.500          29.000  
R15  18392636.154 5  98284426.276 5        47.336          33.000  
R17  18250226.942 5  97660607.396 5      -933.526          31.000  
R24  21501809.117 6 114979809.775 6     -4140.804          40.000  
E 5  25940505.126 5 136318220.131 5     -2893.015          34.000  
E10  23723214.533 6 124666327.933 6      -516.485          38.000  
E12  25154247.402 5 132186440.209 5     -1754.350          35.000  
J 2  38002701.475 5 199705562.22825        53.510          31.000  
J 3  36406649.121 7 191318233.06427      -464.098          43.000  
J 4  36744955.132 5 193096040.88825      -372.238          34.000  
> 2024 11 28 10  4 38.9970000  0 17                     
G 2  21606990.115 6 113545506.589 6      3062.542          39.000  
G10  24491025.922 4 128701095.41424      1585.475          26.000  
G16  21649331.708 5 113767992.459 5     -2677.514          31.000  
G21  20005261.450 7 105128360.099 7      2369.177          46.000  
G23  24494256.481 3               3       232.149          20.000  
G26  24084741.070 6 126566152.508 6     -3169.458          36.000  
G27  20171596.891 6 106002450.388 6     -2615.422          40.000  
R14  20701931.473 4 110352925.956 4     -3036.359          29.000  
R15  18392627.010 5  98284378.339 5        47.787          33.000  
R17  18250396.314 5  97661540.408 5      -932.472          30.000  
R24  21502583.139 6 114983950.033 6     -4140.006          39.000  
E 5  25941055.367 5 136321112.415 5     -2892.064          33.000  
E10  23723312.830 6 124666843.886 6      -515.986          37.000  
E12  25154580.876 5 132188193.629 5     -1753.034          34.000  
J 2  38002693.343 5 199705507.85725        55.676          32.000  
J 3  36406737.175 7 191318696.24127      -462.711          43.000  
J 4  36745026.032 5 193096412.18725      -370.852          34.000  
> 2024 11 28 10  4 39.9970000  0 17                     
G 2  21606407.331 6 113542444.590 6      3061.530          40.000  
G10  24490720.159 4 128699510.00424      1584.758          27.000  
G16  21649844.709 5 113770670.576 5     -2679.229          31.000  
G21  20004810.327 7 105125991.304 7      2367.786          46.000  
G23  24494207.184 3               3       231.364          20.000  
G26  24085344.010 6 126569321.831 6     -3170.249          36.000  
G27  20172094.623 6 106005065.966 6     -2616.437          40.000  
R14  20702501.676 4 110355962.641 4     -3037.767          29.000  
R15  18392617.709 5  98284330.524 5        46.837          33.000  
R17  18250569.857 5  97662473.772 5      -933.752          30.000  
R24  21503357.213 6 114988090.104 6     -4140.730          39.000  
E 5  25941606.026 5 136324004.049 5     -2892.104          33.000  
E10  23723410.709 6 124667359.900 6      -517.054          37.000  
E12  25154914.210 5 132189947.044 5     -1754.507          34.000  
J 2  38002682.088 5 199705453.06225        53.442          32.000  
J 3  36406825.334 7 191319159.04227      -463.557          43.000  
J 4  36745096.409 5 193096782.95325      -371.162          34.000  
> 2024 11 28 10  4 40.9970000  0 17                     
G 2  21605824.999 6 113539384.177 6      3060.090          40.000  
G10  24490416.054 4 128697926.21124      1583.127          28.000  
G16  21650355.774 5 113773350.147 5     -2680.199          31.000  
G21  20004359.588 7 105123624.322 7      2366.565          46.000  
G23  24494160.976 3               3       231.159          21.000  
G26  24085947.195 6 126572492.518 6     -3171.037          36.000  
G27  20172592.461 6 106007683.073 6     -2617.319          39.000  
R14  20703076.800 4 110359001.036 4     -3038.424          29.000  
R15  18392608.670 5  98284284.564 5        45.098          33.000  
R17  18250746.121 5               5      -936.157          30.000  
R24  21504131.549 6 114992231.748 6     -4142.345          39.000  
E 5  25942156.842 5 136326896.834 5     -2892.810          33.000  
E10  23723509.110 6 124667877.638 6      -518.239          36.000  
E12  25155248.242 5 132191702.139 5     -1755.388          34.000  
J 2  38002672.124 5 199705399.39625        53.668          32.000  
J 3  36406913.894 7 191319623.18927      -464.300          43.000  
J 4  36745167.169 5 193097154.97325      -371.974          34.000  
> 2024 11 28 10  4 41.9970000  0 17                     
G 2  21605242.755 6 113536323.503 6      3061.017          40.000  
G10  24490112.630 4 128696342.06324      1584.419          28.000  
G16  21650865.163 5 113776029.271 5     -2677.988          31.000  
G21  20003909.198 7 105121257.356 7      2367.334          46.000  
G23  24494114.960 3               3       235.371          21.000  
G26  24086550.571 6 126575662.751 6     -3169.436          36.000  
G27  20173090.385 6 106010299.914 6     -2616.383          39.000  
R14  20703646.480 4 110362039.303 4     -3038.254          29.000  
R15  18392599.998 5  98284238.568 5        46.802          34.000  
R17  18250921.531 5  97664338.07235      -934.460          30.000  
R24  21504905.937 6 114996373.139 6     -4140.929          39.000  
E 5  25942707.448 5 136329788.867 5     -2891.509          33.000  
E10  23723607.355 6 124668395.367 6      -517.330          36.000  
E12  25155582.187 5 132193457.125 5     -1754.530          34.000  
J 2  38002662.090 5 199705345.11425        54.535          32.000  
J 3  36407002.122 7 191320086.86527      -463.057          43.000  
J 4  36745237.982 5 193097526.40525      -370.664          34.000  
> 2024 11 28 10  4 42.9970000  0 17                     
G 2  21604660.145 6 113533262.696 6      3060.053          40.000  
G10  24489805.977 4 128694757.21314      1583.886          27.000  
G16  21651375.268 5 113778708.264 5     -2679.490          31.000  
G21  20003459.017 7 105118890.490 7      2365.973          46.000  
G23  24494068.263 3               3       240.126          20.000  
G26  24087153.772 6 126578832.647 6     -3170.616          36.000  
G27  20173588.135 6 106012916.592 6     -2617.698          39.000  
R14  20704214.921 4 110365077.425 4     -3039.140          29.000  
R15  18392591.552 5  98284192.688 5        44.942          33.000  
R17  18251093.939 4  97665263.26434      -936.985          29.000  
R24  21505680.326 6 115000514.308 6     -4142.157          38.000  
E 5  25943257.776 5 136332680.318 5     -2891.982          33.000  
E10  23723706.106 6 124668913.141 6      -518.899          36.000  
E12  25155916.079 5 132195212.059 5     -1755.931          34.000  
J 2  38002649.020 5 199705290.30425        54.199          32.000  
J 3  36407090.333 7 191320550.17427      -463.978          43.000  
J 4  36745308.708 5 193097897.32325      -371.426          34.000  
> 2024 11 28 10  4 43.9970000  0 17                     
G 2  21604078.163 6 113530203.553 6      3058.838          40.000  
G10  24489501.401 4 128693174.492 4      1582.897          27.000  
G16  21651882.232 5 113781388.697 5     -2680.261          32.000  
G21  20003009.081 7 105116525.552 7      2364.386          46.000  
G23  24494024.602 3               3       229.036          21.000  
G26  24087757.079 6 126582003.963 6     -3171.623          36.000  
G27  20174086.618 6 106015534.856 6     -2618.876          39.000  
R14  20704786.293 4 110368117.406 4     -3040.093          29.000  
R15  18392583.367 5  98284148.731 5        43.397          33.000  
R17  18251270.256 4  97666201.64124      -938.853          29.000  
R24  21506454.679 6 115004657.080 6     -4143.177          38.000  
E 5  25943807.650 5 136335572.999 5     -2893.190          33.000  
E10  23723804.770 6 124669432.733 6      -519.785          36.000  
E12  25156250.094 5 132196968.798 5     -1757.154          34.000  
J 2  38002639.684 5 199705236.26915        53.290          32.000  
J 3  36407178.788 7 191321014.42017      -465.222          43.000  
J 4  36745379.626 5 193098269.577 5      -372.327          34.000  
> 2024 11 28 10  4 44.9970000  0 17                     
G 2  21603496.250 6 113527144.598 6      3059.099          40.000  
G10  24489198.622 4 128691592.022 4      1582.463          26.000  
G16  21652399.020 5 113784069.291 5     -2681.323          32.000  
G21  20002559.423 7 105114161.057 7      2364.337          46.000  
G23  24493979.738 3               3       230.971          21.000  
G26  24088360.874 6 126585175.260 6     -3171.198          36.000  
G27  20174584.979 6 106018153.259 6     -2618.123          40.000  
R14  20705355.362 4 110371157.717 4     -3040.272          29.000  
R15  18392575.323 5  98284105.223 5        43.783          34.000  
R17  18251451.860 4  97667140.71924      -939.105          29.000  
R24  21507229.399 6 115008800.022 6     -4142.870          38.000  
E 5  25944358.204 5 136338465.328 5     -2891.890          33.000  
E10  23723903.782 6 124669952.773 6      -519.950          36.000  
E12  25156584.440 5 132198725.834 5     -1757.149          34.000  
J 2  38002629.912 5 199705182.550 5        53.870          32.000  
J 3  36407267.121 7 191321479.109 7      -464.401          43.000  
J 4  36745450.456 5 193098641.659 5      -372.043          34.000  
> 2024 11 28 10  4 45.9970000  0 17                     
G 2  21602914.547 6 113524086.336 6      3057.601          41.000  
G10  24488891.778 4 128690010.125 4      1581.669          26.000  
G16  21652909.334 5 113786750.328 5     -2680.955          33.000  
G21  20002109.696 7 105111797.472 7      2363.123          46.000  
G23  24493936.828 3               3       230.822          22.000  
G26  24088964.512 6 126588347.039 6     -3171.952          36.000  
G27  20175083.619 6 106020772.343 6     -2619.586          40.000  
R14  20705924.239 4 110374198.778 4     -3039.953          29.000  
R15  18392566.894 5  98284062.636 5        42.518          34.000  
R17  18251630.411 4  97668081.05824      -940.747          29.000  
R24  21508004.049 6 115012943.610 6     -4143.919          39.000  
E 5  25944908.601 5 136341357.920 5     -2892.893          33.000  
E10  23724002.812 6 124670473.644 6      -521.184          36.000  
E12  25156918.909 5 132200483.666 5     -1758.385          35.000  
J 2  38002620.105 5 199705129.124 5        53.741          32.000  
J 3  36407355.698 7 191321944.250 7      -465.401          43.000  
J 4  36745521.356 5 193099014.045 5      -372.138          34.000  
> 2024 11 28 10  4 46.9970000  0 17                     
G 2  21602332.914 6 113521028.743 6      3057.509          41.000  
G10  24488589.592 4 128688428.908 4      1580.664          25.000  
G16  21653421.585 5 113789432.026 5     -2682.329          33.000  
G21  20001660.092 7 105109434.848 7      2362.329          46.000  
G23  24493893.132 3               3       233.801          23.000  
G26  24089568.289 6 126591519.284 6     -3172.296          36.000  
G27  20175582.171 6 106023392.072 6     -2619.964          40.000  
R14  20706497.863 4 110377240.742 4     -3042.112          29.000  
R15  18392559.007 5  98284021.060 5        40.823          34.000  
R17  18251803.465 4  97669022.64924      -941.995          29.000  
R24  21508779.048 6 115017087.922 6     -4144.649          39.000  
E 5  25945459.034 5 136344250.713 5     -2892.647          33.000  
E10  23724102.243 6 124670995.426 6      -522.176          36.000  
E12  25157253.778 5 132202242.282 5     -1758.794          35.000  
J 2  38002610.054 5 199705076.074 5        52.850          32.000  
J 3  36407444.119 7 191322409.856 7      -465.465          43.000  
J 4  36745592.361 5 193099386.800 5      -372.711          34.000  
> 2024 11 28 10  4 47.9970000  0 18                     
G 2  21601751.560 6 113517971.485 6      3057.060          41.000  
G10  24488286.639 4               4      1580.920          25.000  
G16  21653931.323 5 113792113.823 5     -2681.453          33.000  
G21  20001210.155 7 105107072.795 7      2361.639          46.000  
G23  24493849.001 3               3       231.151          23.000  
G26  24090171.665 6 126594691.655 6     -3172.552          36.000  
G27  20176080.759 6 106026012.068 6     -2620.177          40.000  
R14  20707068.346 4 110380283.045 4     -3042.269          29.000  
R15  18392551.381 5  98283979.957 5        40.852          35.000  
R17  18251981.440 4  97669965.07124      -942.150          29.000  
R19  23039346.226 4               4      4176.984          27.000  
R24  21509554.047 6 115021232.526 6     -4145.125          38.000  
E 5  25946009.640 5 136347143.372 5     -2892.640          34.000  
E10  23724201.378 6 124671517.685 6      -522.332          36.000  
E12  25157588.613 5 132204001.357 5     -1759.324          35.000  
J 2  38002599.985 5 199705022.914 5        53.015          32.000  
J 3  36407532.556 7 191322875.575 7      -465.865          43.000  
J 4  36745663.558 5 193099759.513 5      -372.640          34.000  
> 2024 11 28 10  4 48.9970000  0 20                     
G 2  21601170.206 6 113514914.485 6      3056.935          41.000  
G 4  23849624.724 3               3     -3252.741          20.000  
G10  24487985.326 4               4      1579.356          24.000  
G16  21654441.812 5 113794795.843 5     -2682.596          34.000  
G21  20000759.974 7 105104711.243 7      2361.005          45.000  
G23  24493805.846 4               4       231.087          24.000  
G26  24090775.216 6 126597864.047 6     -3172.485          36.000  
G27  20176579.399 6 106028632.271 6     -2620.577          40.000  
R14  20707634.466 4 110383325.686 4     -3042.797          29.000  
R15  18392543.738 5  98283939.372 5        40.188          35.000  
R17  18252154.476 4  97670908.36324      -943.488          29.000  
R18  19346531.982 4               4      2799.837          27.000  
R19  23038560.757 4 123240762.46124      4177.362          27.000  
R24  21510329.046 6 115025377.304 6     -4144.975          38.000  
E 5  25946560.177 5 136350035.827 5     -2892.166          33.000  
E10  23724301.001 6 124672040.440 6      -523.133          36.000  
E12  25157923.605 5 132205760.816 5     -1760.144          35.000  
J 2  38002590.108 5 199704958.10635        53.198          32.000  
J 3  36407621.186 7 191323339.79537      -465.761          43.000  
J 4  36745734.441 5 193100137.13235      -372.393          34.000  
> 2024 11 28 10  4 49.9970000  0 20                     
G 2  21600588.939 6 113511858.092 6      3056.415          41.000  
G 4  23850261.709 3               3     -3252.741          20.000  
G10  24487684.659 4               4      1579.682          24.000  
G16  21654952.266 5 113797478.285 5     -2682.614          34.000  
G21  20000309.933 7 105102350.546 7      2360.309          45.000  
G23  24493763.547 4               4       228.030          24.000  
G26  24091378.959 6 126601036.835 6     -3173.059          36.000  
G27  20177078.475 6 106031253.054 6     -2620.867          40.000  
R14  20708204.425 5 110386369.064 5     -3043.939          30.000  
R15  18392536.461 5  98283899.716 5        39.079          35.000  
R17  18252325.924 4  97671852.68224      -945.430          28.000  
R18  19346014.844 4 103270227.21724      2798.816          28.000  
R19  23037771.379 4 123236585.52824      4176.880          27.000  
R24  21511104.133 6 115029522.666 6     -4145.526          38.000  
E 5  25947110.662 5 136352928.403 5     -2892.273          33.000  
E10  23724400.747 6 124672563.967 6      -523.932          36.000  
E12  25158258.736 5 132207520.945 5     -1760.263          35.000  
J 2  38002579.812 5 199704905.06825        53.064          32.000  
J 3  36407709.816 7 191323805.89827      -466.236          43.000  
J 4  36745805.673 5 193100510.00925      -372.878          34.000  
> 2024 11 28 10  4 50.9970000  0 20                     
G 2  21600007.673 6 113508802.083 6      3056.142          41.000  
G 4  23850890.563 3               3     -3252.741          20.000  
G10  24487384.323 3               3      1578.594          23.000  
G16  21655463.138 5 113800160.955 5     -2682.380          34.000  
G21  19999860.468 7 105099990.467 7      2359.845          45.000  
G23  24493720.358 4               4       230.135          24.000  
G26  24091982.736 6 126604209.796 6     -3172.951          36.000  
G27  20177577.586 6 106033874.165 6     -2621.061          40.000  
R14  20708773.389 5 110389412.932 5     -3044.177          30.000  
R15  18392529.359 5  98283860.644 5        38.619          35.000  
R17  18252502.747 4  97672797.916 4      -945.699          28.000  
R18  19345488.668 4 103267428.86924      2798.355          28.000  
R19  23036991.337 4 123232408.79024      4176.587          27.000  
R24  21511879.428 6 115033668.323 6     -4145.960          37.000  
E 5  25947660.920 5 136355820.918 5     -2892.237          34.000  
E10  23724500.283 6 124673088.080 6      -524.855          36.000  
E12  25158593.938 5 132209281.591 5     -1760.752          35.000  
J 2  38002569.726 5 199704852.00525        53.534          32.000  
J 3  36407798.550 7 191324272.14527      -466.277          43.000  
J 4  36745876.713 5 193100882.90725      -372.911          34.000  
> 2024 11 28 10  4 51.9970000  0 20                     
G 2  21599426.074 6 113505745.965 6      3056.565          41.000  
G 4  23851511.180 3               3     -3252.741          20.000  
G10  24487085.401 3               3      1582.854          22.000  
G16  21655973.644 5 113802843.439 5     -2681.848          34.000  
G21  19999411.457 7 105097630.554 7      2360.114          45.000  
G23  24493678.599 4               4       229.171          24.000  
G26  24092586.200 5 126607382.418 5     -3172.039          35.000  
G27  20178076.907 6 106036495.147 6     -2620.639          41.000  
R14  20709349.647 5 110392456.846 5     -3044.396          31.000  
R15  18392522.711 5  98283821.771 5        39.273          35.000  
R17  18252676.552 4  97673743.467 4      -945.104          28.000  
R18  19344963.434 4 103264630.76324      2798.335          28.000  
R19  23036211.155 4 123228231.71524      4177.875          27.000  
R24  21512654.497 6 115037813.841 6     -4144.862          37.000  
E 5  25948211.439 5 136358712.858 5     -2891.599          34.000  
E10  23724599.767 6 124673612.239 6      -523.716          36.000  
E12  25158929.156 5 132211042.277 5     -1760.963          35.000  
J 2  38002559.413 5 199704798.47325        53.839          32.000  
J 3  36407887.162 7 191324738.05827      -465.455          43.000  
J 4  36745947.683 5 193101255.34625      -371.842          34.000  
> 2024 11 28 10  4 52.9970000  0 20                     
G 2  21598844.267 6 113502689.472 6      3056.387          40.000  
G 4  23852133.996 3               3     -3252.741          19.000  
G10  24486785.920 3               3      1569.523          21.000  
G16  21656483.959 5 113805525.457 5     -2682.511          33.000  
G21  19998962.637 7 105095270.499 7      2359.766          45.000  
G23  24493637.330 3               3       233.990          23.000  
G26  24093189.576 5 126610554.472 5     -3172.557          35.000  
G27  20178575.599 6 106039115.686 6     -2620.699          41.000  
R14  20709927.529 5 110395500.408 5     -3043.804          31.000  
R15  18392515.451 5  98283782.729 5        38.439          35.000  
R17  18252864.927 4  97674689.316 4      -946.302          28.000  
R18  19344448.268 4 103261832.59324      2798.143          29.000  
R19  23035431.863 4               4      4178.438          27.000  
R24  21513429.200 6 115041958.953 6     -4145.247          37.000  
E 5  25948761.732 5 136361603.938 5     -2891.101          33.000  
E10  23724699.529 6 124674136.249 6      -524.413          36.000  
E12  25159264.235 5 132212802.649 5     -1760.756          35.000  
J 2  38002549.100 5 199704744.17225        54.498          32.000  
J 3  36407975.635 7 191325203.36527      -465.376          43.000  
J 4  36746018.496 5 193101627.05125      -371.477          34.000  
> 2024 11 28 10  4 53.9970000  0 20                     
G 2  21598263.174 6 113499633.586 6      3055.286          40.000  
G 4  23852760.109 3               3     -3252.741          19.000  
G10  24486482.513 3               3      1575.903          20.000  
G16  21656994.587 5 113808207.924 5     -2683.147          34.000  
G21  19998513.940 7 105092911.322 7      2358.453          46.000  
G23  24493593.791 3               3       230.517          23.000  
G26  24093793.336 5 126613726.890 5     -3172.841          35.000  
G27  20179074.833 6 106041736.816 6     -2621.697          41.000  
R14  20710502.740 5 110398544.698 5     -3044.652          31.000  
R15  18392508.401 5  98283744.541 5        37.403          34.000  
R17  18253041.628 4  97675636.261 4      -947.418          27.000  
R18  19343921.987 4 103259035.41924      2796.691          28.000  
R19  23034649.413 4               4      4176.441          26.000  
R24  21514204.513 6 115046104.665 6     -4146.289          36.000  
E 5  25949311.710 5 136364495.170 5     -2891.722          34.000  
E10  23724799.240 6 124674661.056 6      -525.323          36.000  
E12  25159599.140 5 132214563.725 5     -1761.263          35.000  
J 2  38002538.839 5 199704690.11725        53.741          32.000  
J 3  36408064.421 7 191325669.04527      -465.960          43.000  
J 4  36746089.117 5 193101999.04325      -372.429          34.000  
> 2024 11 28 10  4 54.9970000  0 20                     
G 2  21597681.524 6 113496578.087 6      3055.768          40.000  
G 4  23853377.079 3               3     -3252.741          19.000  
G10  24486180.468 3               3      1575.332          19.000  
G16  21657505.023 5 113810890.618 5     -2681.614          33.000  
G21  19998065.678 7 105090552.774 7      2358.716          46.000  
G23  24493550.654 3               3       221.716          22.000  
G26  24094397.253 5 126616899.527 5     -3172.348          35.000  
G27  20179573.734 6 106044358.266 6     -2621.107          41.000  
R14  20711076.224 5 110401589.507 5     -3044.913          31.000  
R15  18392501.683 5  98283706.968 5        37.712          34.000  
R17  18253216.095 4  97676584.090 4      -947.698          27.000  
R18  19343399.790 4 103256238.98824      2796.626          29.000  
R19  23033866.980 4               4      4177.341          26.000  
R24  21514979.983 6 115050250.706 6     -4145.681          37.000  
E 5  25949861.689 5 136367386.304 5     -2890.479          33.000  
E10  23724898.951 6 124675186.433 6      -525.362          36.000  
E12  25159934.219 5 132216325.380 5     -1761.387          34.000  
J 2  38002528.282 5 199704636.07225        54.974          32.000  
J 3  36408152.789 7 191326134.88927      -465.505          42.000  
J 4  36746160.017 5 193102371.02525      -371.498          34.000  
> 2024 11 28 10  4 55.9970000  0 19                     
G 2  21597100.135 6 113493522.670 6      3055.500          40.000  
G10  24485881.179 3               3      1582.654          21.000  
G16  21658015.774 5 113813573.313 5     -2682.023          33.000  
G21  19997617.365 7 105088194.556 7      2358.124          46.000  
G23  24493508.233 3               3       223.567          22.000  
G26  24095001.013 5 126620071.983 5     -3172.718          35.000  
G27  20180073.317 7 106046979.766 7     -2621.516          42.000  
R14  20711645.433 5 110404634.472 5     -3044.791          31.000  
R15  18392494.703 5  98283669.745 5        36.478          34.000  
R17  18253394.733 4  97677532.503 4      -948.806          27.000  
R18  19342874.433 4 103253442.89724      2795.969          29.000  
R19  23033084.355 4               4      4175.526          25.000  
R24  21515755.732 6 115054396.750 6     -4145.833          37.000  
E 5  25950411.772 5 136370277.058 5     -2890.388          34.000  
E10  23724998.748 6 124675712.077 6      -525.540          36.000  
E12  25160269.385 5 132218087.185 5     -1761.851          35.000  
J 2  38002517.725 5 199704581.22415        54.950          32.000  
J 3  36408241.210 7 191326600.06717      -465.506          43.000  
J 4  36746230.969 5 193102742.779 5      -371.812          35.000  
> 2024 11 28 10  4 56.9970000  0 19                     
G 2  21596518.432 6 113490467.200 6      3055.587          40.000  
G10  24485581.384 3               3      1579.938          21.000  
G16  21658526.175 5 113816255.881 5     -2682.559          33.000  
G21  19997169.121 7 105085836.562 7      2357.800          46.000  
G23  24493465.777 3               3       220.667          21.000  
G26  24095604.860 5 126623244.183 5     -3171.993          35.000  
G27  20180572.393 7 106049601.180 7     -2621.559          42.000  
R14  20712210.611 5 110407679.633 5     -3046.102          31.000  
R15  18392487.862 5  98283632.716 5        37.207          34.000  
R17  18253570.997 4  97678481.417 4      -948.981          27.000  
R18  19342347.524 4 103250647.147 4      2795.481          28.000  
R19  23032303.947 4               4      4177.763          25.000  
R24  21516531.011 6 115058542.756 6     -4145.961          37.000  
E 5  25950961.995 5 136373167.266 5     -2889.622          34.000  
E10  23725098.913 6 124676237.903 6      -526.043          36.000  
E12  25160604.674 5 132219849.087 5     -1762.321          34.000  
J 2  38002507.359 5 199704526.434 5        54.712          32.000  
J 3  36408329.839 7 191327065.489 7      -465.379          42.000  
J 4  36746301.573 5 193103114.093 5      -371.021          34.000  
> 2024 11 28 10  4 57.9970000  0 19                     
G 2  21595936.816 6 113487412.047 6      3054.781          39.000  
G10  24485283.125 3               3      1580.127          22.000  
G16  21659036.524 5 113818938.588 5     -2683.015          33.000  
G21  19996720.738 7 105083479.121 7      2356.879          46.000  
G23  24493420.319 3               3       227.160          21.000  
G26  24096208.516 5 126626416.500 5     -3172.859          35.000  
G27  20181071.643 7 106052222.852 7     -2621.800          42.000  
R14  20712779.366 5 110410725.061 5     -3045.800          30.000  
R15  18392481.004 5  98283596.285 5        36.048          34.000  
R17  18253746.582 4  97679431.195 4      -950.047          27.000  
R18  19341819.254 4 103247851.928 4      2795.025          26.000  
R19  23031523.276 4               4      4177.446          25.000  
R24  21517306.149 6 115062689.025 6     -4146.530          37.000  
E 5  25951512.235 5 136376057.395 5     -2890.480          34.000  
E10  23725198.902 6 124676764.184 6      -526.607          36.000  
E12  25160939.683 5 132221611.401 5     -1763.020          35.000  
J 2  38002496.959 5 199704471.569 5        55.334          32.000  
J 3  36408418.382 7 191327530.977 7      -465.815          43.000  
J 4  36746372.229 5 193103485.394 5      -371.502          34.000  
> 2024 11 28 10  4 58.9970000  0 19                     
G 2  21595355.200 6 113484357.353 6      3054.907          39.000  
G10  24484984.831 4               4      1583.862          24.000  
G16  21659547.135 5 113821621.637 5     -2683.135          33.000  
G21  19996272.354 7 105081122.375 7      2357.104          46.000  
G23  24493375.454 3               3       223.269          21.000  
G26  24096812.119 5 126629589.015 5     -3171.870          35.000  
G27  20181570.824 7 106054844.952 7     -2621.688          42.000  
R14  20713351.942 5 110413771.148 5     -3046.566          30.000  
R15  18392474.530 5  98283560.540 5        35.448          34.000  
R17  18253924.225 4  97680382.059 4      -951.585          27.000  
R18  19341294.700 4               4      2795.351          25.000  
R19  23030740.547 4               4      4178.892          25.000  
R24  21518081.428 6 115066835.697 6     -4146.112          37.000  
E 5  25952062.440 5 136378947.452 5     -2889.544          34.000  
E10  23725299.311 6 124677291.134 6      -526.825          36.000  
E12  25161275.216 5 132223374.257 5     -1762.653          34.000  
J 2  38002486.715 5 199704416.817 5        55.151          31.000  
J 3  36408506.959 7 191327996.693 7      -465.459          42.000  
J 4  36746442.780 5 193103856.791 5      -370.603          34.000  
> 2024 11 28 10  4 59.9970000  0 18                     
G 2  21594773.323 6 113481302.176 6      3055.369          38.000  
G10  24484686.799 4               4      1578.454          25.000  
G16  21660057.641 5 113824304.070 5     -2682.656          33.000  
G21  19995823.395 7 105078765.421 7      2356.818          46.000  
G23  24493331.619 3               3       229.875          20.000  
G26  24097415.408 5 126632760.883 5     -3171.772          34.000  
G27  20182070.267 7 106057466.549 7     -2621.740          42.000  
R14  20713920.872 5 110416816.761 5     -3045.777          31.000  
R15  18392467.934 5  98283524.543 5        35.823          34.000  
R17  18254102.426 4  97681332.798 4      -951.240          27.000  
R19  23029958.445 4               4      4177.087          24.000  
R24  21518856.828 6 115070981.887 6     -4146.551          37.000  
E 5  25952612.367 5 136381836.594 5     -2888.900          34.000  
E10  23725399.458 6 124677817.833 6      -526.594          37.000  
E12  25161610.592 5 132225136.782 5     -1762.700          34.000  
J 2  38002476.402 5 199704361.205 5        55.237          32.000  
J 3  36408595.257 7 191328461.695 7      -464.778          43.000  
J 4  36746513.419 5 193104227.383 5      -371.071          34.000  
> 2024 11 28 10  5  0.9970000  0 18                     
G 2  21594191.201 6 113478247.442 6      3054.550          38.000  
G10  24484390.808 4               4      1578.193          25.000  
G16  21660568.147 5 113826986.820 5     -2682.765          34.000  
G21  19995374.837 7 105076409.135 7      2355.988          45.000  
G23  24493289.704 3               3       226.193          18.000  
G26  24098019.063 5 126635932.987 5     -3172.576          34.000  
G27  20182569.256 7 106060088.513 7     -2622.211          43.000  
R14  20714492.401 5 110419862.886 5     -3046.206          32.000  
R15  18392461.198 5  98283489.259 5        35.026          34.000  
R17  18254277.993 4  97682284.557 4      -952.209          27.000  
R19  23029177.094 3               3      4176.934          23.000  
R24  21519632.229 6 115075128.431 6     -4146.572          37.000  
E 5  25953162.415 5 136384725.675 5     -2888.885          34.000  
E10  23725499.849 6 124678345.141 6      -527.933          37.000  
E12  25161945.618 5 132226899.806 5     -1762.979          34.000  
J 2  38002465.496 5 199704303.13335        55.280          31.000  
J 3  36408683.642 7 191328923.42637      -465.495          43.000  
J 4  36746584.022 5 193104602.03335      -370.592          35.000  
> 2024 11 28 10  5  1.9970000  0 17                     
G 2  21593609.498 6 113475193.236 6      3053.664          38.000  
G10  24484093.893 4               4      1578.245          26.000  
G16  21661079.037 5 113829670.012 5     -2683.852          34.000  
G21  19994926.035 7 105074053.644 7      2354.913          45.000  
G26  24098622.963 5 126639105.375 5     -3172.607          34.000  
G27  20183068.367 7 106062710.981 7     -2622.688          43.000  
R14  20715068.572 5 110422909.618 5     -3046.438          32.000  
R15  18392454.585 5  98283454.788 5        33.894          34.000  
R17  18254452.879 4  97683237.363 4      -953.301          27.000  
R19  23028397.646 3               3      4176.725          23.000  
R24  21520407.803 6 115079275.481 6     -4147.624          37.000  
E 5  25953712.603 5 136387614.853 5     -2889.475          34.000  
E10  23725600.188 6 124678873.135 6      -528.139          37.000  
E12  25162281.413 5 132228663.534 5     -1764.190          35.000  
J 2  38002454.851 5 199704247.71625        55.682          31.000  
J 3  36408772.499 7 191329388.94127      -465.806          43.000  
J 4  36746654.626 5 193104972.88025      -371.494          35.000  
> 2024 11 28 10  5  2.9970000  0 17                     
G 2  21593027.952 6 113472139.478 6      3053.444          38.000  
G10  24483797.536 4               4      1578.483          27.000  
G16  21661589.770 5 113832353.474 5     -2683.336          34.000  
G21  19994477.826 7 105071698.842 7      2354.700          45.000  
G26  24099226.531 5 126642277.982 5     -3172.212          34.000  
G27  20183567.897 7 106065333.837 7     -2622.739          43.000  
R14  20715644.639 5 110425956.990 5     -3047.199          32.000  
R15  18392448.285 5  98283421.021 5        33.593          34.000  
R17  18254635.618 4  97684191.145 4      -953.729          28.000  
R19  23027616.068 3               3      4176.131          23.000  
R24  21521183.361 6 115083422.934 6     -4147.574          38.000  
E 5  25954262.285 5 136390503.991 5     -2889.287          33.000  
E10  23725701.224 6 124679401.812 6      -528.759          37.000  
E12  25162616.841 5 132230427.796 5     -1764.396          34.000  
J 2  38002444.346 5 199704192.34525        55.670          31.000  
J 3  36408860.954 7 191329854.66727      -465.582          43.000  
J 4  36746724.898 5 193105343.78525      -370.869          35.000  
> 2024 11 28 10  5  3.9970000  0 17                     
G 2  21592446.528 6 113469085.841 6      3053.874          38.000  
G10  24483498.247 4 128661646.55034      1577.884          27.000  
G16  21662100.625 5 113835036.985 5     -2684.104          35.000  
G21  19994029.565 7 105069344.438 7      2354.346          46.000  
G26  24099830.378 5 126645450.516 5     -3172.515          34.000  
G27  20184067.183 7 106067956.814 7     -2623.123          43.000  
R14  20716216.046 5 110429004.638 5     -3048.225          33.000  
R15  18392441.916 5  98283387.649 5        33.360          34.000  
R17  18254818.967 4  97685145.588 4      -954.441          28.000  
R19  23026835.746 3               3      4176.535          22.000  
R24  21521958.988 6 115087570.506 6     -4147.857          38.000  
E 5  25954811.792 5 136393392.768 5     -2888.283          33.000  
E10  23725802.139 6 124679930.813 6      -529.021          37.000  
E12  25162952.566 5 132232192.303 5     -1764.542          34.000  
J 2  38002432.533 5 199704136.73225        56.665          31.000  
J 3  36408949.619 7 191330320.31227      -465.410          43.000  
J 4  36746795.571 5 193105714.48325      -370.134          35.000  
> 2024 11 28 10  5  4.9970000  0 17                     
G 2  21591865.174 6 113466032.369 6      3053.239          38.000  
G10  24483201.454 4 128660068.81124      1577.785          27.000  
G16  21662611.480 5 113837720.486 5     -2683.590          35.000  
G21  19993581.915 7 105066990.442 7      2353.699          46.000  
G26  24100433.842 5 126648623.016 5     -3172.604          34.000  
G27  20184566.346 7 106070579.882 7     -2623.234          43.000  
R14  20716790.036 5 110432052.465 5     -3047.699          33.000  
R15  18392435.843 5  98283354.643 5        32.042          34.000  
R17  18254998.704 4  97686100.805 4      -955.614          29.000  
R19  23026052.441 3               3      4177.549          23.000  
R24  21522734.825 6 115091718.159 6     -4147.343          38.000  
E 5  25955361.579 5 136396281.264 5     -2887.987          33.000  
E10  23725902.914 6 124680460.151 6      -529.607          37.000  
E12  25163288.674 5 132233957.074 5     -1764.609          34.000  
J 2  38002420.527 5 199704080.96725        55.042          31.000  
J 3  36409038.440 7 191330785.89327      -465.838          43.000  
J 4  36746866.105 5 193106085.02225      -370.323          35.000  
> 2024 11 28 10  5  5.9970000  0 17                     
G 2  21591284.239 6 113462979.009 6      3052.659          38.000  
G10  24482908.046 4 128658491.17224      1577.640          28.000  
G16  21663122.179 5 113840403.976 5     -2684.158          35.000  
G21  19993134.282 7 105064636.791 7      2353.168          46.000  
G26  24101037.358 5 126651795.388 5     -3172.659          34.000  
G27  20185065.510 7 106073202.999 7     -2623.277          43.000  
R14  20717365.963 5 110435100.564 5     -3048.740          33.000  
R15  18392429.718 5  98283321.922 5        32.773          34.000  
R17  18255176.470 4  97687056.564 4      -955.930          29.000  
R19  23025274.458 3               3      4178.250          23.000  
R24  21523510.260 6 115095865.857 6     -4147.851          38.000  
E 5  25955911.086 5 136399169.358 5     -2887.415          33.000  
E10  23726003.671 6 124680989.754 6      -529.906          37.000  
E12  25163624.731 5 132235722.038 5     -1764.800          34.000  
J 2  38002413.617 5 199704024.82625        55.853          31.000  
J 3  36409127.070 7 191331251.29427      -465.330          43.000  
J 4  36746936.499 5 193106455.24225      -369.984          34.000  
> 2024 11 28 10  5  6.9970000  0 17                     
G 2  21590703.374 6 113459925.751 6      3053.235          38.000  
G10  24482610.712 4 128656913.61224      1577.362          27.000  
G16  21663632.737 5 113843087.467 5     -2683.717          35.000  
G21  19992686.736 7 105062283.535 7      2353.003          46.000  
G23  24493004.986 2               2       220.562          12.000  
G26  24101640.978 5 126654967.693 5     -3172.719          34.000  
G27  20185564.917 7 106075826.224 7     -2623.172          43.000  
R14  20717939.447 5 110438148.841 5     -3048.623          33.000  
R15  18392424.030 5  98283289.639 5        31.792          34.000  
R17  18255354.288 4  97688012.998 4      -956.557          29.000  
R24  21524285.713 6 115100013.680 6     -4147.983          38.000  
E 5  25956460.209 5 136402057.185 5     -2887.416          33.000  
E10  23726104.499 6 124681519.720 6      -530.090          37.000  
E12  25163960.647 5 132237487.311 5     -1765.236          34.000  
J 2  38002398.662 5 199703968.48025        56.622          31.000  
J 3  36409215.630 7 191331716.65527      -465.318          43.000  
J 4  36747006.841 5 193106825.30825      -369.769          34.000  
> 2024 11 28 10  5  7.9970000  0 17                     
G 2  21590122.857 6 113456872.789 6      3052.832          39.000  
G10  24482313.290 4 128655336.23624      1577.755          27.000  
G16  21664143.522 5 113845771.082 5     -2683.896          35.000  
G21  19992239.417 7 105059930.790 7      2352.448          46.000  
G23  24492968.323 2               2       217.039          12.000  
G26  24102244.459 5 126658140.015 5     -3172.812          35.000  
G27  20186064.151 7 106078449.676 7     -2623.718          43.000  
R14  20718510.314 5 110441197.440 5     -3048.541          33.000  
R15  18392418.079 5  98283257.852 5        30.998          34.000  
R17  18255535.299 5  97688970.167 5      -957.100          30.000  
R24  21525061.323 6 115104161.692 6     -4148.193          37.000  
E 5  25957009.717 5 136404944.784 5     -2887.572          33.000  
E10  23726205.536 6 124682050.118 6      -530.664          37.000  
E12  25164296.372 5 132239252.911 5     -1765.886          34.000  
J 2  38002388.383 5 199703911.51215        56.940          31.000  
J 3  36409304.120 7 191332181.51117      -465.503          43.000  
J 4  36747077.357 5 193107195.274 5      -370.140          35.000  
> 2024 11 28 10  5  8.9970000  0 17                     
G 2  21589542.411 6 113453819.593 6      3053.406          39.000  
G10  24482013.076 4 128653758.76824      1577.135          27.000  
G16  21664654.534 5 113848454.379 5     -2683.248          35.000  
G21  19991792.203 7 105057578.084 7      2352.716          46.000  
G23  24492929.496 2               2       221.104          16.000  
G26  24102847.905 5 126661311.940 5     -3172.323          34.000  
G27  20186563.349 7 106081072.841 7     -2622.661          43.000  
R14  20719080.639 5 110444245.995 5     -3048.860          32.000  
R15  18392411.989 5  98283226.074 5        31.557          34.000  
R17  18255713.937 5  97689927.651 5      -957.876          31.000  
R24  21525837.055 6 115108309.437 6     -4147.676          37.000  
E 5  25957559.276 5 136407831.649 5     -2886.212          33.000  
E10  23726306.415 6 124682580.504 6      -530.571          36.000  
E12  25164632.428 5 132241018.458 5     -1765.685          35.000  
J 2  38002377.495 5 199703854.449 5        58.044          31.000  
J 3  36409392.592 7 191332646.432 7      -464.588          43.000  
J 4  36747147.525 5 193107564.649 5      -369.369          34.000  
> 2024 11 28 10  5  9.9970000  0 17                     
G 2  21588961.877 6 113450766.593 6      3052.925          40.000  
G10  24481710.490 4 128652181.29924      1577.400          27.000  
G16  21665165.407 5 113851137.689 5     -2683.677          35.000  
G21  19991344.675 7 105055225.799 7      2352.148          46.000  
G23  24492892.537 3               3       218.381          18.000  
G26  24103451.578 5 126664483.748 5     -3171.806          35.000  
G27  20187062.582 7 106083696.158 7     -2623.311          43.000  
R14  20719652.291 5 110447294.761 5     -3048.872          33.000  
R15  18392406.038 5  98283194.709 5        31.178          34.000  
R17  18255896.431 5  97690885.833 5      -958.243          31.000  
R24  21526612.298 6 115112457.287 6     -4147.664          38.000  
E 5  25958108.697 5 136410718.265 5     -2886.444          33.000  
E10  23726407.208 6 124683111.241 6      -530.899          36.000  
E12  25164968.415 5 132242784.217 5     -1765.632          34.000  
J 2  38002369.555 5 199703797.195 5        56.958          31.000  
J 3  36409481.152 7 191333111.267 7      -464.317          43.000  
J 4  36747218.198 5 193107933.830 5      -369.062          35.000  
> 2024 11 28 10  5 10.9970000  0 17                     
G 2  21588381.430 6 113447713.168 6      3053.312          40.000  
G10  24481407.065 4 128650603.38024      1578.136          27.000  
G16  21665675.983 5 113853820.465 5     -2681.981          34.000  
G21  19990897.303 7 105052873.360 7      2351.996          46.000  
G23  24492856.432 3               3       219.987          21.000  
G26  24104055.233 5 126667654.971 5     -3171.178          35.000  
G27  20187561.624 7 106086319.002 7     -2622.998          43.000  
R14  20720223.786 5 110450343.235 5     -3048.462          32.000  
R15  18392400.105 5  98283163.209 5        31.039          34.000  
R17  18256080.792 5  97691844.151 5      -958.561          32.000  
R24  21527387.768 6 115116604.721 6     -4147.743          37.000  
E 5  25958658.221 5 136413603.986 5     -2885.421          33.000  
E10  23726507.913 6 124683641.761 6      -530.692          36.000  
E12  25165304.262 5 132244549.738 5     -1766.306          34.000  
J 2  38002358.474 5 199703739.149 5        57.581          31.000  
J 3  36409569.695 7 191333575.497 7      -464.280          43.000  
J 4  36747288.645 5 193108302.265 5      -368.514          35.000  
> 2024 11 28 10  5 11.9970000  0 17                     
G 2  21587801.053 6 113444660.366 6      3052.792          40.000  
G10  24481102.454 4               4      1575.700          25.000  
G16  21666186.629 5 113856503.780 5     -2682.867          34.000  
G21  19990449.845 7 105050521.777 7      2351.538          46.000  
G23  24492818.670 3               3       215.399          21.000  
G26  24104658.662 5 126670826.582 5     -3171.381          35.000  
G27  20188060.997 7 106088942.414 7     -2623.264          43.000  
R14  20720795.280 5 110453392.418 5     -3048.765          32.000  
R15  18392394.242 5  98283132.509 5        31.100          34.000  
R17  18256260.181 5  97692803.657 5      -959.470          32.000  
R24  21528163.151 6 115120752.727 6     -4148.206          37.000  
E 5  25959207.938 5 136416489.866 5     -2885.879          33.000  
E10  23726608.810 6 124684173.094 6      -531.471          36.000  
E12  25165640.789 5 132246315.927 5     -1766.004          34.000  
J 2  38002344.322 5 199703681.252 5        58.813          31.000  
J 3  36409658.220 7 191334040.091 7      -464.420          43.000  
J 4  36747358.760 5 193108670.948 5      -368.499          35.000  
> 2024 11 28 10  5 12.9970000  0 17                     
G 2  21587220.293 6 113441607.390 6      3052.765          40.000  
G10  24480798.175 3               3      1570.370          23.000  
G16  21666697.466 5 113859186.781 5     -2683.143          34.000  
G21  19990002.090 7 105048170.267 7      2351.282          46.000  
G23  24492782.286 3               3       225.791          21.000  
G26  24105262.439 5 126673997.831 5     -3171.186          35.000  
G27  20188560.230 7 106091565.625 7     -2623.238          43.000  
R14  20721366.845 5 110456441.549 5     -3048.796          33.000  
R15  18392388.291 5  98283101.952 5        29.950          34.000  
R17  18256442.431 5  97693763.502 5      -960.682          32.000  
R24  21528938.657 6 115124900.494 6     -4147.408          37.000  
E 5  25959756.835 5 136419375.061 5     -2885.124          33.000  
E10  23726709.795 6 124684704.417 6      -531.561          36.000  
E12  25165976.968 5 132248082.072 5     -1766.305          35.000  
J 2  38002336.033 5 199703623.39135        59.009          31.000  
J 3  36409746.448 7 191334508.77737      -464.365          43.000  
J 4  36747429.084 5 193109043.10735      -367.966          35.000  
> 2024 11 28 10  5 13.9970000  0 17                     
G 2  21586639.602 6 113438555.151 6      3052.100          40.000  
G10  24480495.152 3               3      1581.542          21.000  
G16  21667208.252 5 113861870.357 5     -2683.391          35.000  
G21  19989554.474 7 105045819.756 7      2349.939          46.000  
G23  24492744.001 3               3       222.372          22.000  
G26  24105866.252 5 126677169.561 5     -3172.015          35.000  
G27  20189059.742 7 106094189.527 7     -2624.529          43.000  
R14  20721938.950 5 110459491.584 5     -3050.576          33.000  
R15  18392382.742 5  98283072.362 5        28.449          34.000  
R17  18256622.028 5  97694724.541 5      -961.640          32.000  
R24  21529714.197 6 115129048.979 6     -4148.915          37.000  
E 5  25960305.819 5 136422260.521 5     -2885.134          33.000  
E10  23726810.831 6 124685236.694 6      -532.949          36.000  
E12  25166313.547 5 132249849.052 5     -1767.143          35.000  
J 2  38002325.388 5 199703565.36025        57.837          31.000  
J 3  36409834.955 7 191334973.47127      -465.108          43.000  
J 4  36747499.147 5 193109411.68525      -369.537          35.000  
> 2024 11 28 10  5 14.9970000  0 17                     
G 2  21586058.876 6 113435503.463 6      3051.208          40.000  
G10  24480189.843 3               3      1579.372          20.000  
G16  21667719.491 5 113864554.352 5     -2683.806          34.000  
G21  19989107.051 7 105043470.026 7      2349.207          46.000  
G23  24492707.826 3               3       218.234          22.000  
G26  24106470.204 5 126680341.649 5     -3172.528          35.000  
G27  20189559.482 7 106096813.902 7     -2624.609          43.000  
R14  20722510.951 5 110462542.218 5     -3050.969          33.000  
R15  18392377.106 5  98283043.585 5        27.917          33.000  
R17  18256802.045 5  97695686.660 5      -963.085          32.000  
R24  21530490.452 6 115133197.895 6     -4149.300          38.000  
E 5  25960854.994 5 136425146.098 5     -2885.752          33.000  
E10  23726912.095 6 124685769.696 6      -533.704          36.000  
E12  25166650.023 5 132251616.712 5     -1768.197          35.000  
J 2  38002311.411 5 199703507.48725        56.995          31.000  
J 3  36409923.533 7 191335438.46427      -465.332          43.000  
J 4  36747569.349 5 193109780.38825      -368.978          35.000  
> 2024 11 28 10  5 15.9970000  0 17                     
G 2  21585478.150 6 113432452.118 6      3051.225          41.000  
G10  24479887.797 3               3      1577.723          19.000  
G16  21668230.346 5 113867238.591 5     -2683.937          35.000  
G21  19988659.959 7 105041120.903 7      2349.091          46.000  
G23  24492667.970 3               3       215.884          21.000  
G26  24107073.754 5 126683513.818 5     -3171.730          35.000  
G27  20190059.256 7 106099438.571 7     -2624.163          43.000  
R14  20723083.353 5 110465593.268 5     -3050.620          34.000  
R15  18392371.696 5  98283015.418 5        28.087          33.000  
R17  18256981.904 5  97696649.621 5      -962.518          32.000  
R24  21531266.603 6 115137347.119 6     -4148.833          38.000  
E 5  25961404.013 5 136428031.521 5     -2885.041          33.000  
E10  23727013.603 6 124686303.207 6      -533.342          36.000  
E12  25166986.480 5 132253384.809 5     -1768.041          34.000  
J 2  38002303.192 5 199703449.57025        57.799          31.000  
J 3  36410012.145 7 191335903.56127      -464.719          43.000  
J 4  36747639.726 5 193110149.09425      -368.218          35.000  
> 2024 11 28 10  5 16.9970000  0 17                     
G 2  21584897.477 6 113429400.854 6      3051.024          40.000  
G10  24479588.334 2               2      1576.805          17.000  
G16  21668741.271 5 113869922.783 5     -2684.210          35.000  
G21  19988213.373 7 105038772.130 7      2348.334          46.000  
G23  24492625.950 3               3       219.946          21.000  
G26  24107677.671 5 126686685.899 5     -3171.561          35.000  
G27  20190558.227 7 106102063.312 7     -2625.008          43.000  
R14  20723655.825 5 110468644.502 5     -3051.645          33.000  
R15  18392366.426 5  98282987.588 5        27.501          33.000  
R17  18257161.467 5  97697613.245 5      -963.288          32.000  
R24  21532042.387 6 115141496.431 6     -4149.387          38.000  
E 5  25961953.084 5 136430916.557 5     -2885.246          33.000  
E10  23727114.971 6 124686837.004 6      -533.657          36.000  
E12  25167323.095 5 132255153.132 5     -1768.640          35.000  
J 2  38002287.417 5 199703391.35725        58.112          31.000  
J 3  36410100.618 7 191336368.54227      -465.267          43.000  
J 4  36747709.928 5 193110517.53825      -368.538          35.000  
> 2024 11 28 10  5 17.9970000  0 16                     
G 2  21584316.925 6 113426350.102 6      3050.821          40.000  
G16  21669252.370 5 113872607.414 5     -2684.876          35.000  
G21  19987766.385 7 105036424.150 7      2347.491          46.000  
G23  24492584.192 3               3       217.781          19.000  
G26  24108281.397 5 126689858.312 5     -3172.374          34.000  
G27  20191057.391 7 106104688.544 7     -2625.634          43.000  
R14  20724228.296 5 110471696.341 5     -3051.972          34.000  
R15  18392361.575 5  98282960.532 5        26.593          33.000  
R17  18257340.559 5  97698577.930 5      -964.999          31.000  
R24  21532818.747 6 115145646.242 6     -4149.888          38.000  
E 5  25962501.789 5 136433801.643 5     -2884.589          33.000  
E10  23727216.130 6 124687371.541 6      -534.589          36.000  
E12  25167660.425 5 132256922.088 5     -1769.660          35.000  
J 2  38002277.400 5 199703333.33325        57.501          31.000  
J 3  36410189.160 7 191336833.80327      -465.412          43.000  
J 4  36747780.008 5 193110886.21125      -368.678          35.000  
> 2024 11 28 10  5 18.9970000  0 16                     
G 2  21583736.496 6 113423299.775 6      3050.511          40.000  
G16  21669763.225 5 113875292.292 5     -2684.933          35.000  
G21  19987319.974 7 105034076.785 7      2347.333          46.000  
G23  24492541.857 3               3       218.747          20.000  
G26  24108885.314 5 126693030.866 5     -3172.313          34.000  
G27  20191557.008 7 106107314.099 7     -2625.399          43.000  
R14  20724800.960 5 110474748.672 5     -3051.639          34.000  
R15  18392356.864 5  98282934.075 5        26.408          33.000  
R17  18257513.071 5  97699543.592 5      -966.366          31.000  
R24  21533594.933 6 115149796.403 6     -4149.639          37.000  
E 5  25963050.563 5 136436686.665 5     -2884.632          33.000  
E10  23727317.935 6 124687906.670 6      -535.191          36.000  
E12  25167996.935 5 132258691.522 5     -1769.282          35.000  
J 2  38002263.039 5 199703275.29425        57.385          31.000  
J 3  36410277.755 7 191337299.21827      -465.379          43.000  
J 4  36747850.559 5 193111254.86425      -367.991          35.000  
> 2024 11 28 10  5 19.9970000  0 17                     
G 2  21583155.840 6 113420249.018 6      3050.862          41.000  
G10  24478688.426 2               2      1576.000          14.000  
G16  21670274.150 6 113877976.619 6     -2684.830          36.000  
G21  19986873.423 7 105031729.276 7      2347.321          46.000  
G23  24492499.052 3               3       220.656          19.000  
G26  24109489.039 5 126696202.795 5     -3171.987          34.000  
G27  20192056.346 7 106109939.194 7     -2624.989          43.000  
R14  20725373.624 5 110477800.767 5     -3052.320          34.000  
R15  18392351.786 5  98282907.462 5        26.727          33.000  
R17  18257693.891 5  97700509.183 5      -965.497          31.000  
R24  21534370.979 6 115153946.075 6     -4149.586          37.000  
E 5  25963599.390 5 136439570.809 5     -2883.763          33.000  
E10  23727420.018 6 124688441.546 6      -534.690          36.000  
E12  25168333.480 5 132260460.673 5     -1769.455          35.000  
J 2  38002250.789 5 199703216.42625        58.441          31.000  
J 3  36410366.245 7 191337763.49717      -464.890          43.000  
J 4  36747920.482 5 193111622.764 5      -367.882          35.000  
> 2024 11 28 10  5 20.9970000  0 17                     
G 2  21582575.690 6 113417198.933 6      3049.799          41.000  
G10  24478388.195 2               2      1570.088          17.000  
G16  21670784.953 5 113880661.460 5     -2685.323          35.000  
G21  19986426.767 7 105029382.676 7      2346.033          46.000  
G23  24492456.665 3               3       219.422          20.000  
G26  24110092.398 5 126699375.154 5     -3172.678          34.000  
G27  20192556.085 7 106112564.902 7     -2625.873          43.000  
R14  20725946.375 5 110480853.649 5     -3053.682          33.000  
R15  18392346.760 5  98282881.765 5        25.228          33.000  
R17  18257876.210 5  97701476.047 5      -966.995          32.000  
R24  21535147.147 6 115158096.375 6     -4150.479          37.000  
E 5  25964147.781 5 136442455.107 5     -2883.865          33.000  
E10  23727521.963 6 124688977.280 6      -536.100          36.000  
E12  25168670.461 5 132262230.556 5     -1770.214          35.000  
J 2  38002240.685 5 199703157.85725        59.052          31.000  
J 3  36410454.857 7 191338228.692 7      -465.550          43.000  
J 4  36747990.510 5 193111990.959 5      -368.188          34.000  
> 2024 11 28 10  5 21.9970000  0 17                     
G 2  21581995.558 6 113414149.053 6      3049.601          41.000  
G10  24478086.359 3               3      1580.507          20.000  
G16  21671296.035 6 113883346.366 6     -2685.003          36.000  
G21  19985980.216 7 105027036.519 7      2345.886          46.000  
G23  24492413.808 3               3       221.368          21.000  
G26  24110696.140 5 126702547.511 5     -3172.267          34.000  
G27  20193055.563 7 106115190.759 7     -2625.663          43.000  
R14  20726519.091 5 110483906.812 5     -3052.943          34.000  
R15  18392341.944 5  98282856.583 5        24.903          32.000  
R17  18258057.047 5  97702443.596 5      -967.022          31.000  
R24  21535923.333 6 115162246.856 6     -4150.712          38.000  
E 5  25964696.922 5 136445339.192 5     -2883.850          33.000  
E10  23727624.064 6 124689513.408 6      -536.415          36.000  
E12  25169006.884 5 132264000.775 5     -1770.651          35.000  
J 2  38002230.930 5 199703099.12325        58.832          31.000  
J 3  36410543.347 7 191338693.846 7      -465.155          43.000  
J 4  36748060.572 5 193112359.011 5      -367.769          34.000  
> 2024 11 28 10  5 22.9970000  0 18                     
G 2  21581415.513 6 113411099.796 6      3048.971          41.000  
G10  24477783.266 3               3      1568.317          21.000  
G16  21671807.082 5 113886031.798 5     -2685.713          35.000  
G21  19985533.735 7 105024691.244 7      2345.166          46.000  
G23  24492366.849 3               3       216.797          21.000  
G26  24111299.569 5 126705720.286 5     -3172.812          35.000  
G27  20193555.233 7 106117817.236 7     -2626.625          43.000  
R14  20727091.615 5 110486960.710 5     -3053.872          34.000  
R15  18392336.918 5  98282832.252 5        24.216          32.000  
R17  18258235.807 5  97703412.359 5      -970.142          31.000  
R18  19328772.808 4               4      2780.886          24.000  
R24  21536699.885 6 115166397.876 6     -4150.597          38.000  
E 5  25965245.975 5 136448223.380 5     -2884.052          33.000  
E10  23727726.182 6 124690050.365 6      -537.418          36.000  
E12  25169343.656 5 132265771.731 5     -1771.025          35.000  
J 2  38002221.891 5 199703040.13315        58.502          30.000  
J 3  36410631.837 7 191339159.409 7      -465.544          43.000  
J 4  36748130.583 5 193112727.356 5      -368.298          34.000  
> 2024 11 28 10  5 23.9970000  0 18                     
G 2  21580835.223 6 113408050.077 6      3049.856          41.000  
G10  24477483.262 3               3      1568.125          23.000  
G16  21672317.867 5 113888716.634 5     -2684.364          35.000  
G21  19985086.992 7 105022345.757 7      2345.569          46.000  
G23  24492322.072 3               3       215.194          21.000  
G26  24111903.329 5 126708892.333 5     -3171.305          35.000  
G27  20194054.885 7 106120443.165 7     -2625.715          43.000  
R14  20727664.646 5 110490014.180 5     -3053.166          34.000  
R15  18392331.805 5  98282807.692 5        25.281          32.000  
R17  18258414.672 5  97704381.157 5      -969.568          31.000  
R18  19328250.592 4               4      2781.818          25.000  
R24  21537475.687 6 115170548.398 6     -4149.983          37.000  
E 5  25965794.959 5 136451106.659 5     -2882.657          33.000  
E10  23727828.144 6 124690587.022 6      -536.446          36.000  
E12  25169680.881 5 132267542.334 5     -1770.219          35.000  
J 2  38002210.356 5 199702980.772 5        60.028          31.000  
J 3  36410720.484 7 191339624.271 7      -464.523          43.000  
J 4  36748200.558 5 193113094.850 5      -367.184          34.000  
> 2024 11 28 10  5 24.9970000  0 18                     
G 2  21580255.352 7 113405000.926 7      3049.167          42.000  
G10  24477182.507 4               4      1570.129          25.000  
G16  21672828.845 5 113891401.928 5     -2685.364          35.000  
G21  19984640.441 7 105020001.095 7      2344.348          45.000  
G23  24492277.155 3               3       209.236          22.000  
G26  24112507.264 5 126712064.762 5     -3172.577          35.000  
G27  20194554.502 7 106123069.641 7     -2626.902          43.000  
R14  20728237.414 5 110493068.308 5     -3054.578          34.000  
R15  18392327.076 5  98282784.002 5        22.990          32.000  
R17  18258593.362 5  97705351.025 5      -969.388          30.000  
R18  19327729.512 4               4      2781.681          25.000  
R24  21538251.750 6 115174699.449 6     -4151.230          37.000  
E 5  25966343.646 5 136453990.042 5     -2883.762          33.000  
E10  23727930.525 6 124691124.460 6      -537.594          36.000  
E12  25170017.932 5 132269313.616 5     -1771.573          35.000  
J 2  38002198.019 5 199702898.15935        58.173          31.000  
J 3  36410809.131 7 191340092.98537      -465.364          43.000  
J 4  36748270.551 5 193113464.55835      -367.672          34.000  
> 2024 11 28 10  5 25.9970000  0 18                     
G 2  21579675.586 7 113401952.314 7      3047.970          42.000  
G10  24476883.637 4               4      1572.721          26.000  
G16  21673339.962 5 113894087.603 5     -2686.486          35.000  
G21  19984193.715 7 105017657.197 7      2343.384          45.000  
G23  24492233.233 3               3       217.750          22.000  
G26  24113110.867 5 126715237.509 5     -3172.797          35.000  
G27  20195054.416 7 106125696.567 7     -2627.148          43.000  
R14  20728810.462 5 110496123.091 5     -3055.346          34.000  
R15  18392322.277 5  98282760.978 5        22.906          32.000  
R17  18258766.747 5  97706322.004 5      -971.961          30.000  
R18  19327206.040 4               4      2779.856          25.000  
R24  21539028.285 6 115178850.969 6     -4151.806          37.000  
E 5  25966892.386 5 136456873.473 5     -2883.679          33.000  
E10  23728033.254 6 124691662.592 6      -538.401          36.000  
E12  25170354.791 5 132271085.526 5     -1772.266          35.000  
J 2  38002188.613 5 199702839.09925        58.691          31.000  
J 3  36410897.517 7 191340558.48427      -465.927          43.000  
J 4  36748340.526 5 193113832.48425      -368.818          35.000  
> 2024 11 28 10  5 26.9970000  0 18                     
G 2  21579095.890 7 113398904.427 7      3047.898          42.000  
G10  24476584.767 4               4      1573.183          27.000  
G16  21673851.218 5 113896773.896 5     -2686.688          35.000  
G21  19983747.321 7 105015314.292 7      2342.786          45.000  
G23  24492189.328 3               3       209.389          23.000  
G26  24113714.906 5 126718410.770 5     -3173.273          34.000  
G27  20195554.504 7 106128324.205 7     -2627.566          43.000  
R14  20729383.806 5 110499178.750 5     -3055.675          33.000  
R15  18392317.810 5  98282738.959 5        21.309          32.000  
R17  18258949.346 5  97707294.183 5      -972.075          30.000  
R18  19326682.847 4               4      2778.653          24.000  
R24  21539804.855 6 115183003.230 6     -4151.900          37.000  
E 5  25967441.300 5 136459757.141 5     -2883.338          33.000  
E10  23728135.791 6 124692201.650 6      -538.851          36.000  
E12  25170692.557 5 132272858.270 5     -1772.614          35.000  
J 2  38002176.067 5 199702780.44925        59.064          30.000  
J 3  36410986.164 7 191341024.47527      -465.895          43.000  
J 4  36748410.554 5 193114200.73625      -368.087          34.000  
> 2024 11 28 10  5 27.9970000  0 18                     
G 2  21578515.810 7 113395856.800 7      3047.449          42.000  
G10  24476288.009 4 128623747.90834      1572.867          27.000  
G16  21674362.562 5 113899460.301 5     -2686.233          34.000  
G21  19983301.363 7 105012971.914 7      2342.072          45.000  
G23  24492146.557 4               4       213.427          24.000  
G26  24114318.631 5 126721584.064 5     -3173.164          34.000  
G27  20196054.645 7 106130952.070 7     -2628.062          43.000  
R14  20729956.924 5 110502234.764 5     -3055.905          34.000  
R15  18392313.692 5  98282717.490 5        21.523          32.000  
R17  18259135.279 5  97708267.164 5      -973.132          31.000  
R18  19326159.027 3               3      2778.224          23.000  
R24  21540581.407 6 115187155.722 6     -4152.770          37.000  
E 5  25967989.952 5 136462640.634 5     -2883.566          33.000  
E10  23728238.660 6 124692741.209 6      -539.666          36.000  
E12  25171029.975 5 132274631.437 5     -1773.464          35.000  
J 2  38002166.120 5 199702721.70125        58.429          31.000  
J 3  36411074.881 7 191341490.50527      -466.087          43.000  
J 4  36748480.617 5 193114568.92725      -368.305          35.000  
> 2024 11 28 10  5 28.9970000  0 18                     
G 2  21577935.712 6 113392809.386 6      3047.401          41.000  
G10  24475992.542 4 128622175.38824      1572.873          28.000  
G16  21674873.626 5 113902146.812 5     -2686.765          34.000  
G21  19982855.946 7 105010629.994 7      2341.736          45.000  
G23  24492104.502 4               4       215.313          25.000  
G26  24114922.670 5 126724757.352 5     -3173.215          34.000  
G27  20196554.820 7 106133580.081 7     -2628.138          43.000  
R14  20730530.320 5 110505291.140 5     -3056.967          33.000  
R15  18392309.155 5  98282696.517 5        20.764          32.000  
R17  18259325.119 5  97709240.860 5      -973.610          31.000  
R18  19325635.101 3               3      2776.621          23.000  
R24  21541358.011 6 115191308.321 6     -4152.227          37.000  
E 5  25968538.447 5 136465523.838 5     -2883.103          33.000  
E10  23728341.250 6 124693281.090 6      -539.783          36.000  
E12  25171367.759 5 132276404.875 5     -1773.534          35.000  
J 2  38002158.529 5 199702662.73525        59.045          31.000  
J 3  36411163.528 7 191341956.50827      -465.985          43.000  
J 4  36748550.627 5 193114936.94625      -367.792          34.000  
> 2024 11 28 10  5 29.9970000  0 18                     
G 2  21577355.545 6 113389762.100 6      3046.876          41.000  
G10  24475697.075 4 128620602.98624      1572.323          29.000  
G16  21675384.534 5 113904833.306 5     -2686.703          35.000  
G21  19982410.791 7 105008288.451 7      2341.034          46.000  
G23  24492066.723 4               4       210.993          26.000  
G26  24115526.465 5 126727930.550 5     -3173.085          34.000  
G27  20197055.153 7 106136208.171 7     -2628.351          43.000  
R14  20731103.665 5 110508347.676 5     -3056.776          33.000  
R15  18392301.285 5  98282675.899 5        20.136          32.000  
R17  18259505.851 5  97710215.228 5      -975.201          31.000  
R18  19325112.258 3               3      2775.738          23.000  
R24  21542134.372 6 115195460.979 6     -4152.914          37.000  
E 5  25969087.222 5 136468406.702 5     -2882.923          33.000  
E10  23728444.207 6 124693821.338 6      -540.444          36.000  
E12  25171705.036 5 132278178.560 5     -1773.922          35.000  
J 2  38002145.756 5 199702603.51025        59.320          31.000  
J 3  36411251.983 7 191342422.40027      -466.057          43.000  
J 4  36748620.393 5 193115304.74525      -367.662          35.000  
> 2024 11 28 10  5 30.9970000  0 18                     
G 2  21576775.203 6 113386714.917 6      3047.070          41.000  
G10  24475402.288 5 128619030.69025      1572.665          30.000  
G16  21675895.354 5 113907519.793 5     -2686.219          34.000  
G21  19981965.985 7 105005947.265 7      2340.991          46.000  
G23  24492029.397 4 128706482.29734       211.573          27.000  
G26  24116130.400 5 126731103.673 5     -3173.568          34.000  
G27  20197555.363 7 106138836.324 7     -2628.186          43.000  
R14  20731676.800 5 110511404.377 5     -3055.892          32.000  
R15  18392298.353 5  98282655.637 5        20.478          32.000  
R17  18259685.990 5  97711190.246 5      -975.549          31.000  
R18  19324591.980 3               3      2774.909          23.000  
R24  21542910.959 6 115199613.656 6     -4152.542          37.000  
E 5  25969635.647 5 136471289.225 5     -2882.639          33.000  
E10  23728547.058 6 124694361.876 6      -540.544          36.000  
E12  25172042.279 5 132279952.472 5     -1773.827          34.000  
J 2  38002126.840 5 199702544.01825        60.242          31.000  
J 3  36411340.647 7 191342888.17327      -465.545          43.000  
J 4  36748690.351 5 193115672.31625      -367.718          34.000  
> 2024 11 28 10  5 31.9970000  0 18                     
G 2  21576195.001 6 113383667.211 6      3048.092          41.000  
G10  24475099.318 5 128617457.83125      1573.343          30.000  
G16  21676406.523 5 113910205.635 5     -2685.348          34.000  
G21  19981520.865 7 105003605.824 7      2341.675          46.000  
G23  24491992.175 4 128706270.61924       212.425          27.000  
G26  24116733.933 5 126734276.037 5     -3172.590          34.000  
G27  20198055.626 7 106141463.906 7     -2627.123          43.000  
R14  20732249.952 5 110514460.714 5     -3055.740          31.000  
R15  18392300.814 5  98282635.101 5        20.366          33.000  
R17  18259869.723 5  97712165.257 5      -975.260          32.000  
R18  19324071.981 3               3      2776.154          23.000  
R24  21543687.493 6 115203765.798 6     -4151.741          37.000  
E 5  25970184.160 5 136474170.737 5     -2880.776          33.000  
E10  23728650.503 6 124694902.085 6      -540.038          36.000  
E12  25172379.557 5 132281725.942 5     -1772.862          34.000  
J 2  38002114.659 5 199702483.66625        60.730          31.000  
J 3  36411429.015 7 191343352.70717      -464.741          43.000  
J 4  36748759.960 5 193116038.996 5      -366.117          35.000  
> 2024 11 28 10  5 32.9970000  0 18                     
G 2  21575614.467 6 113380619.351 6      3047.240          41.000  
G10  24474800.744 5 128615884.74825      1572.535          30.000  
G16  21676917.466 5 113912891.169 5     -2685.659          34.000  
G21  19981075.588 7 105001264.459 7      2340.826          46.000  
G23  24491956.350 4 128706059.03924       211.141          28.000  
G26  24117337.257 5 126737447.980 5     -3172.397          34.000  
G27  20198555.645 7 106144091.276 7     -2627.955          43.000  
R14  20732823.192 5 110517516.964 5     -3057.344          31.000  
R15  18392291.373 5  98282614.588 5        19.729          33.000  
R17  18260050.996 5  97713140.583 5      -975.292          31.000  
R18  19323551.545 4               4      2776.895          25.000  
R24  21544463.679 6 115207917.705 6     -4152.361          37.000  
E 5  25970732.289 5 136477051.596 5     -2881.123          33.000  
E10  23728753.232 6 124695442.284 6      -540.539          36.000  
E12  25172717.236 5 132283499.396 5     -1774.234          34.000  
J 2  38002102.130 5 199702422.73325        60.956          31.000  
J 3  36411517.628 7 191343817.307 7      -464.958          43.000  
J 4  36748829.848 5 193116405.147 5      -366.523          35.000  
> 2024 11 28 10  5 33.9970000  0 18                     
G 2  21575034.614 6 113377572.303 6      3046.855          41.000  
G10  24474502.136 5 128614312.47925      1572.118          31.000  
G16  21677428.425 5 113915577.426 5     -2686.360          34.000  
G21  19980630.538 7 104998924.184 7      2340.076          46.000  
G23  24491918.745 4 128705848.43624       210.522          28.000  
G26  24117940.895 5 126740620.577 5     -3173.123          34.000  
G27  20199055.786 7 106146719.432 7     -2628.232          43.000  
R14  20733396.745 5 110520574.151 5     -3057.416          32.000  
R15  18392292.472 5  98282595.197 5        18.826          33.000  
R17  18260233.194 5  97714117.258 5      -977.465          30.000  
R18  19323030.604 4               4      2774.741          25.000  
R24  21545239.952 6 115212070.416 6     -4152.965          37.000  
E 5  25971280.854 5 136479932.828 5     -2881.131          33.000  
E10  23728856.189 6 124695983.547 6      -541.580          36.000  
E12  25173054.846 5 132285273.759 5     -1774.727          35.000  
J 2  38002093.440 5 199702362.25425        60.382          31.000  
J 3  36411606.030 7 191344282.521 7      -465.284          43.000  
J 4  36748899.561 5 193116771.764 5      -366.043          35.000  
> 2024 11 28 10  5 34.9970000  0 18                     
G 2  21574454.586 6 113374525.704 6      3046.512          41.000  
G10  24474201.591 5 128612740.58625      1572.097          31.000  
G16  21677939.472 5 113918263.945 5     -2686.075          34.000  
G21  19980185.225 7 104996584.608 7      2339.374          46.000  
G23  24491882.082 4 128705638.56624       209.636          29.000  
G26  24118544.864 5 126743793.346 5     -3172.638          34.000  
G27  20199555.996 7 106149347.969 7     -2628.487          43.000  
R14  20733970.421 5 110523631.912 5     -3058.221          32.000  
R15  18392288.721 5  98282576.461 5        18.599          34.000  
R17  18260416.508 5  97715094.905 5      -978.184          31.000  
R18  19322510.692 4               4      2773.734          25.000  
R24  21546016.452 6 115216223.519 6     -4153.086          37.000  
E 5  25971829.000 5 136482814.028 5     -2881.113          33.000  
E10  23728959.477 6 124696525.404 6      -541.543          36.000  
E12  25173392.403 5 132287048.676 5     -1774.929          34.000  
J 2  38002085.046 5 199702301.31615        60.858          31.000  
J 3  36411694.538 7 191344747.936 7      -465.367          43.000  
J 4  36748969.467 5 193117138.491 5      -366.267          35.000  
> 2024 11 28 10  5 35.9970000  0 18                     
G 2  21573875.012 6 113371479.395 6      3046.232          41.000  
G10  24473900.523 5 128611168.95925      1571.521          31.000  
G16  21678450.520 5 113920950.691 5     -2687.197          34.000  
G21  19979740.437 7 104994245.549 7      2338.666          46.000  
G23  24491842.365 4 128705429.12224       208.865          29.000  
G26  24119148.642 5 126746966.217 5     -3173.147          34.000  
G27  20200056.154 7 106151976.735 7     -2628.752          43.000  
R14  20734544.150 5 110526690.015 5     -3058.052          33.000  
R15  18392286.976 5  98282558.273 5        17.966          34.000  
R17  18260599.526 5  97716073.395 5      -978.786          31.000  
R18  19321990.309 4               4      2772.247          25.000  
R24  21546792.969 6 115220376.886 6     -4153.481          37.000  
E 5  25972377.268 5 136485694.997 5     -2880.949          33.000  
E10  23729062.782 6 124697067.741 6      -542.520          36.000  
E12  25173729.855 5 132288823.947 5     -1775.109          35.000  
J 2  38002073.198 5 199702240.798 5        59.546          31.000  
J 3  36411783.080 7 191345213.387 7      -465.482          43.000  
J 4  36749039.512 5 193117505.161 5      -366.846          35.000  
> 2024 11 28 10  5 36.9970000  0 17                     
G 2  21573295.699 6 113368433.194 6      3045.997          41.000  
G10  24473602.141 5 128609596.82415      1572.643          31.000  
G16  21678961.392 5 113923637.361 5     -2686.840          33.000  
G21  19979295.020 7 104991906.841 7      2338.513          46.000  
G23  24491802.736 5 128705219.98425       208.487          30.000  
G26  24119752.280 5 126750138.936 5     -3172.674          34.000  
G27  20200556.312 7 106154605.573 7     -2628.898          43.000  
R14  20735118.157 5 110529748.301 5     -3057.700          33.000  
R15  18392282.840 5  98282540.423 5        17.403          33.000  
R17  18260782.579 5  97717052.474 5      -979.188          31.000  
R24  21547569.556 6 115224530.300 6     -4153.521          37.000  
E 5  25972925.746 5 136488575.647 5     -2880.466          33.000  
E10  23729166.401 6 124697610.375 6      -542.833          36.000  
E12  25174067.499 5 132290599.487 5     -1775.334          34.000  
J 2  38002057.981 5 199702162.45535        61.475          31.000  
J 3  36411871.605 7 191345676.21537      -465.141          43.000  
J 4  36749109.296 5 193117872.49235      -365.764          34.000  
> 2024 11 28 10  5 37.9970000  0 17                     
G 2  21572716.579 7 113365387.125 7      3046.255          42.000  
G10  24473297.338 5 128608025.441 5      1571.079          31.000  
G16  21679472.369 5 113926324.035 5     -2686.174          33.000  
G21  19978849.673 7 104989568.535 7      2338.330          46.000  
G23  24491766.980 5 128705011.26625       207.817          30.000  
G26  24120355.988 5 126753311.607 5     -3172.304          34.000  
G27  20201056.401 7 106157234.501 7     -2628.918          43.000  
R14  20735691.903 5 110532806.860 5     -3058.487          33.000  
R15  18392279.332 5  98282522.977 5        17.811          33.000  
R17  18260965.911 5  97718032.208 5      -979.704          32.000  
R24  21548346.370 6 115228683.799 6     -4153.375          37.000  
E 5  25973473.718 5 136491455.942 5     -2880.114          33.000  
E10  23729269.689 6 124698153.351 6      -543.105          36.000  
E12  25174405.388 5 132292375.240 5     -1775.510          34.000  
J 2  38002046.673 5 199702101.42925        61.145          31.000  
J 3  36411959.781 7 191346141.45727      -464.839          43.000  
J 4  36749179.219 5 193118238.71325      -366.111          35.000  
> 2024 11 28 10  5 38.9970000  0 17                     
G 2  21572137.040 7 113362340.707 7      3047.211          42.000  
G10  24473001.051 5 128606453.602 5      1572.437          30.000  
G16  21679983.102 5 113929010.266 5     -2685.529          33.000  
G21  19978404.431 7 104987230.135 7      2338.727          46.000  
G23  24491726.286 5 128704802.34725       208.592          31.000  
G26  24120959.416 5 126756483.696 5     -3171.626          34.000  
G27  20201556.541 7 106159863.021 7     -2627.984          43.000  
R14  20736266.085 5 110535865.093 5     -3057.914          33.000  
R15  18392276.191 5  98282505.419 5        18.572          33.000  
R17  18261149.313 5  97719012.103 5      -979.558          32.000  
R24  21549122.992 6 115232836.844 6     -4152.388          37.000  
E 5  25974022.353 5 136494335.394 5     -2878.670          33.000  
E10  23729372.698 6 124698696.119 6      -542.290          36.000  
E12  25174743.224 5 132294150.769 5     -1774.989          35.000  
J 2  38002035.296 5 199702039.63425        62.091          31.000  
J 3  36412048.167 7 191346606.10527      -463.992          43.000  
J 4  36749248.688 5 193118604.17025      -364.834          35.000  
> 2024 11 28 10  5 39.9970000  0 17                     
G 2  21571557.413 7 113359293.481 7      3046.831          42.000  
G10  24472692.025 5 128604880.870 5      1573.300          30.000  
G16  21680493.975 5 113931695.504 5     -2685.431          33.000  
G21  19977959.049 7 104984891.147 7      2338.611          45.000  
G23  24491691.037 5 128704592.82325       209.135          31.000  
G26  24121562.897 5 126759654.738 5     -3171.339          34.000  
G27  20202056.769 7 106162490.655 7     -2627.753          43.000  
R14  20736839.516 5 110538922.578 5     -3057.392          33.000  
R15  18392272.754 5  98282487.323 5        17.492          33.000  
R17  18261332.296 5  97719991.643 5      -980.085          32.000  
R24  21549899.492 6 115236989.031 6     -4152.293          37.000  
E 5  25974570.359 5 136497213.545 5     -2878.142          33.000  
E10  23729475.863 6 124699238.267 6      -542.383          36.000  
E12  25175080.991 5 132295925.566 5     -1775.521          35.000  
J 2  38002023.081 5 199701976.65025        62.555          31.000  
J 3  36412136.255 7 191347069.69827      -463.786          43.000  
J 4  36749318.192 5 193118968.43825      -364.528          35.000  
> 2024 11 28 10  5 40.9970000  0 17                     
G 2  21570977.822 7 113356247.440 7      3045.357          42.000  
G10  24472394.726 5 128603309.320 5      1571.216          30.000  
G16  21681004.830 5 113934381.847 5     -2686.936          32.000  
G21  19977514.156 7 104982553.611 7      2336.914          45.000  
G23  24491646.888 5 128704384.67425       207.892          31.000  
G26  24122166.273 5 126762826.746 5     -3172.792          34.000  
G27  20202557.154 7 106165119.443 7     -2629.352          43.000  
R14  20737413.454 5 110541981.442 5     -3060.298          32.000  
R15  18392269.264 5  98282470.629 5        15.926          33.000  
R17  18261515.872 5  97720972.902 5      -981.887          31.000  
R24  21550676.323 6 115241142.386 6     -4153.752          37.000  
E 5  25975118.610 5 136500092.439 5     -2879.288          33.000  
E10  23729579.047 6 124699781.789 6      -544.056          36.000  
E12  25175419.001 5 132297701.629 5     -1776.301          35.000  
J 2  38002008.318 5 199701914.46725        61.279          31.000  
J 3  36412224.449 7 191347534.24127      -465.067          43.000  
J 4  36749387.539 5 193119333.52925      -365.018          35.000  
> 2024 11 28 10  5 41.9970000  0 18                     
G 2  21570398.143 7 113353202.158 7      3045.197          42.000  
G10  24472090.272 5 128601738.530 5      1570.763          30.000  
G16  21681515.772 5 113937068.810 5     -2686.823          33.000  
G21  19977069.507 7 104980217.112 7      2336.115          46.000  
G23  24491606.875 5 128704177.57625       207.358          31.000  
G26  24122769.772 5 126765999.323 5     -3173.040          34.000  
G27  20203057.661 7 106167748.972 7     -2629.646          43.000  
R14  20737987.130 5 110545041.176 5     -3060.379          32.000  
R15  18392266.314 5  98282454.985 5        15.610          33.000  
R17  18261699.989 5  97721955.544 5      -983.301          31.000  
R19  22997160.325 4               4      4175.317          25.000  
R24  21551452.823 6 115245296.448 6     -4154.030          37.000  
E 5  25975666.704 5 136502971.641 5     -2879.290          33.000  
E10  23729682.788 6 124700326.307 6      -544.934          36.000  
E12  25175757.396 5 132299478.606 5     -1776.727          35.000  
J 2  38002000.919 5 199701852.64125        61.621          31.000  
J 3  36412313.218 7 191347999.32227      -464.949          43.000  
J 4  36749457.061 5 193119699.08025      -365.803          35.000  
> 2024 11 28 10  5 42.9970000  0 18                     
G 2  21569818.621 7 113350157.451 7      3044.485          42.000  
G10  24471793.636 5 128600168.180 5      1571.061          30.000  
G16  21682026.854 5 113939756.220 5     -2687.835          33.000  
G21  19976625.294 7 104977881.404 7      2335.431          46.000  
G23  24491567.594 5 128703971.186 5       207.128          30.000  
G26  24123373.148 5 126769172.194 5     -3172.615          34.000  
G27  20203558.151 7 106170378.980 7     -2630.192          43.000  
R14  20738560.719 5 110548101.518 5     -3060.099          32.000  
R15  18392263.313 5  98282440.146 5        14.210          33.000  
R17  18261883.862 5  97722939.192 5      -984.016          32.000  
R19  22996381.644 4               4      4174.905          25.000  
R24  21552229.514 6 115249451.050 6     -4154.904          37.000  
E 5  25976214.362 5 136505850.888 5     -2879.385          32.000  
E10  23729786.216 6 124700871.538 6      -545.638          36.000  
E12  25176095.773 5 132301256.260 5     -1777.729          35.000  
J 2  38001991.059 5 199701791.00825        61.603          31.000  
J 3  36412401.656 7 191348464.73027      -465.442          43.000  
J 4  36749526.530 5 193120064.81125      -365.865          35.000  
> 2024 11 28 10  5 43.9970000  0 19                     
G 2  21569238.908 6 113347112.897 6      3044.541          41.000  
G10  24471493.038 5 128598598.039 5      1570.494          30.000  
G16  21682538.355 5 113942443.633 5     -2687.132          33.000  
G21  19976181.168 7 104975546.118 7      2335.181          46.000  
G23  24491530.670 5 128703765.288 5       205.634          31.000  
G26  24123976.698 5 126772345.040 5     -3172.434          33.000  
G27  20204058.588 7 106173009.112 7     -2630.104          43.000  
R14  20739134.552 5 110551162.209 5     -3061.102          31.000  
R15  18392260.608 5  98282425.705 5        14.621          34.000  
R17  18262068.241 5  97723923.578 5      -983.924          32.000  
R18  19317828.275 4               4      2767.655          25.000  
R19  22995601.863 4               4      4175.059          26.000  
R24  21553006.363 6 115253605.719 6     -4154.649          37.000  
E 5  25976762.229 5 136508729.866 5     -2879.092          33.000  
E10  23729890.341 6 124701417.104 6      -545.691          36.000  
E12  25176434.360 5 132303034.190 5     -1778.236          35.000  
J 2  38001977.448 5 199701728.64015        62.024          31.000  
J 3  36412490.163 7 191348929.54817      -464.875          43.000  
J 4  36749596.192 5 193120430.329 5      -364.987          35.000  
> 2024 11 28 10  5 44.9970000  0 19                     
G 2  21568659.124 6 113344068.001 6      3044.659          41.000  
G10  24471189.282 5 128597027.495 5      1570.440          30.000  
G16  21683049.507 5 113945130.594 5     -2687.250          33.000  
G21  19975736.938 7 104973210.750 7      2334.943          46.000  
G23  24491491.494 5 128703559.200 5       205.238          30.000  
G26  24124580.144 5 126775517.352 5     -3172.583          33.000  
G27  20204558.939 7 106175638.846 7     -2629.812          43.000  
R14  20739708.454 5 110554222.582 5     -3060.914          32.000  
R15  18392258.235 5  98282411.167 5        14.384          34.000  
R17  18262252.620 5  97724908.137 5      -985.161          32.000  
R18  19317308.800 4               4      2769.688          25.000  
R19  22994822.100 4               4      4174.252          26.000  
R24  21553783.055 6 115257759.981 6     -4154.506          37.000  
E 5  25977309.887 5 136511607.945 5     -2877.460          33.000  
E10  23729994.152 6 124701962.533 6      -545.825          36.000  
E12  25176772.999 5 132304811.848 5     -1778.074          35.000  
J 2  38001965.530 5 199701666.081 5        62.018          31.000  
J 3  36412578.461 7 191349394.300 7      -464.626          43.000  
J 4  36749665.661 5 193120795.191 5      -365.216          35.000  
> 2024 11 28 10  5 45.9970000  0 19                     
G 2  21568079.620 6 113341023.728 6      3043.896          41.000  
G10  24470887.481 5 128595457.531 5      1569.600          30.000  
G16  21683560.798 5 113947818.054 5     -2688.173          34.000  
G21  19975292.830 7 104970876.256 7      2333.893          46.000  
G23  24491449.596 5 128703353.895 5       204.685          30.000  
G26  24125183.486 5 126778690.039 5     -3173.143          33.000  
G27  20205059.498 7 106178269.166 7     -2631.012          43.000  
R14  20740282.514 5 110557283.680 5     -3061.584          32.000  
R15  18392256.071 5  98282397.519 5        12.250          35.000  
R17  18262437.401 5  97725893.796 5      -986.160          32.000  
R18  19316791.924 4               4      2767.834          26.000  
R19  22994042.686 4               4      4174.271          26.000  
R24  21554560.061 6 115261914.812 6     -4155.305          37.000  
E 5  25977857.457 5 136514486.250 5     -2877.916          33.000  
E10  23730098.068 6 124702508.776 6      -546.866          36.000  
E12  25177111.271 5 132306590.250 5     -1778.941          35.000  
J 2  38001954.222 5 199701603.715 5        62.219          31.000  
J 3  36412667.108 7 191349859.456 7      -465.581          43.000  
J 4  36749735.183 5 193121160.279 5      -365.625          35.000  
> 2024 11 28 10  5 46.9970000  0 19                     
G 2  21567500.377 6 113337979.896 6      3043.358          41.000  
G10  24470589.850 4 128593887.950 4      1569.155          29.000  
G16  21684072.317 5 113950505.776 5     -2688.483          34.000  
G21  19974848.757 7 104968542.432 7      2333.496          46.000  
G23  24491407.645 5 128703149.282 5       204.085          30.000  
G26  24125787.246 5 126781862.937 5     -3173.160          33.000  
G27  20205560.319 7 106180899.844 7     -2630.942          43.000  
R14  20740856.626 5 110560345.281 5     -3060.990          32.000  
R15  18392253.803 5  98282384.465 5        12.774          35.000  
R17  18262621.605 5  97726880.426 5      -988.067          32.000  
R18  19316272.571 4               4      2767.486          27.000  
R19  22993263.866 4               4      4173.271          26.000  
R24  21555337.294 6 115266070.041 6     -4155.264          36.000  
E 5  25978405.219 5 136517364.511 5     -2878.237          32.000  
E10  23730202.473 6 124703055.636 6      -547.430          36.000  
E12  25177449.474 5 132308369.178 5     -1779.305          35.000  
J 2  38001941.169 5 199701541.418 5        62.500          31.000  
J 3  36412755.494 7 191350324.784 7      -465.632          43.000  
J 4  36749804.600 5 193121525.451 5      -364.947          35.000  
> 2024 11 28 10  5 47.9970000  0 19                     
G 2  21566921.362 7 113334936.176 7      3043.754          42.000  
G10  24470292.428 4 128592318.477 4      1569.229          29.000  
G16  21684583.800 5 113953193.493 5     -2687.572          34.000  
G21  19974404.701 7 104966208.992 7      2333.240          46.000  
G23  24491367.562 5 128702944.948 5       205.286          30.000  
G26  24126390.988 5 126785035.755 5     -3173.284          33.000  
G27  20206060.739 7 106183530.601 7     -2630.884          43.000  
R14  20741430.913 5 110563407.141 5     -3061.337          33.000  
R15  18392252.093 5  98282371.841 5        12.677          35.000  
R17  18262806.002 5  97727867.667 5      -987.711          32.000  
R18  19315756.987 4 103108732.13134      2767.634          28.000  
R19  22992486.389 4               4      4174.710          26.000  
R24  21556114.090 6 115270225.347 6     -4155.617          37.000  
E 5  25978952.772 5 136520242.399 5     -2877.954          32.000  
E10  23730306.686 6 124703602.794 6      -547.392          37.000  
E12  25177788.270 5 132310148.356 5     -1779.587          35.000  
J 2  38001934.207 5 199701478.862 5        63.007          31.000  
J 3  36412844.001 7 191350789.994 7      -465.106          43.000  
J 4  36749873.894 5 193121890.403 5      -365.096          35.000  
> 2024 11 28 10  5 48.9970000  0 19                     
G 2  21566342.311 7 113331892.610 7      3044.185          42.000  
G10  24469998.968 4 128590749.096 4      1569.645          29.000  
G16  21685095.528 5 113955881.231 5     -2686.868          34.000  
G21  19973960.576 7 104963875.948 7      2333.453          45.000  
G23  24491331.545 5 128702741.063 5       204.024          30.000  
G26  24126994.748 5 126788208.451 5     -3171.802          33.000  
G27  20206561.421 7 106186161.440 7     -2630.012          43.000  
R14  20742005.514 5 110566469.306 5     -3061.687          32.000  
R15  18392250.382 5  98282359.648 5        12.954          35.000  
R17  18262991.044 5  97728855.611 5      -987.479          32.000  
R18  19315241.665 4 103105965.16424      2766.889          28.000  
R19  22991702.525 4               4      4175.306          27.000  
R24  21556891.009 6 115274380.742 6     -4155.033          36.000  
E 5  25979500.517 5 136523119.939 5     -2876.963          32.000  
E10  23730411.213 6 124704150.301 6      -547.222          37.000  
E12  25178126.786 5 132311927.781 5     -1779.140          35.000  
J 2  38001922.498 5 199701449.60335        63.519          31.000  
J 3  36412932.648 7 191351251.63237      -464.526          43.000  
J 4  36749943.259 5 193122255.13235      -364.143          34.000  
> 2024 11 28 10  5 49.9970000  0 19                     
G 2  21565763.173 7 113328848.563 7      3044.052          42.000  
G10  24469700.814 4 128589179.221 4      1570.034          29.000  
G16  21685606.906 5 113958568.403 5     -2687.087          34.000  
G21  19973516.503 7 104961542.687 7      2333.002          45.000  
G23  24491291.008 5 128702536.809 5       205.006          30.000  
G26  24127598.526 5 126791380.472 5     -3171.633          34.000  
G27  20207062.050 7 106188791.788 7     -2630.498          43.000  
R14  20742580.237 5 110569531.054 5     -3061.745          32.000  
R15  18392248.184 5  98282347.222 5        12.183          35.000  
R17  18263175.597 5  97729843.612 5      -988.769          32.000  
R18  19314726.534 4 103103197.96924      2766.870          29.000  
R19  22990920.075 4 122985902.49434      4175.916          27.000  
R24  21557667.718 6 115278535.649 6     -4155.527          36.000  
E 5  25980048.367 5 136525996.529 5     -2876.500          33.000  
E10  23730515.129 6 124704697.480 6      -547.238          37.000  
E12  25178465.547 5 132313706.813 5     -1779.291          35.000  
J 2  38001910.405 5 199701385.91825        63.501          31.000  
J 3  36413021.121 7 191351716.03127      -464.265          43.000  
J 4  36750012.728 5 193122618.98225      -363.247          35.000  
> 2024 11 28 10  5 50.9970000  0 19                     
G 2  21565184.332 7 113325805.079 7      3043.358          42.000  
G10  24469399.448 4 128587609.926 4      1568.280          28.000  
G16  21686118.477 5 113961255.951 5     -2687.599          34.000  
G21  19973072.569 7 104959210.232 7      2332.043          45.000  
G23  24491248.465 5 128702333.415 5       202.930          30.000  
G26  24128202.652 5 126794552.841 5     -3172.830          34.000  
G27  20207562.941 7 106191422.623 7     -2631.129          43.000  
R14  20743154.960 5 110572593.413 5     -3062.235          32.000  
R15  18392246.299 5  98282335.596 5        10.673          34.000  
R17  18263349.890 5  97730832.628 5      -990.106          31.000  
R18  19314207.355 4 103100431.61824      2766.393          29.000  
R19  22990141.289 4 122981727.25424      4175.513          27.000  
R24  21558444.759 6 115282691.037 6     -4155.746          36.000  
E 5  25980595.815 5 136528873.202 5     -2876.822          33.000  
E10  23730619.184 6 124705245.450 6      -548.494          37.000  
E12  25178803.942 5 132315486.485 5     -1779.846          34.000  
J 2  38001898.538 5 199701322.43525        63.055          31.000  
J 3  36413109.593 7 191352180.78327      -464.917          43.000  
J 4  36750081.831 5 193122983.09325      -364.047          35.000  
> 2024 11 28 10  5 51.9970000  0 19                     
G 2  21564605.404 7 113322761.347 7      3043.833          42.000  
G10  24469100.648 4 128586040.241 4      1569.391          28.000  
G16  21686629.995 5 113963943.117 5     -2686.708          34.000  
G21  19972628.670 7 104956877.774 7      2332.330          46.000  
G23  24491210.004 5 128702129.919 5       203.605          30.000  
G26  24128806.238 5 126797724.728 5     -3172.103          34.000  
G27  20208063.379 7 106194053.153 7     -2630.620          43.000  
R14  20743729.683 5 110575655.644 5     -3061.916          32.000  
R15  18392244.083 5  98282323.893 5        12.233          34.000  
R17  18263531.320 5  97731821.878 5      -989.381          31.000  
R18  19313691.823 4 103097665.39824      2766.580          28.000  
R19  22989359.921 4 122977551.59824      4175.794          27.000  
R24  21559222.201 6 115286846.074 6     -4155.477          36.000  
E 5  25981142.827 5 136531749.150 5     -2875.259          33.000  
E10  23730723.153 6 124705793.323 6      -547.908          37.000  
E12  25179142.598 5 132317266.055 5     -1779.479          34.000  
J 2  38001886.969 5 199701258.33625        64.319          31.000  
J 3  36413198.049 7 191352645.02327      -464.001          43.000  
J 4  36750150.742 5 193123346.57025      -363.267          35.000  
> 2024 11 28 10  5 52.9970000  0 20                     
G 2  21564026.266 7 113319718.165 7      3042.525          42.000  
G10  24468798.602 4 128584471.153 4      1567.911          28.000  
G16  21687141.374 5 113966630.772 5     -2688.553          34.000  
G21  19972184.876 7 104954546.115 7      2330.927          46.000  
G23  24491169.363 5 128701927.256 5       201.503          30.000  
G26  24129409.754 5 126800896.909 5     -3172.641          34.000  
G27  20208563.868 7 106196684.163 7     -2631.719          43.000  
R14  20744304.144 5 110578718.512 5     -3063.978          31.000  
R15  18392242.390 5  98282313.029 5         9.023          33.000  
R16  20516703.367 4               4      2997.155          26.000  
R17  18263720.358 5  97732812.219 5      -991.391          31.000  
R18  19313177.792 4 103094900.08724      2764.325          28.000  
R19  22988579.198 4 122973376.30324      4174.769          27.000  
R24  21559999.590 6 115291001.578 6     -4156.120          36.000  
E 5  25981690.188 5 136534625.189 5     -2876.668          33.000  
E10  23730827.767 6 124706341.918 6      -549.261          37.000  
E12  25179481.272 5 132319046.275 5     -1780.857          34.000  
J 2  38001874.806 5 199701194.35625        63.538          31.000  
J 3  36413286.574 7 191353109.58827      -465.096          43.000  
J 4  36750219.827 5 193123710.24225      -364.374          34.000  
> 2024 11 28 10  5 53.9970000  0 20                     
G 2  21563447.355 7 113316676.107 7      3041.553          42.000  
G10  24468498.982 4 128582903.019 4      1568.165          29.000  
G16  21687653.206 5 113969319.338 5     -2688.690          34.000  
G21  19971741.833 7 104952215.833 7      2329.871          46.000  
G23  24491131.600 5 128701725.831 5       201.087          30.000  
G26  24130013.758 5 126804070.033 5     -3173.676          34.000  
G27  20209064.428 7 106199316.260 7     -2632.244          43.000  
R14  20744878.779 5 110581782.636 5     -3064.749          31.000  
R15  18392240.750 5  98282303.470 5         9.187          32.000  
R16  20516142.709 4 109593487.50534      2995.690          27.000  
R17  18263914.352 5  97733804.206 5      -992.796          32.000  
R18  19312663.726 4 103092136.19824      2763.439          27.000  
R19  22987798.126 4 122969201.98124      4173.890          28.000  
R24  21560777.137 6 115295158.192 6     -4157.006          36.000  
E 5  25982237.374 5 136537501.829 5     -2876.289          33.000  
E10  23730932.468 6 124706891.877 6      -550.714          37.000  
E12  25179820.522 5 132320827.726 5     -1782.077          34.000  
J 2  38001862.591 5 199701131.11825        63.269          31.000  
J 3  36413375.221 7 191353575.03127      -465.698          43.000  
J 4  36750288.826 5 193124074.67725      -364.288          34.000  
> 2024 11 28 10  5 54.9970000  0 20                     
G 2  21562868.409 7 113313634.573 7      3041.494          42.000  
G10  24468198.489 4 128581335.537 4      1567.807          29.000  
G16  21688165.091 5 113972008.352 5     -2688.824          34.000  
G21  19971298.528 7 104949886.336 7      2329.517          46.000  
G23  24491095.287 4 128701525.253 4       200.437          29.000  
G26  24130617.710 5 126807243.470 5     -3172.940          34.000  
G27  20209565.022 7 106201948.856 7     -2632.484          43.000  
R14  20745453.450 5 110584847.329 5     -3065.378          30.000  
R15  18392238.848 5  98282294.773 5         9.167          32.000  
R16  20515586.239 4 109590492.18424      2995.985          27.000  
R17  18264096.742 5  97734797.294 5      -993.283          32.000  
R18  19312147.706 4 103089372.64314      2763.909          27.000  
R19  22987016.199 4 122965028.00024      4174.152          28.000  
R24  21561554.440 6 115299315.315 6     -4156.913          36.000  
E 5  25982784.596 5 136540378.567 5     -2876.383          33.000  
E10  23731037.047 6 124707442.499 6      -550.422          37.000  
E12  25180159.876 5 132322609.773 5     -1781.896          34.000  
J 2  38001850.620 5 199701068.08025        62.750          31.000  
J 3  36413463.972 7 191354040.78527      -465.525          43.000  
J 4  36750358.016 5 193124439.28225      -364.301          34.000  
> 2024 11 28 10  5 55.9970000  0 20                     
G 2  21562289.550 7 113310592.906 7      3041.427          42.000  
G10  24467904.296 5 128579767.878 5      1566.701          30.000  
G16  21688677.063 5 113974697.125 5     -2689.379          34.000  
G21  19970855.484 7 104947556.975 7      2328.931          46.000  
G23  24491061.084 5 128701324.675 5       200.942          30.000  
G26  24131221.523 5 126810416.521 5     -3172.975          34.000  
G27  20210065.966 7 106204581.256 7     -2632.740          43.000  
R14  20746027.422 5 110587911.991 5     -3064.983          30.000  
R15  18392236.422 5  98282286.196 5         8.693          32.000  
R16  20515024.569 4 109587496.65724      2995.234          27.000  
R17  18264282.220 5  97735790.758 5      -993.580          32.000  
R18  19311630.202 4               4      2761.763          25.000  
R19  22986237.885 4 122960853.72824      4174.048          28.000  
R24  21562332.021 6 115303472.272 6     -4157.567          36.000  
E 5  25983331.852 5 136543254.686 5     -2876.034          33.000  
E10  23731141.853 6 124707993.215 6      -551.126          37.000  
E12  25180499.091 5 132324391.834 5     -1782.576          34.000  
J 2  38001838.754 5 199701003.95215        64.050          31.000  
J 3  36413552.515 7 191354505.66017      -465.425          43.000  
J 4  36750427.503 5 193124803.404 5      -363.966          34.000  
> 2024 11 28 10  5 56.9970000  0 20                     
G 2  21561710.919 7 113307551.366 7      3041.658          42.000  
G10  24467607.834 5 128578200.241 5      1568.163          30.000  
G16  21689188.668 5 113977385.844 5     -2688.310          34.000  
G21  19970412.039 7 104945227.971 7      2328.973          46.000  
G23  24491022.240 5 128701124.455 5       200.951          30.000  
G26  24131825.475 5 126813589.512 5     -3173.091          34.000  
G27  20210566.909 7 106207213.718 7     -2632.399          43.000  
R14  20746596.841 5 110590976.862 5     -3064.724          30.000  
R15  18392234.415 5  98282278.065 5         7.731          31.000  
R16  20514459.496 4 109584501.01924      2995.939          27.000  
R17  18264468.309 5  97736784.827 5      -993.497          32.000  
R18  19311113.432 4               4      2761.467          24.000  
R19  22985457.546 4 122956678.87514      4174.750          28.000  
R24  21563109.359 6 115307629.296 6     -4157.104          36.000  
E 5  25983879.161 5 136546130.447 5     -2875.206          33.000  
E10  23731247.043 6 124708544.197 6      -550.844          37.000  
E12  25180838.166 5 132326174.105 5     -1782.271          34.000  
J 2  38001826.504 5 199700940.093 5        64.172          31.000  
J 3  36413641.110 7 191354970.923 7      -465.077          43.000  
J 4  36750496.693 5 193125167.309 5      -363.908          34.000  
> 2024 11 28 10  5 57.9970000  0 20                     
G 2  21561132.269 7 113304509.870 7      3040.938          42.000  
G10  24467312.350 5 128576632.631 5      1567.393          31.000  
G16  21689700.535 5 113980074.479 5     -2688.769          34.000  
G21  19969968.804 7 104942899.265 7      2328.119          46.000  
G23  24490988.491 5 128700924.518 5       199.802          30.000  
G26  24132429.427 5 126816762.280 5     -3172.929          34.000  
G27  20211067.922 7 106209846.168 7     -2632.843          43.000  
R14  20747174.024 5 110594041.869 5     -3065.666          30.000  
R15  18392232.356 5  98282270.163 5         7.320          32.000  
R16  20513897.093 4 109581505.30324      2995.080          27.000  
R17  18264653.875 5  97737779.497 5      -995.024          32.000  
R18  19310598.703 3               3      2759.259          23.000  
R19  22984675.375 4 122952504.392 4      4174.042          28.000  
R24  21563886.871 6 115311786.267 6     -4157.692          37.000  
E 5  25984426.591 5 136549005.768 5     -2875.659          32.000  
E10  23731351.901 6 124709095.429 6      -551.628          36.000  
E12  25181177.311 5 132327956.522 5     -1782.812          34.000  
J 2  38001814.306 5 199700875.955 5        62.994          31.000  
J 3  36413729.582 7 191355435.985 7      -465.445          43.000  
J 4  36750565.761 5 193125530.857 5      -363.745          34.000  
> 2024 11 28 10  5 58.9970000  0 20                     
G 2  21560553.550 7 113301469.008 7      3040.458          42.000  
G10  24467013.201 5 128575065.654 5      1566.862          31.000  
G16  21690212.525 5 113982763.642 5     -2689.195          34.000  
G21  19969525.847 7 104940571.451 7      2327.454          46.000  
G23  24490952.177 5 128700725.377 5       199.935          30.000  
G26  24133033.431 5 126819935.501 5     -3173.418          34.000  
G27  20211569.092 7 106212479.202 7     -2633.121          43.000  
R14  20747749.253 5 110597107.633 5     -3065.709          31.000  
R15  18392230.507 5  98282263.128 5         6.557          32.000  
R16  20513332.648 4 109578509.97624      2995.517          27.000  
R17  18264840.749 5  97738775.265 5      -995.845          31.000  
R18  19310082.996 3               3      2761.829          23.000  
R19  22983894.722 4 122948330.367 4      4173.908          28.000  
R24  21564664.644 6 115315943.819 6     -4157.910          36.000  
E 5  25984973.883 5 136551881.234 5     -2875.058          32.000  
E10  23731456.603 6 124709647.500 6      -552.431          36.000  
E12  25181516.736 5 132329739.693 5     -1783.551          34.000  
J 2  38001802.248 5 199700811.952 5        64.752          31.000  
J 3  36413818.177 7 191355901.456 7      -465.666          43.000  
J 4  36750634.968 5 193125894.694 5      -363.774          34.000  
> 2024 11 28 10  5 59.9970000  0 20                     
G 2  21559975.146 7 113298428.478 7      3040.502          42.000  
G10  24466717.908 5 128573498.996 5      1566.254          31.000  
G16  21690724.392 5 113985453.046 5     -2689.830          35.000  
G21  19969083.118 7 104938244.226 7      2326.782          45.000  
G23  24490913.298 5 128700526.855 5       198.154          30.000  
G26  24133637.261 5 126823108.812 5     -3173.602          34.000  
G27  20212070.106 7 106215112.537 7     -2633.494          43.000  
R14  20748330.136 5 110600173.883 5     -3066.633          32.000  
R15  18392229.215 5  98282256.703 5         6.079          32.000  
R16  20512771.344 4 109575514.88724      2995.009          27.000  
R17  18265026.699 5  97739771.924 5      -997.605          31.000  
R18  19309567.848 4               4      2759.267          25.000  
R19  22983114.104 4 122944156.503 4      4173.633          28.000  
R24  21565442.366 6 115320101.662 6     -4157.903          36.000  
E 5  25985521.209 5 136554756.589 5     -2875.135          33.000  
E10  23731561.583 6 124710200.070 6      -552.838          36.000  
E12  25181856.090 5 132331523.299 5     -1783.974          34.000  
J 2  38001789.143 5 199700747.979 5        64.014          32.000  
J 3  36413906.684 7 191356367.026 7      -465.737          43.000  
J 4  36750704.176 5 193126258.544 5      -364.074          34.000  
> 2024 11 28 10  6  0.9970000  0 20                     
G 2  21559396.287 7 113295387.955 7      3040.846          42.000  
G10  24466424.954 5 128571932.251 5      1567.183          32.000  
G16  21691236.521 5 113988142.220 5     -2688.893          35.000  
G21  19968640.039 7 104935917.232 7      2327.289          45.000  
G23  24490876.059 5 128700328.460 5       199.223          30.000  
G26  24134241.126 5 126826281.913 5     -3172.475          34.000  
G27  20212570.874 7 106217745.797 7     -2632.751          42.000  
R14  20748909.884 5 110603240.131 5     -3065.879          32.000  
R15  18392227.749 5  98282250.443 5         6.923          33.000  
R16  20512209.866 4 109572519.08014      2995.239          27.000  
R17  18265216.575 5  97740769.062 5      -997.389          31.000  
R18  19309050.676 4               4      2759.358          26.000  
R19  22982334.184 4 122939982.412 4      4174.970          29.000  
R24  21566219.930 6 115324259.464 6     -4157.328          36.000  
E 5  25986068.064 5 136557631.461 5     -2874.263          32.000  
E10  23731666.791 6 124710752.823 6      -552.512          36.000  
E12  25182195.689 5 132333307.001 5     -1783.799          34.000  
J 2  38001777.975 5 199700691.10615        64.880          32.000  
J 3  36413995.244 7 191356835.84137      -464.938          43.000  
J 4  36750773.331 5 193126617.01035      -363.455          34.000  
> 2024 11 28 10  6  1.9970000  0 20                     
G 2  21558817.411 7 113292347.146 7      3040.529          42.000  
G10  24466126.695 5 128570365.212 5      1567.323          32.000  
G16  21691748.632 5 113990831.028 5     -2688.951          35.000  
G21  19968197.257 7 104933590.230 7      2326.550          46.000  
G23  24490837.966 5 128700130.039 5       198.698          30.000  
G26  24134845.060 5 126829454.511 5     -3172.981          34.000  
G27  20213071.731 7 106220378.745 7     -2633.359          42.000  
R14  20749492.634 5 110606306.190 5     -3066.185          33.000  
R15  18392226.214 5  98282244.199 5         5.855          33.000  
R16  20511650.081 4 109569523.259 4      2996.035          27.000  
R17  18265406.189 5  97741766.435 5      -998.208          32.000  
R18  19308529.037 4 103070188.83134      2759.548          28.000  
R19  22981554.578 4 122935807.862 4      4174.286          29.000  
R24  21566997.529 6 115328416.921 6     -4157.453          37.000  
E 5  25986615.285 5 136560505.544 5     -2873.717          33.000  
E10  23731771.632 6 124711305.495 6      -553.314          36.000  
E12  25182534.781 5 132335090.521 5     -1783.827          34.000  
J 2  38001766.667 5 199700626.029 5        65.649          32.000  
J 3  36414083.874 7 191357300.64827      -465.006          43.000  
J 4  36750842.294 5 193126979.81025      -363.012          34.000  
> 2024 11 28 10  6  2.9970000  0 20                     
G 2  21558238.954 7 113289306.887 7      3039.965          42.000  
G10  24465831.175 5 128568798.685 5      1566.141          32.000  
G16  21692261.006 5 113993520.209 5     -2689.230          35.000  
G21  19967754.598 7 104931264.010 7      2325.946          45.000  
G23  24490800.011 5 128699932.348 5       197.935          30.000  
G26  24135449.239 5 126832627.392 5     -3172.482          34.000  
G27  20213572.779 7 106223012.135 7     -2633.391          42.000  
R14  20750069.312 5 110609372.872 5     -3066.635          32.000  
R15  18392224.818 5  98282238.710 5         4.546          32.000  
R16  20511089.632 4 109566527.866 4      2995.690          27.000  
R17  18265599.014 5  97742764.816 5      -998.669          32.000  
R18  19308008.445 4 103067429.67924      2759.102          29.000  
R19  22980772.075 4 122931633.692 4      4173.896          29.000  
R24  21567775.146 6 115332574.850 6     -4158.389          36.000  
E 5  25987161.826 5 136563379.710 5     -2874.438          33.000  
E10  23731877.083 6 124711858.846 6      -553.432          36.000  
E12  25182874.275 5 132336874.681 5     -1784.621          34.000  
J 2  38001753.667 5 199700561.14825        64.703          31.000  
J 3  36414172.259 7 191357765.74727      -465.126          43.000  
J 4  36750911.345 5 193127342.80425      -363.065          34.000  
> 2024 11 28 10  6  3.9970000  0 20                     
G 2  21557660.514 7 113286266.989 7      3039.705          42.000  
G10  24465535.150 5 128567232.498 5      1565.882          33.000  
G16  21692773.344 6 113996209.659 6     -2689.585          36.000  
G21  19967311.973 7 104928938.426 7      2325.208          46.000  
G23  24490766.594 5 128699735.314 5       196.262          30.000  
G26  24136053.104 5 126835800.463 5     -3173.174          34.000  
G27  20214074.001 7 106225645.885 7     -2633.991          42.000  
R14  20750649.148 5 110612440.076 5     -3067.828          31.000  
R15  18392223.317 5  98282233.878 5         4.173          32.000  
R16  20510530.998 4 109563532.730 4      2994.840          28.000  
R17  18265783.113 5  97743764.136 5      -999.447          32.000  
R18  19307488.393 5 103064671.24225      2758.844          30.000  
R19  22979993.202 4 122927459.718 4      4173.547          29.000  
R24  21568552.378 6 115336733.084 6     -4158.868          36.000  
E 5  25987708.559 5 136566253.772 5     -2874.311          33.000  
E10  23731982.325 6 124712412.803 6      -554.142          36.000  
E12  25183213.822 5 132338659.321 5     -1784.716          34.000  
J 2  38001740.090 5 199700496.21225        65.112          32.000  
J 3  36414260.662 7 191358230.99127      -465.375          43.000  
J 4  36750980.273 5 193127705.82325      -363.064          34.000  
> 2024 11 28 10  6  4.9970000  0 20                     
G 2  21557082.144 7 113283227.425 7      3039.628          42.000  
G10  24465232.930 5 128565666.557 5      1566.416          33.000  
G16  21693285.683 5 113998899.320 5     -2689.945          35.000  
G21  19966869.313 7 104926613.401 7      2325.073          46.000  
G23  24490723.108 5 128699538.735 5       196.647          30.000  
G26  24136656.951 5 126838973.580 5     -3172.258          34.000  
G27  20214575.067 7 106228279.883 7     -2633.945          42.000  
R14  20751222.666 5 110615507.721 5     -3067.648          30.000  
R15  18392218.989 5  98282229.648 5         3.950          31.000  
R16  20509970.358 4 109560537.720 4      2995.079          27.000  
R17  18265969.621 5  97744764.326 5     -1000.573          32.000  
R18  19306972.722 5 103061913.51025      2757.696          30.000  
R19  22979211.659 4 122923285.829 4      4174.335          29.000  
R24  21569330.344 6 115340891.536 6     -4158.649          36.000  
E 5  25988255.797 5 136569127.651 5     -2873.742          33.000  
E10  23732087.899 6 124712967.244 6      -554.419          36.000  
E12  25183553.106 5 132340444.403 5     -1785.419          34.000  
J 2  38001728.032 5 199700431.25725        65.088          31.000  
J 3  36414349.170 7 191358696.30927      -465.218          43.000  
J 4  36751049.114 5 193128068.80925      -362.902          34.000  
> 2024 11 28 10  6  5.9970000  0 20                     
G 2  21556503.809 7 113280188.042 7      3039.348          42.000  
G10  24464933.466 5 128564100.834 5      1566.347          34.000  
G16  21693798.073 5 114001588.965 5     -2689.401          35.000  
G21  19966426.950 7 104924288.819 7      2324.567          45.000  
G23  24490686.149 5 128699342.529 5       196.818          30.000  
G26  24137261.043 5 126842146.752 5     -3173.554          34.000  
G27  20215076.307 7 106230914.021 7     -2634.005          42.000  
R14  20751795.034 4 110618575.630 4     -3067.898          29.000  
R15  18392205.256 5  98282225.805 5         3.852          31.000  
R16  20509411.183 4 109557542.666 4      2995.701          27.000  
R17  18266157.264 5  97745765.181 5     -1001.460          32.000  
R18  19306452.129 5 103059156.20125      2757.002          30.000  
R19  22978432.559 4 122919111.945 4      4174.036          29.000  
R24  21570108.013 6 115345050.160 6     -4158.220          37.000  
E 5  25988802.670 5 136572001.232 5     -2872.847          33.000  
E10  23732193.211 6 124713522.041 6      -554.628          36.000  
E12  25183892.897 5 132342229.712 5     -1784.880          34.000  
J 2  38001715.555 5 199700366.03725        65.649          32.000  
J 3  36414437.625 7 191359161.58527      -465.154          43.000  
J 4  36751118.077 5 193128431.57925      -362.343          34.000  
> 2024 11 28 10  6  6.9970000  0 20                     
G 2  21555925.124 7 113277148.530 7      3039.217          42.000  
G10  24464633.550 5 128562534.938 5      1565.625          33.000  
G16  21694310.464 5 114004278.393 5     -2689.228          35.000  
G21  19965984.587 7 104921964.366 7      2324.139          45.000  
G23  24490646.118 5 128699146.532 5       195.514          30.000  
G26  24137864.821 5 126845319.488 5     -3172.743          34.000  
G27  20215577.250 7 106233547.994 7     -2634.331          42.000  
R14  20752368.465 4 110621643.548 4     -3068.390          29.000  
R15  18392206.705 5  98282222.094 5         3.387          31.000  
R16  20508852.671 4 109554547.330 4      2995.844          26.000  
R17  18266342.550 5  97746766.401 5     -1001.315          32.000  
R18  19305936.039 4 103056399.12324      2756.755          29.000  
R19  22977651.400 4 122914937.806 4      4174.146          29.000  
R24  21570885.525 6 115349208.598 6     -4158.691          36.000  
E 5  25989349.769 5 136574874.256 5     -2872.972          33.000  
E10  23732298.628 6 124714076.921 6      -554.892          36.000  
E12  25184232.583 5 132344015.058 5     -1785.532          34.000  
J 2  38001704.143 5 199700300.36425        65.845          32.000  
J 3  36414526.307 7 191359626.50227      -465.153          43.000  
J 4  36751187.006 5 193128793.90025      -362.423          34.000  
> 2024 11 28 10  6  7.9970000  0 20                     
G 2  21555346.859 7 113274109.454 7      3038.840          42.000  
G10  24464334.366 5 128560969.397 5      1565.255          33.000  
G16  21694822.750 5 114006968.134 5     -2689.950          35.000  
G21  19965542.312 7 104919640.570 7      2323.743          45.000  
G23  24490610.136 5 128698951.055 5       195.000          30.000  
G26  24138468.755 5 126848492.450 5     -3172.961          34.000  
G27  20216078.264 7 106236182.315 7     -2634.545          42.000  
R14  20752940.920 4 110624711.961 4     -3069.092          28.000  
R15  18392210.369 5  98282219.065 5         2.786          31.000  
R16  20508292.729 4 109551552.291 4      2995.034          26.000  
R17  18266529.739 5  97747768.605 5     -1003.340          32.000  
R18  19305419.652 4 103053642.81524      2756.083          27.000  
R19  22976870.939 4 122910763.880 4      4174.024          29.000  
R24  21571663.194 6 115353367.358 6     -4158.892          37.000  
E 5  25989896.729 5 136577747.178 5     -2872.200          33.000  
E10  23732404.568 6 124714632.412 6      -555.653          36.000  
E12  25184572.286 5 132345800.932 5     -1785.987          34.000  
J 2  38001691.212 5 199700234.17615        65.839          32.000  
J 3  36414614.971 7 191360091.09017      -465.183          43.000  
J 4  36751256.161 5 193129156.283 5      -362.393          35.000  
> 2024 11 28 10  6  8.9970000  0 20                     
G 2  21554768.332 7 113271070.557 7      3039.177          42.000  
G10  24464036.194 5 128559404.035 5      1566.040          33.000  
G16  21695334.670 5 114009657.926 5     -2689.779          35.000  
G21  19965100.088 7 104917317.236 7      2323.572          45.000  
G23  24490567.749 5 128698755.981 5       196.442          30.000  
G26  24139072.358 5 126851665.376 5     -3172.187          34.000  
G27  20216579.486 7 106238816.765 7     -2633.949          42.000  
R14  20753514.142 4 110627780.613 4     -3068.233          29.000  
R15  18392214.470 5  98282216.417 5         3.307          32.000  
R16  20507730.308 4               4      2995.490          25.000  
R17  18266716.805 5  97748771.428 5     -1003.034          31.000  
R18  19304901.678 4               4      2756.557          25.000  
R19  22976090.670 4 122906589.980 4      4174.652          29.000  
R24  21572440.723 6 115357526.257 6     -4158.482          36.000  
E 5  25990443.601 5 136580619.873 5     -2872.365          33.000  
E10  23732510.090 6 124715188.267 6      -555.758          36.000  
E12  25184912.077 5 132347587.107 5     -1786.251          34.000  
J 2  38001678.980 5 199700168.336 5        66.772          32.000  
J 3  36414703.322 7 191360556.133 7      -464.719          43.000  
J 4  36751325.194 5 193129518.505 5      -361.649          34.000  
> 2024 11 28 10  6  9.9970000  0 19                     
G 2  21554189.578 7 113268030.473 7      3040.563          42.000  
G10  24463737.725 5 128557837.469 5      1567.425          33.000  
G16  21695846.554 5 114012346.338 5     -2687.102          34.000  
G21  19964657.638 7 104914992.953 7      2324.756          45.000  
G23  24490532.692 5 128698560.025 5       196.331          30.000  
G26  24139675.891 5 126854836.874 5     -3170.469          34.000  
G27  20217080.534 7 106241449.982 7     -2632.422          42.000  
R14  20754087.504 4 110630848.256 4     -3067.346          29.000  
R15  18392218.588 5  98282212.886 5         3.881          33.000  
R16  20507164.834 4               4      2997.014          24.000  
R17  18266903.924 5  97749773.613 5     -1002.141          31.000  
R19  22975309.215 4 122902414.682 4      4176.032          29.000  
R24  21573218.357 6 115361683.936 6     -4156.952          36.000  
E 5  25990990.299 5 136583490.839 5     -2870.075          33.000  
E10  23732615.681 6 124715743.110 6      -554.359          36.000  
E12  25185251.990 5 132349372.137 5     -1784.243          34.000  
J 2  38001665.997 5 199700100.924 5        67.725          32.000  
J 3  36414791.288 7 191361019.739 7      -462.940          43.000  
J 4  36751393.983 5 193129879.141 5      -359.918          34.000  
> 2024 11 28 10  6 10.9970000  0 19                     
G 2  21553610.824 7 113264989.842 7      3039.987          42.000  
G10  24463439.344 5 128556270.311 5      1566.127          33.000  
G16  21696357.881 5 114015034.141 5     -2687.893          33.000  
G21  19964215.013 7 104912668.373 7      2323.730          45.000  
G23  24490492.835 5 128698363.647 5       195.756          30.000  
G26  24140279.006 5 126858007.652 5     -3171.198          33.000  
G27  20217581.059 7 106244082.618 7     -2633.253          42.000  
R14  20754659.277 5 110633915.316 5     -3068.826          30.000  
R15  18392219.740 5  98282209.017 5         2.334          33.000  
R16  20506599.726 4               4      2998.948          24.000  
R17  18267091.112 5  97750775.775 5     -1003.646          31.000  
R19  22974527.043 4 122898238.714 4      4174.860          29.000  
R24  21573995.607 6 115365840.971 6     -4157.757          36.000  
E 5  25991536.840 5 136586360.806 5     -2870.551          33.000  
E10  23732721.098 6 124716297.580 6      -555.186          36.000  
E12  25185591.693 5 132351156.782 5     -1785.451          34.000  
J 2  38001653.153 5 199700032.546 5        67.889          32.000  
J 3  36414879.307 7 191361482.578 7      -463.477          43.000  
J 4  36751462.510 5 193130238.933 5      -361.068          34.000  
> 2024 11 28 10  6 11.9970000  0 19                     
G 2  21553032.350 7 113261950.660 7      3038.965          45.000  
G10  24463140.771 6 128554704.522 6      1565.928          36.000  
G16  21696869.224 6 114017723.246 6     -2688.989          36.000  
G21  19963772.179 8 104910345.481 8      2322.589          48.000  
G23  24490460.517 5 128698168.966 5       194.327          33.000  
G26  24140882.452 6 126861179.627 6     -3171.878          37.000  
G27  20218082.613 7 106246716.608 7     -2634.031          45.000  
R14  20755235.920 5 110636983.881 5     -3068.783          35.000  
R15  18392223.090 6  98282206.812 6         1.861          39.000  
R16  20506032.699 4               4      2995.972          26.000  
R17  18267278.423 6  97751779.855 6     -1004.214          36.000  
R19  22973749.566 5 122894063.947 5      4174.354          34.000  
R24  21574773.398 6 115369999.440 6     -4158.486          40.000  
E 5  25992083.346 6 136589231.703 6     -2870.639          36.000  
E10  23732827.056 6 124716853.703 6      -556.283          40.000  
E12  25185931.414 6 132352942.921 6     -1786.287          37.000  
J 2  38001640.485 6 199699965.256 6        67.413          36.000  
J 3  36414967.693 7 191361946.610 7      -464.150          46.000  
J 4  36751531.124 6 193130599.754 6      -360.975          37.000  
> 2024 11 28 10  6 12.9970000  0 18                     
G 2  21552454.154 7 113258911.580 7      3038.994          44.000  
G10  24462842.145 5 128553138.836 5      1565.763          35.000  
G16  21697380.219 5 114020412.339 5     -2689.369          33.000  
G21  19963330.252 7 104908022.952 7      2322.217          47.000  
G23  24490420.050 5 128697974.571 5       194.150          32.000  
G26  24141486.142 6 126864351.503 6     -3172.345          36.000  
G27  20218583.609 7 106249350.669 7     -2634.298          45.000  
R14  20755807.973 5 110640052.702 5     -3068.908          35.000  
R15  18392222.410 6  98282204.973 6         1.655          39.000  
R17  18267463.290 5  97752784.576 5     -1004.977          35.000  
R19  22972966.558 5 122889889.108 5      4175.220          34.000  
R24  21575550.945 6 115374157.969 6     -4158.898          40.000  
E 5  25992629.572 5 136592102.268 5     -2870.492          35.000  
E10  23732932.664 6 124717410.094 6      -556.547          40.000  
E12  25186271.257 6 132354729.286 6     -1786.416          36.000  
J 2  38001627.763 5 199699901.17935        67.413          34.000  
J 3  36415055.921 7 191362410.01137      -463.939          46.000  
J 4  36751599.773 6 193130960.33236      -360.562          37.000  
> 2024 11 28 10  6 13.9970000  0 19                     
G 2  21551876.011 7 113255872.890 7      3038.752          45.000  
G10  24462543.659 5 128551573.517 5      1564.661          35.000  
G16  21697891.615 5 114023101.682 5     -2689.355          34.000  
G21  19962888.657 8 104905701.054 8      2321.747          48.000  
G23  24490384.557 5 128697780.750 5       194.109          32.000  
G26  24142089.867 6 126867523.481 6     -3171.947          37.000  
G27  20219084.988 7 106251985.037 7     -2634.360          45.000  
R14  20756383.795 5 110643122.019 5     -3069.313          35.000  
R15  18392222.026 6  98282203.766 6         1.267          38.000  
R17  18267647.634 5  97753790.187 5     -1005.823          35.000  
R18  19302314.473 3               3      2755.443          23.000  
R19  22972181.630 5 122885714.558 5      4174.066          34.000  
R24  21576328.649 6 115378316.772 6     -4158.861          40.000  
E 5  25993175.991 6 136594972.696 6     -2869.985          36.000  
E10  23733038.622 6 124717967.058 6      -557.121          39.000  
E12  25186611.239 6 132356516.145 6     -1786.857          36.000  
J 2  38001614.868 5 199699833.57025        67.859          34.000  
J 3  36415144.045 7 191362874.05927      -464.011          46.000  
J 4  36751668.510 6 193131320.93926      -360.700          37.000  
> 2024 11 28 10  6 14.9970000  0 20                     
G 2  21551297.501 7 113252834.482 7      3038.022          43.000  
G10  24462244.894 5 128550008.408 5      1564.187          33.000  
G16  21698402.627 5 114025791.115 5     -2689.459          33.000  
G21  19962447.201 7 104903379.680 7      2320.917          47.000  
G23  24490348.522 5 128697587.492 5       191.962          31.000  
G26  24142693.942 6 126870695.530 6     -3172.309          36.000  
G27  20219586.508 7 106254619.639 7     -2635.042          44.000  
R14  20756957.663 5 110646191.731 5     -3070.258          34.000  
R15  18392222.183 6  98282203.089 6        -0.058          38.000  
R16  20504340.132 4               4      2993.811          25.000  
R17  18267835.311 5  97754796.571 5     -1007.111          34.000  
R18  19301796.795 4               4      2754.619          25.000  
R19  22971402.791 5 122881540.042 5      4173.536          34.000  
R24  21577106.545 6 115382475.792 6     -4159.482          40.000  
E 5  25993722.340 5 136597842.947 5     -2870.328          35.000  
E10  23733144.527 6 124718524.472 6      -557.764          38.000  
E12  25186951.362 6 132358303.380 6     -1787.638          36.000  
J 2  38001601.728 5 199699765.85325        67.865          34.000  
J 3  36415232.220 7 191363338.14027      -464.281          44.000  
J 4  36751737.106 6 193131681.46726      -361.151          36.000  
> 2024 11 28 10  6 15.9970000  0 20                     
G 2  21550719.637 7 113249796.506 7      3037.556          43.000  
G10  24461946.617 5 128548443.647 5      1563.930          33.000  
G16  21698913.744 5 114028480.891 5     -2689.665          33.000  
G21  19962005.641 7 104901059.001 7      2320.386          47.000  
G23  24490310.254 5 128697394.807 5       192.209          31.000  
G26  24143297.440 6 126873867.794 6     -3172.225          36.000  
G27  20220087.626 7 106257254.601 7     -2635.091          44.000  
R14  20757534.114 5 110649261.978 5     -3070.488          34.000  
R15  18392221.834 6  98282203.049 6         0.125          38.000  
R16  20503776.909 4               4      2997.007          26.000  
R17  18268022.587 5  97755803.905 5     -1007.690          34.000  
R18  19301280.234 4               4      2753.037          26.000  
R19  22970623.220 5 122877365.769 5      4173.993          34.000  
R24  21577884.371 6 115386635.192 6     -4159.689          40.000  
E 5  25994268.567 5 136600713.158 5     -2870.120          35.000  
E10  23733250.380 6 124719082.523 6      -558.403          38.000  
E12  25187291.850 5 132360091.136 5     -1787.786          35.000  
J 2  38001588.762 5 199699698.23125        67.328          33.000  
J 3  36415320.850 7 191363802.41927      -464.403          44.000  
J 4  36751805.825 6 193132042.04126      -360.642          36.000  
> 2024 11 28 10  6 16.9970000  0 20                     
G 2  21550141.808 7 113246759.060 7      3037.415          43.000  
G10  24461648.271 5 128546879.453 5      1564.289          32.000  
G16  21699425.210 5 114031171.047 5     -2689.604          33.000  
G21  19961564.273 7 104898739.105 7      2319.910          47.000  
G23  24490273.887 5 128697202.895 5       192.032          30.000  
G26  24143901.235 6 126877040.382 6     -3172.575          36.000  
G27  20220588.866 7 106259890.066 7     -2635.219          43.000  
R14  20758107.964 5 110652332.873 5     -3070.890          33.000  
R15  18392221.485 6  98282203.839 6        -0.868          37.000  
R16  20503212.900 4               4      2995.639          25.000  
R17  18268209.252 5  97756812.349 5     -1008.441          34.000  
R18  19300762.922 4 103028717.23334      2752.032          27.000  
R19  22969849.321 5 122873191.874 5      4173.884          33.000  
R24  21578662.197 6 115390795.104 6     -4159.711          40.000  
E 5  25994814.828 5 136603583.395 5     -2869.697          34.000  
E10  23733356.809 6 124719641.281 6      -558.838          38.000  
E12  25187632.147 5 132361879.534 5     -1788.206          35.000  
J 2  38001575.692 5 199699630.67725        68.268          33.000  
J 3  36415409.183 7 191364266.98727      -464.202          44.000  
J 4  36751874.649 6 193132402.82126      -360.739          36.000  
