     3.03           OBSERVATION DATA    M: Mixed            RINEX VERSION / TYPE
Emlid RGL 1.2.7                         20241128 101723 UTC PGM / RUN BY / DATE 
format: u-blox                                              COMMENT             
                                                            MARKER NAME         
                                                            MARKER NUMBER       
                                                            MARKER TYPE         
                                                            OBSERVER / AGENCY   
                    EMLID REACH M+                          REC # / TYPE / VERS 
                                                            ANT # / TYPE        
        0.0000        0.0000        0.0000                  APPROX POSITION XYZ 
        0.0000        0.0000        0.0000                  ANTENNA: DELTA H/E/N
G    4 C1C L1C D1C S1C                                      SYS / # / OBS TYPES 
R    4 C1C L1C D1C S1C                                      SYS / # / OBS TYPES 
E    4 C1C L1C D1C S1C                                      SYS / # / OBS TYPES 
J    4 C1C L1C D1C S1C                                      SYS / # / OBS TYPES 
C    4 C1I L1I D1I S1I                                      SYS / # / OBS TYPES 
  2024    11    28    10    17   19.4010000     GPS         TIME OF FIRST OBS   
  2024    11    28    10    17   41.0010000     GPS         TIME OF LAST OBS    
G                                                           SYS / PHASE SHIFT   
R                                                           SYS / PHASE SHIFT   
E                                                           SYS / PHASE SHIFT   
J                                                           SYS / PHASE SHIFT   
C                                                           SYS / PHASE SHIFT   
  0                                                         GLONASS SLOT / FRQ #
 C1C    0.000 C1P    0.000 C2C    0.000 C2P    0.000        GLONASS COD/PHS/BIS 
                                                            END OF HEADER       
> 2024 11 28 10 17 19.4010000  0 18                     
G 2  22600032.448 6 118764012.12916      3103.287          38.000  
G10  25695782.184 6 135032280.809 6      1653.710          40.000  
G16  23464674.352 6 123307700.12916     -2511.510          38.000  
G21  21112319.004 7 110946013.25117      2221.826          43.000  
G23  25907076.331 5 136142633.08715       131.287          34.000  
G26  25966097.557 3               3     -2929.292          20.000  
G27  21981588.251 8 115514005.51718     -2493.874          48.000  
R14  22574905.101 4 120336860.751 4     -3032.863          29.000  
R15  19834732.130 7 105990722.738 7       -86.270          42.000  
R17  19844969.448 5 106194417.29015     -1237.161          33.000  
R24  23521888.570 6 125782094.63216     -3997.178          41.000  
E10  25243084.524 7 132653321.077 7      -587.487          45.000  
E11  24267495.934 6 127526573.679 6      1002.759          39.000  
E12  26848626.638 6 141090468.043 6     -1755.465          41.000  
E24  26333019.522 6 138380960.177 6     -1551.828          37.000  
J 2  39408728.322 6 207094262.12916       411.588          38.000  
J 3  37895765.477 7 199143592.45817      -217.171          43.000  
J 4  38214070.989 5 200816296.504 5       -32.566          32.000  
> 2024 11 28 10 17 19.6010000  0 18                     
G 2  22599914.467 6 118763391.475 6      3103.068          38.000  
G10  25695721.178 6 135031950.103 6      1653.654          41.000  
G16  23464769.717 6 123308202.376 6     -2510.918          38.000  
G21  21112234.388 7 110945568.946 7      2221.606          43.000  
G23  25907070.171 5 136142606.502 5       133.401          33.000  
G26  25966209.604 3               3     -2935.266          20.000  
G27  21981683.355 8 115514504.268 8     -2493.456          48.000  
R14  22575018.719 4 120337467.366 4     -3033.064          29.000  
R15  19834735.306 7 105990740.018 7       -85.975          42.000  
R17  19845015.761 5 106194664.642 5     -1236.619          33.000  
R24  23522037.909 6 125782894.013 6     -3996.456          40.000  
E10  25243106.947 7 132653438.535 7      -587.195          45.000  
E11  24267457.840 6 127526373.156 6      1002.962          39.000  
E12  26848693.455 6 141090819.106 6     -1755.063          41.000  
E24  26333079.289 6 138381270.501 6     -1551.411          39.000  
J 2  39408712.861 6 207094179.749 6       412.163          38.000  
J 3  37895773.608 7 199143635.887 7      -217.061          43.000  
J 4  38214072.228 5 200816303.226 5       -33.632          32.000  
> 2024 11 28 10 17 19.8010000  0 18                     
G 2  22599796.469 6 118762770.862 6      3103.036          38.000  
G10  25695657.991 6 135031619.461 6      1653.290          41.000  
G16  23464865.170 6 123308704.717 6     -2511.419          39.000  
G21  21112149.754 7 110945124.728 7      2221.082          42.000  
G23  25907061.376 5 136142580.083 5       131.808          32.000  
G26  25966319.680 3               3     -2938.503          21.000  
G27  21981778.423 8 115515003.143 8     -2494.706          48.000  
R14  22575132.006 4 120338073.981 4     -3033.066          29.000  
R15  19834738.412 7 105990757.443 7       -87.558          42.000  
R17  19845062.161 5 106194912.131 5     -1237.659          33.000  
R24  23522187.440 6 125783693.541 6     -3998.018          40.000  
E10  25243129.388 7 132653556.109 7      -588.266          46.000  
E11  24267419.572 6 127526172.787 6      1001.757          40.000  
E12  26848760.638 6 141091170.297 6     -1756.579          41.000  
E24  26333138.603 6 138381580.899 6     -1551.981          39.000  
J 2  39408697.330 6 207094097.478 6       411.532          38.000  
J 3  37895781.862 7 199143679.401 7      -217.639          43.000  
J 4  38214072.665 4 200816309.952 4       -33.421          27.000  
> 2024 11 28 10 17 20.0010000  0 18                     
G 2  22599678.488 6 118762150.127 6      3103.670          38.000  
G10  25695594.455 6 135031288.739 6      1653.541          41.000  
G16  23464960.465 6 123309206.910 6     -2511.151          39.000  
G21  21112065.173 7 110944680.415 7      2221.387          42.000  
G23  25907053.628 4 136142553.545 4       132.627          28.000  
G26  25966432.461 3               3     -2928.028          20.000  
G27  21981873.370 8 115515501.929 8     -2494.097          48.000  
R14  22575246.724 4 120338680.477 4     -3032.510          28.000  
R15  19834741.675 7 105990774.761 7       -86.837          42.000  
R17  19845108.352 5 106195159.555 5     -1237.039          33.000  
R24  23522336.848 6 125784492.993 6     -3997.468          40.000  
E10  25243151.533 7 132653673.589 7      -587.403          45.000  
E11  24267381.303 6 127525972.265 6      1002.464          39.000  
E12  26848827.577 6 141091521.412 6     -1755.547          41.000  
E24  26333197.951 6 138381891.182 6     -1551.562          41.000  
J 2  39408681.817 6 207094015.133 6       411.925          38.000  
J 3  37895790.064 7 199143722.811 7      -217.199          43.000  
J 4  38214074.113 4 200816316.361 4       -31.873          27.000  
> 2024 11 28 10 17 20.2010000  0 18                     
G 2  22599560.472 6 118761529.446 6      3103.490          38.000  
G10  25695530.342 6 135030958.061 6      1653.615          41.000  
G16  23465055.779 6 123309709.190 6     -2511.354          39.000  
G21  21111980.592 7 110944236.151 7      2221.375          42.000  
G23  25907047.451 4               4       134.036          27.000  
G26  25966543.793 3               3     -2928.028          19.000  
G27  21981968.404 8 115516000.767 8     -2493.861          49.000  
R14  22575360.953 4 120339287.065 4     -3033.137          28.000  
R15  19834744.886 7 105990792.147 7       -86.721          42.000  
R17  19845154.822 5 106195407.069 5     -1237.107          34.000  
R24  23522486.274 6 125785292.489 6     -3997.490          40.000  
E10  25243173.695 7 132653791.137 7      -587.512          45.000  
E11  24267343.052 6 127525771.830 6      1002.130          39.000  
E12  26848894.621 7 141091872.594 7     -1755.695          42.000  
E24  26333257.474 6 138382201.521 6     -1551.530          41.000  
J 2  39408666.182 6 207093932.803 6       411.894          38.000  
J 3  37895798.091 7 199143766.246 7      -217.192          43.000  
J 4  38214075.509 4 200816322.956 4       -33.246          28.000  
> 2024 11 28 10 17 20.4010000  0 18                     
G 2  22599442.509 6 118760908.779 6      3103.322          38.000  
G10  25695467.836 6 135030627.366 6      1653.467          39.000  
G16  23465151.284 6 123310211.422 6     -2511.447          39.000  
G21  21111896.080 7 110943791.873 7      2221.216          42.000  
G23  25907042.390 4               4       132.554          27.000  
G26  25966653.852 3               3     -2928.028          19.000  
G27  21982063.385 8 115516499.590 8     -2494.084          49.000  
R14  22575475.741 4 120339893.613 4     -3032.812          28.000  
R15  19834748.184 7 105990809.524 7       -86.903          42.000  
R17  19845201.152 5 106195654.555 5     -1237.027          34.000  
R24  23522635.753 6 125786091.958 6     -3997.485          40.000  
E10  25243195.787 7 132653908.679 7      -587.735          45.000  
E11  24267305.028 6 127525571.366 6      1002.027          39.000  
E12  26848961.525 7 141092223.766 7     -1755.837          43.000  
E24  26333316.996 6 138382511.824 6     -1551.522          41.000  
J 2  39408650.564 6 207093850.429 6       411.851          39.000  
J 3  37895806.327 7 199143809.639 7      -217.214          43.000  
J 4  38214075.544 4 200816329.504 4       -33.008          28.000  
> 2024 11 28 10 17 20.6010000  0 18                     
G 2  22599324.371 6 118760288.120 6      3103.115          38.000  
G10  25695403.811 6 135030296.713 6      1653.511          39.000  
G16  23465246.754 6 123310713.729 6     -2511.892          39.000  
G21  21111811.464 7 110943347.667 7      2220.984          42.000  
G23  25907039.458 4               4       131.095          26.000  
G26  25966765.237 3               3     -2928.010          20.000  
G27  21982158.454 8 115516998.453 8     -2494.496          49.000  
R14  22575590.005 4 120340500.288 4     -3033.373          28.000  
R15  19834751.430 7 105990826.979 7       -87.147          42.000  
R17  19845247.552 5 106195902.146 5     -1237.913          35.000  
R24  23522785.267 6 125786891.485 6     -3997.718          40.000  
E10  25243218.088 7 132654026.285 7      -588.173          45.000  
E11  24267267.004 6 127525370.966 6      1001.762          40.000  
E12  26849028.272 7 141092574.983 7     -1756.271          43.000  
E24  26333376.362 6 138382822.188 6     -1551.976          41.000  
J 2  39408634.981 6 207093768.097 6       411.668          39.000  
J 3  37895814.686 7 199143853.075 7      -217.146          43.000  
J 4  38214076.678 4 200816336.037 4       -32.728          28.000  
> 2024 11 28 10 17 20.8010000  0 19                     
G 2  22599206.146 6 118759667.485 6      3103.352          38.000  
G10  25695339.978 6 135029966.080 6      1653.263          39.000  
G16  23465342.294 6 123311216.026 6     -2511.626          39.000  
G21  21111726.988 7 110942903.463 7      2220.898          42.000  
G23  25907035.497 4               4       131.277          26.000  
G26  25966876.238 3               3     -2926.722          20.000  
G27  21982253.558 8 115517497.290 8     -2494.118          49.000  
R14  22575703.920 4 120341106.874 4     -3032.950          28.000  
R15  19834754.728 7 105990844.427 7       -87.181          42.000  
R17  19845293.987 5 106196149.718 5     -1237.955          35.000  
R18  20404605.570 4               4      2607.914          24.000  
R24  23522934.710 6 125787690.998 6     -3997.723          40.000  
E10  25243240.546 7 132654143.889 7      -587.932          44.000  
E11  24267228.893 6 127525170.569 6      1002.214          40.000  
E12  26849095.298 7 141092926.181 7     -1755.938          43.000  
E24  26333435.745 6 138383132.529 6     -1551.545          41.000  
J 2  39408619.433 6 207093685.728 6       412.092          39.000  
J 3  37895822.870 7 199143896.517 7      -216.934          43.000  
J 4  38214077.376 4 200816342.682 4       -33.005          28.000  
> 2024 11 28 10 17 21.0010000  0 19                     
G 2  22599088.043 6 118759046.890 6      3103.120          37.000  
G10  25695275.744 6 135029635.449 6      1653.483          39.000  
G16  23465437.746 6 123311718.347 6     -2511.577          39.000  
G21  21111642.459 7 110942459.304 7      2220.825          42.000  
G23  25907032.077 4               4       132.901          26.000  
G26  25966987.186 3               3     -2942.736          20.000  
G27  21982348.644 8 115517996.157 8     -2494.426          49.000  
R14  22575817.678 4 120341713.620 4     -3033.626          28.000  
R15  19834757.869 7 105990861.911 7       -87.552          42.000  
R17  19845340.352 5 106196397.340 5     -1238.083          35.000  
R18  20404507.953 4               4      2606.766          25.000  
R24  23523084.189 6 125788490.494 6     -3997.704          40.000  
E10  25243262.708 7 132654261.523 7      -588.328          44.000  
E11  24267190.956 6 127524970.206 6      1001.898          40.000  
E12  26849162.167 7 141093277.402 7     -1756.311          43.000  
E24  26333494.971 6 138383442.896 6     -1551.935          41.000  
J 2  39408603.902 6 207093603.384 6       411.696          39.000  
J 3  37895831.159 7 199143939.977 7      -217.250          43.000  
J 4  38214078.144 4 200816349.222 4       -32.721          29.000  
> 2024 11 28 10 17 21.2010000  0 20                     
G 2  22598969.974 6 118758426.280 6      3103.097          37.000  
G 4  25727078.085 3               3     -2855.000          21.000  
G10  25695214.441 6 135029304.836 6      1653.031          38.000  
G16  23465533.147 6 123312220.642 6     -2511.688          39.000  
G21  21111558.069 7 110942015.182 7      2220.581          42.000  
G23  25907029.320 4               4       131.808          26.000  
G26  25967097.314 3               3     -2928.452          21.000  
G27  21982443.661 8 115518495.007 8     -2494.150          49.000  
R14  22575931.819 4 120342320.228 4     -3032.970          29.000  
R15  19834761.080 7 105990879.401 7       -87.246          42.000  
R17  19845386.752 5 106196644.998 5     -1238.400          35.000  
R18  20404410.459 4               4      2606.365          25.000  
R24  23523233.632 6 125789289.996 6     -3997.236          40.000  
E10  25243285.149 7 132654379.151 7      -588.168          44.000  
E11  24267152.845 6 127524769.858 6      1001.789          40.000  
E12  26849229.072 7 141093628.623 7     -1755.941          43.000  
E24  26333554.354 6 138383753.229 6     -1551.534          41.000  
J 2  39408588.389 6 207093521.012 6       412.100          39.000  
J 3  37895839.396 7 199143983.425 7      -217.224          43.000  
J 4  38214077.673 4 200816355.747 4       -32.878          29.000  
> 2024 11 28 10 17 21.4010000  0 20                     
G 2  22598851.784 6 118757805.722 6      3102.663          37.000  
G 4  25727186.591 3               3     -2855.000          21.000  
G10  25695149.928 6 135028974.266 6      1652.332          38.000  
G16  23465628.652 6 123312722.981 6     -2511.723          39.000  
G21  21111473.541 7 110941571.083 7      2220.276          42.000  
G23  25907023.038 4               4       131.201          26.000  
G26  25967206.780 3               3     -2934.339          22.000  
G27  21982538.642 8 115518993.919 8     -2494.829          49.000  
R14  22576045.979 4 120342927.002 4     -3034.031          29.000  
R15  19834764.430 7 105990896.956 7       -88.042          42.000  
R17  19845433.205 5 106196892.684 5     -1238.853          35.000  
R18  20404313.854 4               4      2606.060          25.000  
R24  23523383.216 6 125790089.556 6     -3997.821          40.000  
E10  25243307.398 7 132654496.850 7      -588.816          44.000  
E11  24267114.716 6 127524569.559 6      1001.155          40.000  
E12  26849295.993 7 141093979.918 7     -1756.772          43.000  
E24  26333613.615 7 138384063.641 7     -1552.235          42.000  
J 2  39408572.806 6 207093438.666 6       411.645          39.000  
J 3  37895847.632 7 199144026.901 7      -217.725          43.000  
J 4  38214080.517 4 200816362.378 4       -32.773          29.000  
> 2024 11 28 10 17 21.6010000  0 20                     
G 2  22598733.664 6 118757185.165 6      3102.642          36.000  
G 4  25727296.003 3               3     -2855.000          22.000  
G10  25695085.973 6 135028643.697 6      1652.778          38.000  
G16  23465724.279 6 123313225.357 6     -2511.858          39.000  
G21  21111388.977 7 110941127.011 7      2220.312          42.000  
G23  25907017.489 4               4       131.267          26.000  
G26  25967317.519 3               3     -2930.201          23.000  
G27  21982633.606 8 115519492.837 8     -2494.835          49.000  
R14  22576160.033 4 120343533.706 4     -3033.503          29.000  
R15  19834767.728 7 105990914.526 7       -88.067          43.000  
R17  19845479.588 5 106197140.444 5     -1239.246          35.000  
R18  20404216.255 4 108919011.33034      2605.573          25.000  
R24  23523532.694 6 125790889.127 6     -3997.988          41.000  
E10  25243329.822 7 132654614.576 7      -588.828          44.000  
E11  24267076.640 6 127524369.282 6      1001.496          40.000  
E12  26849362.845 7 141094331.214 7     -1756.708          43.000  
E24  26333672.806 7 138384374.040 7     -1552.185          42.000  
J 2  39408557.188 6 207093356.337 6       411.728          39.000  
J 3  37895855.938 7 199144070.360 7      -217.312          43.000  
J 4  38214082.507 4 200816368.906 4       -32.503          29.000  
> 2024 11 28 10 17 21.8010000  0 20                     
G 2  22598615.700 6 118756564.631 6      3102.109          36.000  
G 4  25727406.219 3               3     -2855.000          22.000  
G10  25695022.873 6 135028313.121 6      1652.971          38.000  
G16  23465819.941 6 123313727.701 6     -2511.899          39.000  
G21  21111304.553 7 110940682.949 7      2220.172          42.000  
G23  25907011.189 4               4       130.531          25.000  
G26  25967427.874 4               4     -2932.332          24.000  
G27  21982728.588 8 115519991.717 8     -2494.375          49.000  
R14  22576274.297 4 120344140.375 4     -3032.826          28.000  
R15  19834771.044 7 105990932.117 7       -88.045          43.000  
R17  19845525.953 6 106197388.173 6     -1238.969          36.000  
R18  20404118.848 4 108918490.13224      2605.825          25.000  
R24  23523682.033 6 125791688.622 6     -3997.144          41.000  
E10  25243352.123 7 132654732.259 7      -588.343          44.000  
E11  24267038.494 6 127524168.996 6      1001.264          40.000  
E12  26849429.836 7 141094682.480 7     -1756.201          43.000  
E24  26333731.771 7 138384684.423 7     -1551.859          42.000  
J 2  39408541.622 6 207093273.954 6       412.053          39.000  
J 3  37895864.175 7 199144113.833 7      -217.295          43.000  
J 4  38214084.199 4 200816375.493 4       -32.818          29.000  
> 2024 11 28 10 17 22.0010000  0 20                     
G 2  22598497.684 6 118755944.115 6      3102.674          36.000  
G 4  25727515.161 3               3     -2855.000          22.000  
G10  25694959.877 6 135027982.599 6      1652.345          38.000  
G16  23465915.533 6 123314230.069 6     -2511.667          40.000  
G21  21111220.059 6 110940238.952 6      2220.190          41.000  
G23  25907005.779 4               4       129.940          25.000  
G26  25967539.555 4               4     -2932.893          24.000  
G27  21982823.308 8 115520490.641 8     -2494.611          49.000  
R14  22576388.160 4 120344747.128 4     -3034.093          28.000  
R15  19834774.307 7 105990949.734 7       -87.967          43.000  
R17  19845572.301 6 106197635.960 6     -1239.027          36.000  
R18  20404020.900 4 108917969.05124      2605.344          26.000  
R24  23523831.477 6 125792488.193 6     -3997.883          41.000  
E10  25243374.390 7 132654850.030 7      -588.730          45.000  
E11  24267000.382 6 127523968.784 6      1001.144          40.000  
E12  26849496.863 7 141095033.788 7     -1756.498          43.000  
E24  26333791.171 7 138384994.837 7     -1552.195          42.000  
J 2  39408525.952 6 207093191.646 6       411.582          39.000  
J 3  37895872.429 7 199144157.331 7      -217.334          43.000  
J 4  38214087.602 4 200816381.996 4       -32.501          28.000  
> 2024 11 28 10 17 22.2010000  0 20                     
G 2  22598379.581 5 118755323.571 5      3103.251          35.000  
G 4  25727623.631 3               3     -2855.000          22.000  
G10  25694897.859 6 135027652.002 6      1652.935          38.000  
G16  23466011.178 6 123314732.370 6     -2511.338          41.000  
G21  21111135.669 6 110939794.876 6      2220.288          41.000  
G23  25907003.616 4               4       130.631          25.000  
G26  25967649.945 4               4     -2932.163          25.000  
G27  21982918.306 8 115520989.506 8     -2494.245          49.000  
R14  22576502.040 4 120345353.893 4     -3033.761          28.000  
R15  19834777.570 7 105990967.316 7       -87.961          43.000  
R17  19845618.701 6 106197883.703 6     -1238.662          36.000  
R18  20403922.237 4 108917447.85424      2606.116          25.000  
R24  23523981.095 6 125793287.708 6     -3997.703          41.000  
E10  25243396.813 7 132654967.729 7      -588.660          45.000  
E11  24266962.306 6 127523768.470 6      1001.298          40.000  
E12  26849563.767 7 141095385.054 7     -1756.295          43.000  
E24  26333850.397 7 138385305.172 7     -1551.695          43.000  
J 2  39408510.404 6 207093109.214 6       411.917          39.000  
J 3  37895880.735 7 199144200.736 7      -217.125          43.000  
J 4  38214089.783 4 200816388.612 4       -33.370          28.000  
> 2024 11 28 10 17 22.4010000  0 20                     
G 2  22598261.461 6 118754703.095 6      3102.370          36.000  
G 4  25727733.498 3               3     -2855.000          22.000  
G10  25694833.643 5 135027321.525 5      1652.665          35.000  
G16  23466106.700 6 123315234.740 6     -2511.928          41.000  
G21  21111051.263 6 110939350.882 6      2220.056          41.000  
G23  25906999.515 4               4       130.394          25.000  
G26  25967760.876 4               4     -2932.646          26.000  
G27  21983013.271 8 115521488.437 8     -2494.689          50.000  
R14  22576616.915 4 120345960.664 4     -3033.870          29.000  
R15  19834780.833 7 105990984.958 7       -88.255          43.000  
R17  19845665.188 6 106198131.550 6     -1238.925          36.000  
R18  20403824.917 4 108916926.86324      2605.219          25.000  
R24  23524130.643 6 125794087.267 6     -3997.917          41.000  
E10  25243419.184 7 132655085.502 7      -588.937          45.000  
E11  24266924.195 6 127523568.263 6      1001.041          40.000  
E12  26849630.566 7 141095736.394 7     -1756.668          43.000  
E24  26333909.553 7 138385615.599 7     -1552.140          43.000  
J 2  39408494.664 6 207093026.854 6       412.102          39.000  
J 3  37895889.129 7 199144244.199 7      -217.067          43.000  
J 4  38214092.942 4 200816395.174 4       -32.891          28.000  
> 2024 11 28 10 17 22.6010000  0 20                     
G 2  22598143.393 6 118754082.573 6      3102.330          36.000  
G 4  25727841.515 3               3     -2855.000          22.000  
G10  25694770.822 6 135026991.007 6      1652.196          38.000  
G16  23466202.258 6 123315737.144 6     -2511.650          41.000  
G21  21110966.821 6 110938906.930 6      2219.452          41.000  
G23  25906994.542 4               4       133.106          25.000  
G26  25967873.308 4 136462094.05834     -2932.298          27.000  
G27  21983108.200 8 115521987.375 8     -2494.606          50.000  
R14  22576729.975 4 120346567.443 4     -3033.096          29.000  
R15  19834784.149 7 105991002.641 7       -88.452          42.000  
R17  19845711.588 6 106198379.436 6     -1239.518          36.000  
R18  20403727.649 4               4      2605.018          25.000  
R24  23524279.982 6 125794886.810 6     -3997.624          41.000  
E10  25243441.590 7 132655203.311 7      -589.151          45.000  
E11  24266886.258 6 127523368.058 6      1000.774          40.000  
E12  26849697.418 7 141096087.754 7     -1757.004          43.000  
E24  26333968.762 7 138385926.034 7     -1552.203          43.000  
J 2  39408478.906 6 207092944.504 6       411.349          39.000  
J 3  37895897.540 7 199144287.692 7      -217.454          44.000  
J 4  38214093.535 4 200816401.661 4       -32.169          28.000  
> 2024 11 28 10 17 22.8010000  0 20                     
G 2  22598025.377 5 118753462.112 5      3102.588          35.000  
G 4  25727948.310 3               3     -2855.000          22.000  
G10  25694707.146 6 135026660.406 6      1653.427          37.000  
G16  23466297.885 6 123316239.473 6     -2511.540          41.000  
G21  21110882.380 6 110938462.996 6      2219.757          41.000  
G23  25906991.488 4               4       132.092          25.000  
G26  25967981.587 4 136462680.38524     -2931.641          27.000  
G27  21983203.199 8 115522486.283 8     -2494.368          50.000  
R14  22576844.047 5 120347174.171 5     -3033.326          30.000  
R15  19834787.465 7 105991020.318 7       -88.181          42.000  
R17  19845757.901 5 106198627.318 5     -1239.736          35.000  
R18  20403630.295 4               4      2602.982          24.000  
R24  23524429.443 6 125795686.334 6     -3997.444          41.000  
E10  25243464.066 7 132655321.069 7      -588.647          46.000  
E11  24266848.356 6 127523167.855 6      1001.193          40.000  
E12  26849764.270 7 141096439.070 7     -1756.467          43.000  
E24  26334027.848 7 138386236.390 7     -1551.682          43.000  
J 2  39408463.201 6 207092862.100 6       411.838          39.000  
J 3  37895905.898 7 199144331.165 7      -217.216          44.000  
J 4  38214092.680 4 200816408.205 4       -31.866          27.000  
> 2024 11 28 10 17 23.0010000  0 19                     
G 2  22597907.413 5 118752841.685 5      3102.286          35.000  
G 4  25728056.938 3               3     -2855.000          22.000  
G10  25694644.692 5 135026329.949 5      1651.105          35.000  
G16  23466393.460 6 123316741.765 6     -2511.690          41.000  
G21  21110798.043 6 110938019.097 6      2219.434          41.000  
G23  25906988.172 4               4       132.443          25.000  
G26  25968093.286 5 136463266.72625     -2931.378          32.000  
G27  21983298.041 8 115522985.145 8     -2494.323          50.000  
R14  22576957.630 5 120347780.947 5     -3033.601          31.000  
R15  19834790.850 7 105991037.959 7       -88.013          43.000  
R17  19845804.301 6 106198875.164 6     -1239.431          36.000  
R24  23524579.166 6 125796485.809 6     -3997.488          41.000  
E10  25243486.594 7 132655438.823 7      -588.890          46.000  
E11  24266810.332 7 127522967.600 7      1001.474          42.000  
E12  26849831.104 7 141096790.385 7     -1756.855          43.000  
E24  26334086.987 7 138386546.732 7     -1551.837          42.000  
J 2  39408447.496 6 207092779.656 6       412.151          39.000  
J 3  37895914.030 7 199144374.603 7      -217.139          44.000  
J 4  38214095.682 4               4       -39.707          27.000  
> 2024 11 28 10 17 23.2010000  0 18                     
G 2  22597789.363 5 118752221.123 5      3102.695          35.000  
G10  25694581.435 5 135025999.306 5      1652.957          35.000  
G16  23466489.157 6 123317244.048 6     -2511.477          40.000  
G21  21110713.688 7 110937575.067 7      2219.830          43.000  
G23  25906981.402 4               4       129.906          25.000  
G26  25968206.503 5 136463853.03025     -2931.267          32.000  
G27  21983392.952 8 115523483.985 8     -2493.983          49.000  
R14  22577073.936 4 120348387.619 4     -3033.031          25.000  
R15  19834794.270 7 105991055.584 7       -88.214          43.000  
R17  19845850.579 6 106199122.995 6     -1239.505          36.000  
R24  23524728.505 6 125797285.279 6     -3997.126          41.000  
E10  25243509.053 7 132655556.539 7      -588.391          46.000  
E11  24266772.168 7 127522767.346 7      1001.145          42.000  
E12  26849898.043 7 141097141.671 7     -1756.249          43.000  
E24  26334146.004 7 138386857.039 7     -1551.422          42.000  
J 2  39408432.052 6 207092697.154 6       412.321          39.000  
J 3  37895922.284 7 199144417.949 7      -216.707          44.000  
J 4  38214097.357 4               4       -42.959          26.000  
> 2024 11 28 10 17 23.4010000  0 18                     
G 2  22597671.416 6 118751600.618 6      3102.618          36.000  
G10  25694519.155 6 135025668.701 6      1653.516          36.000  
G16  23466584.906 6 123317746.311 6     -2511.012          40.000  
G21  21110629.299 7 110937131.099 7      2220.184          43.000  
G23  25906975.591 4               4       124.041          25.000  
G26  25968320.522 5 136464439.32225     -2930.903          33.000  
G27  21983487.829 8 115523982.812 8     -2494.062          49.000  
R14  22577189.841 4 120348994.380 4     -3033.640          26.000  
R15  19834797.464 7 105991073.213 7       -87.957          43.000  
R17  19845896.875 6 106199370.839 6     -1239.136          36.000  
R24  23524878.001 6 125798084.688 6     -3996.972          41.000  
E10  25243531.529 7 132655674.271 7      -588.713          45.000  
E11  24266733.883 7 127522567.111 7      1001.148          42.000  
E12  26849964.738 7 141097492.938 7     -1756.407          43.000  
E24  26334205.038 7 138387167.346 7     -1551.510          42.000  
J 2  39408416.277 6 207092614.639 6       412.729          39.000  
J 3  37895930.590 7 199144461.334 7      -216.614          44.000  
J 4  38214095.682 4               4       -42.959          25.000  
> 2024 11 28 10 17 23.6010000  0 18                     
G 2  22597553.453 6 118750980.022 6      3102.814          36.000  
G10  25694456.351 6 135025337.995 6      1653.430          36.000  
G16  23466680.603 7 123318248.493 7     -2511.034          42.000  
G21  21110544.805 7 110936687.046 7      2220.044          43.000  
G23  25906968.331 4               4       118.711          24.000  
G26  25968434.193 5 136465025.54425     -2931.309          33.000  
G27  21983582.741 8 115524481.577 8     -2493.751          49.000  
R14  22577303.092 4 120349601.043 4     -3034.043          27.000  
R15  19834800.779 7 105991090.784 7       -87.933          43.000  
R17  19845943.275 6 106199618.629 6     -1238.917          36.000  
R24  23525027.410 6 125798884.090 6     -3996.869          41.000  
E10  25243554.127 7 132655791.921 7      -588.231          45.000  
E11  24266695.649 7 127522366.772 7      1001.397          42.000  
E12  26850031.590 7 141097844.151 7     -1755.908          43.000  
E24  26334263.967 7 138387477.537 7     -1551.139          42.000  
J 2  39408400.712 6 207092532.048 6       413.015          39.000  
J 3  37895938.792 7 199144504.600 7      -216.464          44.000  
J 4  38214099.154 4               4       -42.959          25.000  
> 2024 11 28 10 17 23.8010000  0 18                     
G 2  22597435.472 6 118750359.367 6      3103.165          36.000  
G10  25694393.740 6 135025007.261 6      1653.983          36.000  
G16  23466776.300 7 123318750.638 7     -2510.733          43.000  
G21  21110460.294 7 110936242.976 7      2220.319          43.000  
G23  25906958.891 3               3       128.947          23.000  
G26  25968545.194 5 136465611.73625     -2930.481          33.000  
G27  21983677.688 8 115524980.299 8     -2493.371          48.000  
R14  22577415.769 5 120350207.614 5     -3032.894          32.000  
R15  19834804.130 7 105991108.339 7       -87.452          43.000  
R17  19845989.657 6 106199866.396 6     -1238.481          36.000  
R24  23525176.819 6 125799683.408 6     -3996.057          41.000  
E10  25243576.672 7 132655909.560 7      -587.921          45.000  
E11  24266657.573 7 127522166.415 7      1002.061          42.000  
E12  26850098.529 7 141098195.333 7     -1755.527          43.000  
E24  26334322.862 7 138387787.721 7     -1550.744          42.000  
J 2  39408384.937 6 207092449.386 6       413.374          39.000  
J 3  37895946.959 7 199144547.831 7      -216.077          44.000  
J 4  38214099.730 4               4       -31.869          24.000  
> 2024 11 28 10 17 24.0010000  0 18                     
G 2  22597317.456 5 118749738.757 5      3103.236          35.000  
G10  25694331.041 6 135024676.612 6      1652.988          36.000  
G16  23466871.875 7 123319252.827 7     -2511.152          43.000  
G21  21110375.765 7 110935798.956 7      2220.142          43.000  
G23  25906951.928 3               3       121.847          23.000  
G26  25968654.293 5 136466197.90025     -2930.649          33.000  
G27  21983772.495 8 115525479.047 8     -2493.992          48.000  
R14  22577529.963 5 120350814.285 5     -3033.473          32.000  
R15  19834807.253 7 105991125.940 7       -88.054          43.000  
R17  19846035.988 6 106200114.238 6     -1239.417          36.000  
R24  23525326.140 6 125800482.766 6     -3996.785          41.000  
E10  25243599.061 7 132656027.243 7      -588.533          45.000  
E11  24266619.409 7 127521966.110 7      1001.512          42.000  
E12  26850165.380 7 141098546.550 7     -1756.256          43.000  
E24  26334381.704 7 138388097.913 7     -1551.139          42.000  
J 2  39408369.284 6 207092366.735 6       413.169          39.000  
J 3  37895955.300 7 199144591.085 7      -216.166          44.000  
J 4  38214097.584 4               4       -35.577          24.000  
> 2024 11 28 10 17 24.2010000  0 18                     
G 2  22597199.353 5 118749118.185 5      3103.101          35.000  
G10  25694268.552 6 135024345.964 6      1653.406          38.000  
G16  23466967.589 7 123319755.030 7     -2511.245          43.000  
G21  21110291.079 7 110935354.978 7      2220.081          43.000  
G23  25906946.501 3               3       133.451          23.000  
G26  25968769.098 5 136466784.14225     -2931.347          34.000  
G27  21983867.232 8 115525977.808 8     -2493.710          48.000  
R14  22577641.958 5 120351420.937 5     -3033.253          32.000  
R15  19834810.638 7 105991143.573 7       -88.040          43.000  
R17  19846082.301 6 106200362.121 6     -1239.595          36.000  
R24  23525475.479 6 125801282.140 6     -3996.662          41.000  
E10  25243621.519 7 132656144.967 7      -588.534          45.000  
E11  24266581.333 7 127521765.839 7      1001.514          42.000  
E12  26850232.162 7 141098897.776 7     -1755.811          43.000  
E24  26334440.790 7 138388408.144 7     -1550.942          42.000  
J 2  39408353.404 6 207092294.63236       413.390          39.000  
J 3  37895963.536 7 199144631.87237      -216.231          44.000  
J 4  38214103.237 4               4       -24.385          24.000  
> 2024 11 28 10 17 24.4010000  0 18                     
G 2  22597081.390 5 118748497.687 5      3102.534          35.000  
G10  25694205.784 6 135024015.403 6      1652.593          38.000  
G16  23467063.444 7 123320257.315 7     -2511.414          43.000  
G21  21110206.742 7 110934911.093 7      2219.434          43.000  
G23  25906944.407 3               3       124.424          23.000  
G26  25968877.620 5 136467370.43025     -2932.373          34.000  
G27  21983962.039 8 115526476.642 8     -2494.147          48.000  
R14  22577755.280 5 120352027.802 5     -3034.561          32.000  
R15  19834813.937 7 105991161.314 7       -88.834          43.000  
R17  19846128.561 6 106200610.082 6     -1239.642          36.000  
R24  23525624.993 7 125802081.568 7     -3997.063          42.000  
E10  25243643.838 7 132656262.769 7      -589.111          45.000  
E11  24266543.187 7 127521565.661 7      1000.903          42.000  
E12  26850298.840 7 141099249.087 7     -1756.605          43.000  
E24  26334499.685 7 138388718.455 7     -1551.675          42.000  
J 2  39408337.716 6 207092212.10026       412.690          39.000  
J 3  37895971.843 7 199144675.24527      -216.837          44.000  
J 4  38214104.721 4               4       -26.727          24.000  
> 2024 11 28 10 17 24.6010000  0 18                     
G 2  22596963.426 5 118747877.234 5      3102.110          34.000  
G10  25694142.701 6 135023684.857 6      1653.161          36.000  
G16  23467159.088 7 123320759.622 7     -2511.716          43.000  
G21  21110122.178 7 110934467.218 7      2219.159          43.000  
G23  25906936.101 3               3       129.515          23.000  
G26  25968990.454 5 136467956.73025     -2931.537          34.000  
G27  21984056.898 8 115526975.490 8     -2494.267          48.000  
R14  22577867.241 5 120352634.593 5     -3033.897          32.000  
R15  19834817.217 7 105991179.061 7       -88.887          43.000  
R17  19846174.926 6 106200858.079 6     -1240.072          36.000  
R24  23525774.454 7 125802881.035 7     -3997.482          42.000  
E10  25243666.401 7 132656380.599 7      -589.271          46.000  
E11  24266504.953 7 127521365.503 7      1000.776          42.000  
E12  26850365.744 7 141099600.427 7     -1756.873          43.000  
E24  26334558.684 7 138389028.793 7     -1552.007          42.000  
J 2  39408322.255 6 207092129.53726       412.720          39.000  
J 3  37895979.992 7 199144718.59427      -216.843          44.000  
J 4  38214108.647 4               4       -36.074          25.000  
> 2024 11 28 10 17 24.8010000  0 18                     
G 2  22596845.428 5 118747256.816 5      3101.202          32.000  
G10  25694079.793 6 135023354.378 6      1652.947          36.000  
G16  23467254.872 7 123321261.972 7     -2511.860          43.000  
G21  21110037.806 7 110934023.410 7      2219.061          43.000  
G23  25906934.251 3               3       131.038          23.000  
G26  25969103.723 5 136468543.01125     -2930.878          34.000  
G27  21984151.915 8 115527474.402 8     -2494.816          48.000  
R14  22577980.475 5 120353241.460 5     -3034.308          33.000  
R15  19834820.498 7 105991196.890 7       -89.263          42.000  
R17  19846221.379 6 106201106.167 6     -1240.655          36.000  
R24  23525924.037 7 125803680.534 7     -3997.646          42.000  
E10  25243688.773 7 132656498.490 7      -589.641          46.000  
E11  24266466.929 7 127521165.414 7      1000.309          42.000  
E12  26850432.474 7 141099951.823 7     -1757.152          43.000  
E24  26334617.509 7 138389339.137 7     -1551.853          42.000  
J 2  39408306.742 6 207092047.01626       412.466          39.000  
J 3  37895988.194 7 199144761.98627      -216.949          45.000  
J 4  38214119.047 4               4       -31.177          25.000  
> 2024 11 28 10 17 25.0010000  0 18                     
G 2  22596727.360 5 118746636.336 5      3101.998          32.000  
G10  25694016.990 6 135023023.954 6      1652.934          39.000  
G16  23467350.517 7 123321764.292 7     -2511.572          43.000  
G21  21109953.260 7 110933579.611 7      2218.988          42.000  
G23  25906934.373 3               3       127.933          23.000  
G26  25969213.677 5 136469129.33125     -2930.478          34.000  
G27  21984246.809 8 115527973.324 8     -2494.407          48.000  
R14  22578095.071 5 120353848.289 5     -3033.930          33.000  
R15  19834823.901 7 105991214.728 7       -89.141          42.000  
R17  19846267.762 5 106201354.271 5     -1240.185          35.000  
R24  23526073.498 7 125804480.090 7     -3997.705          42.000  
E10  25243711.528 7 132656616.391 7      -589.484          46.000  
E11  24266428.818 7 127520965.302 7      1000.432          42.000  
E12  26850499.395 7 141100303.235 7     -1756.901          43.000  
E24  26334676.473 7 138389649.503 7     -1551.698          42.000  
J 2  39408291.002 6 207091964.48426       412.813          39.000  
J 3  37895996.570 7 199144805.36827      -216.710          45.000  
J 4  38214121.386 4               4       -32.389          25.000  
> 2024 11 28 10 17 25.2010000  0 18                     
G 2  22596609.396 5 118746015.954 5      3102.028          33.000  
G10  25693954.239 6 135022693.557 6      1652.456          38.000  
G16  23467446.336 7 123322266.694 7     -2512.119          43.000  
G21  21109868.853 7 110933135.889 7      2218.549          42.000  
G23  25906932.768 3               3       122.881          23.000  
G26  25969321.205 5 136469715.71325     -2931.495          33.000  
G27  21984341.651 8 115528472.291 8     -2494.834          48.000  
R14  22578207.275 5 120354455.185 5     -3034.396          33.000  
R15  19834827.216 7 105991232.629 7       -89.713          42.000  
R17  19846314.336 5 106201602.475 5     -1240.686          35.000  
R24  23526222.925 7 125805279.695 7     -3998.235          42.000  
E10  25243733.969 7 132656734.365 7      -590.078          46.000  
E11  24266390.724 7 127520765.258 7      1000.175          42.000  
E12  26850566.107 7 141100654.725 7     -1757.432          43.000  
E24  26334735.594 7 138389959.904 7     -1552.267          42.000  
J 2  39408275.454 6 207091881.99226       412.477          39.000  
J 3  37896004.876 7 199144848.80027      -217.293          45.000  
J 4  38214123.829 4               4       -32.398          25.000  
> 2024 11 28 10 17 25.4010000  0 18                     
G 2  22596491.346 5 118745395.542 5      3103.198          33.000  
G10  25693891.366 6 135022363.138 6      1651.968          38.000  
G16  23467541.859 7 123322769.045 7     -2511.729          43.000  
G21  21109784.482 7 110932692.153 7      2218.860          42.000  
G23  25906932.628 4               4       121.708          24.000  
G26  25969435.853 5 136470302.02925     -2931.372          33.000  
G27  21984436.580 8 115528971.226 8     -2494.437          48.000  
R14  22578321.627 5 120355062.119 5     -3034.787          33.000  
R15  19834830.584 7 105991250.516 7       -89.305          42.000  
R17  19846360.684 5 106201850.657 5     -1240.885          35.000  
R24  23526372.473 7 125806079.242 7     -3997.873          42.000  
E10  25243756.567 7 132656852.298 7      -589.523          46.000  
E11  24266352.752 7 127520565.207 7      1000.524          42.000  
E12  26850633.029 7 141101006.162 7     -1757.049          43.000  
E24  26334794.733 7 138390270.307 7     -1551.755          42.000  
J 2  39408259.696 6 207091799.46726       412.698          39.000  
J 3  37896013.147 7 199144892.18927      -216.697          45.000  
J 4  38214125.713 4               4       -31.329          26.000  
> 2024 11 28 10 17 25.6010000  0 18                     
G 2  22596373.312 5 118744775.169 5      3102.010          33.000  
G10  25693828.615 6 135022032.716 6      1652.264          38.000  
G16  23467637.346 7 123323271.402 7     -2511.598          43.000  
G21  21109700.092 7 110932248.452 7      2218.610          42.000  
G23  25906932.209 4               4       129.868          24.000  
G26  25969547.430 5 136470888.41425     -2932.046          33.000  
G27  21984531.422 8 115529470.164 8     -2494.675          48.000  
R14  22578436.816 5 120355669.045 5     -3035.201          33.000  
R15  19834833.795 7 105991268.444 7       -89.740          42.000  
R17  19846407.154 5 106202098.883 5     -1241.567          35.000  
R24  23526522.004 7 125806878.764 7     -3997.757          42.000  
E10  25243779.025 7 132656970.273 7      -589.987          46.000  
E11  24266314.659 6 127520365.206 6       999.848          41.000  
E12  26850699.916 7 141101357.620 7     -1757.451          43.000  
E24  26334853.662 7 138390580.678 7     -1551.759          42.000  
J 2  39408244.113 6 207091716.95226       412.369          39.000  
J 3  37896021.279 7 199144935.60027      -216.886          45.000  
J 4  38214129.134 4               4       -31.163          26.000  
> 2024 11 28 10 17 25.8010000  0 18                     
G 2  22596255.174 5 118744154.832 5      3101.228          33.000  
G10  25693765.776 6 135021702.304 6      1651.982          38.000  
G16  23467732.869 7 123323773.766 7     -2511.581          43.000  
G21  21109615.755 7 110931804.768 7      2218.555          42.000  
G23  25906929.365 4               4       127.460          25.000  
G26  25969659.460 5 136471474.67625     -2930.950          33.000  
G27  21984626.334 8 115529969.104 8     -2494.638          48.000  
R14  22578551.097 5 120356275.922 5     -3034.512          34.000  
R15  19834837.110 7 105991286.376 7       -89.453          42.000  
R17  19846453.519 5 106202347.102 5     -1241.212          35.000  
R24  23526671.447 7 125807678.320 7     -3997.424          42.000  
E10  25243801.553 7 132657088.242 7      -589.751          46.000  
E11  24266276.827 6 127520165.178 6      1000.193          41.000  
E12  26850766.732 7 141101709.077 7     -1757.086          43.000  
E24  26334912.731 7 138390891.068 7     -1551.776          42.000  
J 2  39408228.391 6 207091634.40126       413.045          39.000  
J 3  37896029.533 7 199144979.01227      -217.011          45.000  
J 4  38214129.308 4               4       -32.430          26.000  
> 2024 11 28 10 17 26.0010000  0 18                     
G 2  22596137.333 5 118743534.518 5      3100.723          30.000  
G10  25693702.868 6 135021371.885 6      1651.562          38.000  
G16  23467828.548 7 123324276.161 7     -2512.150          43.000  
G21  21109531.279 7 110931361.098 7      2217.853          42.000  
G23  25906925.194 4               4       129.954          25.000  
G26  25969771.298 5 136472061.02425     -2931.613          33.000  
G27  21984721.280 8 115530468.073 8     -2495.099          48.000  
R14  22578665.326 5 120356882.904 5     -3035.538          34.000  
R15  19834840.409 7 105991304.358 7       -89.910          42.000  
R17  19846499.954 5 106202595.360 5     -1241.102          35.000  
R24  23526820.926 7 125808477.913 7     -3998.343          42.000  
E10  25243824.082 7 132657206.244 7      -590.244          46.000  
E11  24266238.750 6 127519965.200 6       999.486          41.000  
E12  26850833.480 7 141102060.578 7     -1757.756          43.000  
E24  26334971.451 7 138391201.475 7     -1552.347          42.000  
J 2  39408212.790 6 207091551.87126       412.544          39.000  
J 3  37896037.857 7 199145022.42027      -217.274          44.000  
J 4  38214130.111 4               4       -32.987          26.000  
> 2024 11 28 10 17 26.2010000  0 18                     
G 2  22596021.463 5 118742914.129 5      3101.948          30.000  
G10  25693639.978 6 135021041.563 6      1651.188          38.000  
G16  23467924.175 7 123324778.599 7     -2512.534          43.000  
G21  21109446.820 7 110930917.522 7      2217.670          42.000  
G23  25906921.111 4               4       128.816          25.000  
G26  25969880.415 5 136472647.51625     -2931.816          33.000  
G27  21984816.419 8 115530967.105 8     -2495.282          48.000  
R14  22578781.265 5 120357489.884 5     -3035.128          34.000  
R15  19834843.742 7 105991322.414 7       -90.524          42.000  
R17  19846546.407 5 106202843.746 5     -1242.294          35.000  
R24  23526970.317 7 125809277.551 7     -3998.423          42.000  
E10  25243846.767 7 132657324.337 7      -590.616          46.000  
E11  24266200.918 6 127519765.268 6       999.504          41.000  
E12  26850900.261 7 141102412.150 7     -1758.039          43.000  
E24  26335030.555 7 138391511.920 7     -1552.325          42.000  
J 2  39408197.120 6 207091469.39226       412.599          39.000  
J 3  37896046.041 7 199145065.88227      -217.469          44.000  
J 4  38214130.687 4               4       -31.867          26.000  
> 2024 11 28 10 17 26.4010000  0 18                     
G 2  22595900.638 5 118742293.897 5      3101.619          30.000  
G10  25693577.070 6 135020711.281 6      1651.694          38.000  
G16  23468019.890 7 123325281.074 7     -2512.691          43.000  
G21  21109362.396 7 110930473.965 7      2217.572          42.000  
G23  25906917.569 4               4       129.355          25.000  
G26  25969990.403 5 136473233.88725     -2932.465          33.000  
G27  21984911.523 8 115531466.152 8     -2495.489          48.000  
R14  22578894.622 5 120358096.899 5     -3035.703          34.000  
R15  19834847.040 7 105991340.493 7       -90.456          42.000  
R17  19846592.824 5 106203092.173 5     -1242.471          35.000  
R24  23527119.744 7 125810077.201 7     -3998.187          42.000  
E10  25243869.208 7 132657442.440 7      -590.743          46.000  
E11  24266162.754 6 127519565.364 6       999.551          41.000  
E12  26850967.131 7 141102763.754 7     -1757.888          43.000  
E24  26335089.799 7 138391822.403 7     -1552.637          42.000  
J 2  39408181.502 6 207091386.92926       412.025          39.000  
J 3  37896054.400 7 199145109.35327      -217.495          44.000  
J 4  38214132.048 4               4       -32.568          26.000  
> 2024 11 28 10 17 26.6010000  0 18                     
G 2  22595785.833 5 118741673.722 5      3100.627          31.000  
G10  25693514.336 6 135020381.186 6      1650.582          38.000  
G16  23468115.500 7 123325783.651 7     -2513.139          43.000  
G21  21109278.024 7 110930030.526 7      2217.181          42.000  
G23  25906913.887 4               4       131.482          25.000  
G26  25970100.881 5 136473820.40525     -2931.795          33.000  
G27  21985006.400 8 115531965.268 8     -2495.785          48.000  
R14  22579009.479 5 120358704.086 5     -3036.514          34.000  
R15  19834850.303 7 105991358.674 7       -90.955          42.000  
R17  19846639.242 5 106203340.685 5     -1243.179          34.000  
R24  23527269.257 6 125810876.920 6     -3998.670          41.000  
E10  25243891.771 7 132657560.663 7      -591.365          46.000  
E11  24266124.643 6 127519365.577 6       998.854          41.000  
E12  26851033.895 7 141103115.420 7     -1758.677          43.000  
E24  26335149.130 7 138392132.986 7     -1553.197          42.000  
J 2  39408165.832 6 207091304.52826       411.664          39.000  
J 3  37896062.566 7 199145152.91227      -217.838          44.000  
J 4  38214134.508 4               4       -33.203          26.000  
> 2024 11 28 10 17 26.8010000  0 18                     
G 2  22595667.154 5 118741053.515 5      3100.765          31.000  
G10  25693451.725 7 135020051.035 7      1650.689          42.000  
G16  23468211.109 7 123326286.244 7     -2513.369          42.000  
G21  21109193.547 6 110929587.109 6      2216.620          41.000  
G23  25906906.976 4               4       136.567          25.000  
G26  25970210.276 5 136474407.13925     -2936.169          32.000  
G27  21985101.276 8 115532464.323 8     -2495.302          48.000  
R14  22579122.749 5 120359311.216 5     -3034.970          35.000  
R15  19834853.601 7 105991376.825 7       -90.942          42.000  
R17  19846685.502 5 106203589.167 5     -1242.406          34.000  
R24  23527418.666 6 125811676.566 6     -3998.069          40.000  
E10  25243914.195 7 132657678.852 7      -590.939          46.000  
E11  24266086.672 6 127519165.810 6       998.631          41.000  
E12  26851100.625 7 141103467.017 7     -1757.770          43.000  
E24  26335208.216 7 138392443.542 7     -1552.823          43.000  
J 2  39408149.969 6 207091222.07726       411.761          39.000  
J 3  37896070.908 7 199145196.45527      -217.722          44.000  
J 4  38214136.742 4               4       -33.200          26.000  
> 2024 11 28 10 17 27.0010000  0 18                     
G 2  22595547.219 5 118740433.458 5      3100.092          30.000  
G10  25693389.358 7 135019720.772 7      1650.662          44.000  
G16  23468306.562 7 123326788.811 7     -2512.713          43.000  
G21  21109109.071 6 110929143.743 6      2216.937          40.000  
G23  25906896.471 5               5       131.449          35.000  
G26  25970319.270 4 136474993.57724     -2933.000          28.000  
G27  21985196.083 7 115532963.374 7     -2495.458          46.000  
R14  22579237.833 5 120359918.505 5     -3037.161          34.000  
R15  19834857.021 7 105991394.973 7       -90.849          42.000  
R17  19846731.972 5 106203837.748 5     -1243.840          33.000  
R24  23527568.005 6 125812476.151 6     -3997.812          40.000  
E10  25243936.793 7 132657797.025 7      -590.971          47.000  
E11  24266048.630 6 127518966.053 6       998.692          41.000  
E12  26851167.285 6 141103818.597 6     -1758.131          41.000  
E24  26335267.250 6 138392754.132 6     -1553.255          41.000  
J 2  39408134.229 6 207091139.59426       412.341          37.000  
J 3  37896079.336 7 199145240.03227      -218.039          43.000  
J 4  38214136.079 4               4       -31.854          26.000  
> 2024 11 28 10 17 27.2010000  0 18                     
G 2  22595426.481 5 118739813.424 5      3100.285          30.000  
G10  25693327.113 7 135019390.551 7      1651.533          44.000  
G16  23468402.137 7 123327291.327 7     -2512.176          43.000  
G21  21109024.542 6 110928700.320 6      2217.419          40.000  
G23  25906889.195 6               6       128.275          37.000  
G26  25970430.725 4 136475580.03324     -2931.099          29.000  
G27  21985290.890 7 115533462.397 7     -2495.137          45.000  
R14  22579349.235 5 120360525.622 5     -3035.336          34.000  
R15  19834860.372 6 105991413.122 6       -90.580          40.000  
R17  19846778.547 5 106204086.260 5     -1243.221          30.000  
R24  23527717.605 6 125813275.761 6     -3997.923          40.000  
E10  25243959.426 7 132657915.182 7      -590.657          47.000  
E11  24266010.658 7 127518766.235 7       999.245          42.000  
E12  26851234.294 6 141104170.194 6     -1757.934          39.000  
E24  26335326.232 6 138393064.631 6     -1552.307          41.000  
J 2  39408118.489 6 207091057.09326       413.013          37.000  
J 3  37896087.538 7 199145283.54227      -217.253          44.000  
J 4  38214135.765 4               4       -32.004          27.000  
> 2024 11 28 10 17 27.4010000  0 18                     
G 2  22595306.737 5 118739193.228 5      3100.799          31.000  
G10  25693264.554 7 135019060.348 7      1650.735          44.000  
G16  23468498.026 7 123327793.865 7     -2512.935          43.000  
G21  21108940.240 6 110928256.908 6      2217.041          40.000  
G23  25906881.621 6               6       128.384          37.000  
G26  25970545.774 5 136476166.52425     -2932.033          32.000  
G27  21985385.663 7 115533961.508 7     -2495.715          45.000  
R14  22579462.766 5 120361132.819 5     -3035.843          35.000  
R15  19834863.635 6 105991431.349 6       -91.287          39.000  
R17  19846825.052 5 106204334.848 5     -1243.751          30.000  
R24  23527867.049 6 125814075.419 6     -3998.597          40.000  
E10  25243982.006 7 132658033.402 7      -591.392          47.000  
E11  24265972.512 7 127518566.465 7       998.821          43.000  
E12  26851301.215 6 141104521.862 6     -1758.711          37.000  
E24  26335385.179 6 138393375.205 6     -1553.306          41.000  
J 2  39408102.801 6 207090974.58926       412.379          37.000  
J 3  37896095.861 7 199145327.05227      -217.574          44.000  
J 4  38214137.004 4               4       -32.908          27.000  
> 2024 11 28 10 17 27.6010000  0 18                     
G 2  22595191.374 5 118738573.001 5      3101.141          35.000  
G10  25693201.855 6 135018730.342 6      1649.309          40.000  
G16  23468593.793 7 123328296.521 7     -2513.679          42.000  
G21  21108855.746 6 110927813.509 6      2216.492          40.000  
G23  25906875.758 6 136141555.41936       127.390          39.000  
G26  25970658.485 5 136476753.00425     -2933.560          32.000  
G27  21985480.574 7 115534460.690 7     -2496.305          45.000  
R14  22579574.866 6 120361740.006 6     -3036.266          39.000  
R15  19834867.107 6 105991449.604 6       -91.907          39.000  
R17  19846871.557 5 106204583.548 5     -1244.768          30.000  
R24  23528016.685 6 125814875.199 6     -3999.311          40.000  
E10  25244004.482 7 132658151.718 7      -592.034          47.000  
E11  24265934.575 7 127518366.717 7       998.528          43.000  
E12  26851368.015 6 141104873.675 6     -1759.673          37.000  
E24  26335444.160 7 138393685.843 7     -1553.451          43.000  
J 2  39408087.026 6 207090892.11926       412.366          36.000  
J 3  37896104.203 7 199145370.57827      -217.850          43.000  
J 4  38214138.888 4               4       -31.623          27.000  
> 2024 11 28 10 17 27.8010000  0 18                     
G 2  22595075.173 5 118737952.785 5      3100.981          35.000  
G10  25693139.087 7 135018400.275 7      1650.255          43.000  
G16  23468689.490 7 123328799.083 7     -2512.845          42.000  
G21  21108771.427 6 110927370.061 6      2217.438          40.000  
G23  25906871.779 6 136141529.91026       126.978          39.000  
G26  25970771.126 4               4     -2935.983          27.000  
G27  21985575.643 7 115534959.876 7     -2496.147          44.000  
R14  22579688.293 6 120362347.152 6     -3036.133          39.000  
R15  19834870.458 6 105991467.867 6       -91.693          39.000  
R17  19846917.974 5 106204832.178 5     -1243.258          30.000  
R24  23528166.320 6 125815674.997 6     -3999.724          40.000  
E10  25244027.080 7 132658270.008 7      -591.562          47.000  
E11  24265896.639 7 127518166.964 7       998.932          43.000  
E12  26851434.831 5 141105225.580 5     -1759.412          34.000  
E24  26335503.369 7 138393996.372 7     -1552.778          44.000  
J 2  39408071.339 6 207090809.62226       412.120          36.000  
J 3  37896112.387 7 199145414.02227      -217.200          43.000  
J 4  38214139.639 4               4       -31.422          28.000  
> 2024 11 28 10 17 28.0010000  0 18                     
G 2  22594956.756 5 118737332.482 5      3101.984          35.000  
G10  25693076.249 7 135018070.238 7      1650.473          43.000  
G16  23468785.082 7 123329301.721 7     -2512.854          42.000  
G21  21108687.020 6 110926926.618 6      2217.426          39.000  
G23  25906862.653 6 136141504.49126       127.112          39.000  
G26  25970882.546 2               2     -2931.350          15.000  
G27  21985670.747 7 115535459.155 7     -2496.285          44.000  
R14  22579804.180 6 120362954.311 6     -3035.587          39.000  
R15  19834873.930 6 105991486.210 6       -91.591          39.000  
R17  19846964.496 5 106205080.843 5     -1243.132          30.000  
R24  23528315.869 6 125816474.896 6     -3999.357          40.000  
E10  25244049.678 7 132658388.406 7      -591.852          47.000  
E11  24265858.824 7 127517967.279 7       998.455          43.000  
E12  26851501.613 5 141105577.534 5     -1759.787          34.000  
E24  26335562.578 7 138394307.003 7     -1552.931          44.000  
J 2  39408055.546 6 207090727.13226       412.677          36.000  
J 3  37896120.641 7 199145457.48227      -217.283          43.000  
J 4  38214141.000 4               4       -32.099          27.000  
> 2024 11 28 10 17 28.2010000  0 18                     
G 2  22594837.536 5 118736712.248 5      3101.596          35.000  
G10  25693013.707 7 135017740.129 7      1650.745          44.000  
G16  23468880.604 7 123329804.271 7     -2512.863          42.000  
G21  21108602.631 6 110926483.247 6      2216.772          40.000  
G23  25906857.697 6 136141479.12326       126.744          39.000  
G26  25970995.780 2               2     -2931.350          14.000  
G27  21985765.763 7 115535958.413 7     -2496.360          44.000  
R14  22579918.566 6 120363561.413 6     -3035.671          37.000  
R15  19834877.403 6 105991504.578 6       -91.956          39.000  
R17  19847011.472 5 106205329.619 5     -1243.601          30.000  
R24  23528465.504 7 125817274.744 7     -3999.562          42.000  
E10  25244072.224 7 132658506.794 7      -592.133          46.000  
E11  24265820.957 7 127517767.587 7       998.354          44.000  
E12  26851568.518 5 141105929.379 5     -1759.061          34.000  
E24  26335621.559 7 138394617.573 7     -1552.832          44.000  
J 2  39408039.806 5 207090644.68025       411.979          33.000  
J 3  37896129.034 7 199145500.94427      -217.316          44.000  
J 4  38214141.384 4               4       -33.388          27.000  
> 2024 11 28 10 17 28.4010000  0 18                     
G 2  22594715.524 5 118736091.980 5      3101.228          35.000  
G10  25692951.061 7 135017410.008 7      1650.380          43.000  
G16  23468976.214 7 123330306.766 7     -2512.665          42.000  
G21  21108518.154 6 110926039.808 6      2217.017          40.000  
G23  25906852.165 6 136141453.73226       126.742          39.000  
G26  25971109.259 2               2     -2930.535          15.000  
G27  21985860.797 7 115536457.623 7     -2496.122          45.000  
R14  22580033.511 6 120364168.453 6     -3035.399          37.000  
R15  19834880.788 6 105991522.912 6       -91.919          39.000  
R17  19847058.169 5 106205578.324 5     -1243.416          30.000  
R24  23528615.123 6 125818074.656 6     -4000.204          40.000  
E10  25244094.752 7 132658625.145 7      -591.650          46.000  
E11  24265783.020 7 127517567.831 7       998.729          43.000  
E12  26851635.404 5 141106281.256 5     -1759.592          34.000  
E24  26335680.681 7 138394928.115 7     -1552.738          44.000  
J 2  39408024.101 5 207090562.16725       412.729          33.000  
J 3  37896137.271 7 199145544.35127      -217.045          44.000  
J 4  38214142.553 4               4       -31.362          27.000  
> 2024 11 28 10 17 28.6010000  0 18                     
G 2  22594600.091 5 118735471.592 5      3101.419          32.000  
G10  25692888.100 6 135017080.044 6      1649.138          41.000  
G16  23469071.859 6 123330809.325 6     -2512.968          41.000  
G21  21108433.713 6 110925596.371 6      2217.407          40.000  
G23  25906848.937 6 136141428.52726       125.164          36.000  
G26  25971220.417 2               2     -2930.535          15.000  
G27  21985955.744 7 115536956.882 7     -2496.720          45.000  
R14  22580145.925 5 120364775.606 5     -3035.207          34.000  
R15  19834884.191 6 105991541.251 6       -91.433          39.000  
R17  19847104.988 4 106205827.116 4     -1243.704          29.000  
R24  23528764.706 6 125818874.582 6     -3999.740          39.000  
E10  25244117.245 7 132658743.550 7      -592.117          46.000  
E11  24265744.926 7 127517368.103 7       998.809          42.000  
E12  26851702.396 5 141106633.141 5     -1759.901          35.000  
E24  26335739.854 7 138395238.665 7     -1552.737          44.000  
J 2  39408008.396 5 207090479.68825       412.484          33.000  
J 3  37896145.525 7 199145587.70827      -216.560          43.000  
J 4  38214143.233 4               4       -31.530          26.000  
> 2024 11 28 10 17 28.8010000  0 18                     
G 2  22594484.274 5 118734851.298 5      3101.786          32.000  
G10  25692825.681 7 135016750.099 7      1649.826          42.000  
G16  23469167.504 7 123331312.022 7     -2513.931          42.000  
G21  21108349.306 6 110925152.921 6      2216.827          40.000  
G23  25906842.393 6 136141403.34726       126.232          36.000  
G26  25971326.218 2               2     -2937.704          15.000  
G27  21986050.725 7 115537456.287 7     -2497.688          45.000  
R14  22580259.735 5 120365382.766 5     -3036.065          34.000  
R15  19834887.646 6 105991559.741 6       -92.807          37.000  
R17  19847151.563 4 106206075.938 4     -1244.303          29.000  
R24  23528914.359 6 125819674.638 6     -4000.890          39.000  
E10  25244139.931 7 132658862.078 7      -593.259          47.000  
E11  24265706.833 7 127517168.442 7       998.058          42.000  
E12  26851769.666 6 141106985.241 6     -1761.269          37.000  
E24  26335798.958 7 138395549.330 7     -1553.798          43.000  
J 2  39407992.725 5 207090397.16625       412.719          34.000  
J 3  37896153.831 7 199145631.12127      -217.247          43.000  
J 4  38214144.786 4               4       -31.564          26.000  
> 2024 11 28 10 17 29.0010000  0 18                     
G 2  22594365.979 5 118734230.956 5      3101.892          32.000  
G10  25692763.035 6 135016420.449 6      1649.261          41.000  
G16  23469263.096 7 123331814.941 7     -2514.698          42.000  
G21  21108264.899 6 110924709.561 6      2217.560          38.000  
G23  25906838.851 6 136141378.36126       125.441          36.000  
G26  25971438.248 2               2     -2928.711          17.000  
G27  21986145.654 7 115537955.872 7     -2497.684          44.000  
R14  22580373.301 5 120365990.084 5     -3036.675          34.000  
R15  19834891.224 6 105991578.273 6       -93.128          37.000  
R17  19847197.841 4 106206325.106 4     -1246.960          29.000  
R24  23529063.890 6 125820474.859 6     -4000.590          39.000  
E10  25244162.808 7 132658980.775 7      -593.587          47.000  
E11  24265669.001 7 127516968.899 7       997.669          43.000  
E12  26851836.762 6 141107337.516 6     -1760.968          39.000  
E24  26335857.923 6 138395860.176 6     -1554.102          41.000  
J 2  39407977.125 5 207090314.89625       411.467          34.000  
J 3  37896161.980 7 199145674.59127      -217.428          42.000  
J 4  38214145.903 4               4       -39.536          26.000  
> 2024 11 28 10 17 29.2010000  0 18                     
G 2  22594247.265 5 118733610.569 5      3102.070          32.000  
G10  25692700.161 7 135016090.712 7      1649.769          43.000  
G16  23469358.828 7 123332317.660 7     -2513.571          43.000  
G21  21108180.510 6 110924266.168 6      2216.461          38.000  
G23  25906835.518 4 136141353.37824       123.478          29.000  
G26  25971550.994 5               5     -2931.613          31.000  
G27  21986240.619 7 115538455.341 7     -2496.969          44.000  
R14  22580486.937 6 120366597.399 6     -3035.885          37.000  
R15  19834894.609 6 105991596.927 6       -92.734          39.000  
R17  19847244.572 4 106206574.083 4     -1244.119          28.000  
R24  23529213.543 6 125821275.075 6     -4000.611          39.000  
E10  25244185.702 8 132659099.423 8      -592.946          48.000  
E11  24265630.837 7 127516769.335 7       998.157          42.000  
E12  26851903.789 6 141107689.736 6     -1761.042          39.000  
E24  26335916.834 6 138396170.915 6     -1553.837          40.000  
J 2  39407961.402 5 207090232.42725       413.190          34.000  
J 3  37896170.217 7 199145717.96627      -216.388          42.000  
J 4  38214145.764 4               4       -29.230          26.000  
> 2024 11 28 10 17 29.4010000  0 18                     
G 2  22594128.830 5 118732990.264 5      3100.477          32.000  
G10  25692637.445 6 135015760.864 6      1648.378          41.000  
G16  23469454.525 7 123332820.355 7     -2513.012          43.000  
G21  21108096.173 6 110923822.712 6      2217.108          38.000  
G23  25906833.773 3               3       122.849          19.000  
G26  25971665.240 5               5     -2935.343          33.000  
G27  21986335.426 6 115538954.704 6     -2496.649          41.000  
R14  22580600.887 6 120367204.591 6     -3035.954          39.000  
R15  19834898.081 6 105991615.423 6       -93.010          39.000  
R17  19847290.990 3 106206823.038 3     -1244.550          20.000  
R24  23529363.126 6 125822075.181 6     -3999.896          39.000  
E10  25244208.161 8 132659217.967 8      -592.617          48.000  
E11  24265592.743 7 127516569.656 7       998.240          42.000  
E12  26851970.832 6 141108041.832 6     -1760.447          41.000  
E24  26335975.991 6 138396481.555 6     -1552.948          40.000  
J 2  39407945.697 5 207090149.91225       412.229          34.000  
J 3  37896178.471 7 199145761.32427      -216.948          42.000  
J 4  38214146.985 4               4       -30.528          26.000  
> 2024 11 28 10 17 29.6010000  0 18                     
G 2  22594011.652 5 118732370.037 5      3100.223          32.000  
G10  25692574.764 6 135015430.854 6      1650.743          41.000  
G16  23469550.204 7 123333322.953 7     -2512.653          43.000  
G21  21108011.784 6 110923379.420 6      2216.315          38.000  
G23  25906831.120 3               3       122.849          19.000  
G26  25971775.142 5               5     -2933.472          33.000  
G27  21986430.233 6 115539454.042 6     -2496.485          41.000  
R14  22580714.785 6 120367811.745 6     -3035.951          39.000  
R15  19834901.432 5 105991633.920 5       -92.551          34.000  
R17  19847337.111 3 106207071.948 3     -1244.824          20.000  
R24  23529512.692 6 125822875.237 6     -4000.390          36.000  
E10  25244230.654 7 132659336.482 7      -592.241          47.000  
E11  24265554.754 7 127516370.017 7       998.178          42.000  
E12  26852037.911 6 141108393.851 6     -1759.645          41.000  
E24  26336035.217 6 138396792.149 6     -1552.755          40.000  
J 2  39407930.236 6 207090067.42326       412.734          37.000  
J 3  37896186.864 7 199145804.70927      -216.981          42.000  
J 4  38214147.352 4               4       -31.535          26.000  
> 2024 11 28 10 17 29.8010000  0 18                     
G 2  22593892.921 4 118731749.689 4      3101.812          27.000  
G10  25692512.083 6 135015100.785 6      1650.061          41.000  
G16  23469645.570 6 123333825.425 6     -2512.505          40.000  
G21  21107927.429 6 110922936.218 6      2215.186          37.000  
G23  25906822.116 4               4       125.855          28.000  
G26  25971889.266 3               3     -2932.505          23.000  
G27  21986525.144 7 115539953.313 7     -2496.637          43.000  
R14  22580828.193 6 120368418.891 6     -3036.154          37.000  
R15  19834904.765 5 105991652.404 5       -92.834          34.000  
R17  19847384.384 3 106207320.926 3     -1245.113          22.000  
R24  23529662.240 6 125823675.172 6     -3999.738          36.000  
E10  25244252.991 7 132659454.948 7      -592.683          47.000  
E11  24265516.678 7 127516170.375 7       998.033          42.000  
E12  26852105.059 6 141108745.817 6     -1760.107          39.000  
E24  26336094.425 7 138397102.678 7     -1552.911          42.000  
J 2  39407914.671 6 207089984.91626       412.387          37.000  
J 3  37896195.118 7 199145848.15027      -217.709          42.000  
J 4  38214147.544 4               4       -24.390          26.000  
> 2024 11 28 10 17 30.0010000  0 18                     
G 2  22593777.156 4 118731129.713 4      3099.447          28.000  
G10  25692449.419 6 135014770.746 6      1649.828          41.000  
G16  23469740.987 6 123334327.986 6     -2513.045          40.000  
G21  21107843.023 6 110922493.021 6      2216.272          37.000  
G23  25906814.630 5               5       125.743          33.000  
G26  25972001.436 5               5     -2933.217          30.000  
G27  21986620.248 7 115540452.616 7     -2496.579          44.000  
R14  22580942.213 6 120369026.127 6     -3035.493          36.000  
R15  19834908.203 5 105991670.983 5       -93.123          35.000  
R17  19847431.691 4 106207569.905 4     -1244.783          29.000  
R24  23529811.806 6 125824475.103 6     -3999.778          36.000  
E10  25244275.606 7 132659573.476 7      -592.772          46.000  
E11  24265478.706 7 127515970.851 7       997.943          42.000  
E12  26852172.138 6 141109097.782 6     -1760.087          39.000  
E24  26336153.425 6 138397413.265 6     -1552.942          41.000  
J 2  39407899.157 6 207089902.41426       412.562          36.000  
J 3  37896203.285 7 199145891.63827      -217.357          42.000  
J 4  38214147.823 4               4       -27.812          27.000  
> 2024 11 28 10 17 30.2010000  0 18                     
G 2  22593658.355 4 118730509.806 4      3099.161          28.000  
G10  25692386.529 6 135014440.946 6      1648.379          40.000  
G16  23469836.684 6 123334830.682 6     -2513.683          40.000  
G21  21107758.476 5 110922049.858 5      2215.289          35.000  
G23  25906809.325 6               6       125.616          36.000  
G26  25972112.507 5 136484371.48735     -2933.429          31.000  
G27  21986715.282 7 115540952.005 7     -2497.037          44.000  
R14  22581055.675 6 120369633.432 6     -3036.574          36.000  
R15  19834911.658 6 105991689.580 6       -93.136          38.000  
R17  19847477.568 4 106207834.49434     -1245.753          29.000  
R24  23529961.546 6 125825275.068 6     -4000.303          36.000  
E10  25244298.082 7 132659692.095 7      -593.279          46.000  
E11  24265440.438 7 127515771.369 7       997.326          42.000  
E12  26852239.199 6 141109449.895 6     -1760.823          39.000  
E24  26336212.459 6 138397723.945 6     -1553.755          41.000  
J 2  39407883.278 6 207089819.92826       412.774          36.000  
J 3  37896211.469 7 199145935.13327      -217.277          42.000  
J 4  38214147.683 4               4       -31.297          26.000  
> 2024 11 28 10 17 30.4010000  0 18                     
G 2  22593538.263 4 118729889.799 4      3100.318          27.000  
G10  25692323.970 7 135014111.164 7      1649.544          43.000  
G16  23469932.416 6 123335333.483 6     -2513.945          40.000  
G21  21107674.157 6 110921606.821 6      2215.009          38.000  
G23  25906803.549 6 136141170.63736       125.633          36.000  
G26  25972222.356 5 136484958.03425     -2932.300          32.000  
G27  21986810.351 7 115541451.420 7     -2497.100          44.000  
R14  22581169.869 6 120370240.881 6     -3037.583          36.000  
R15  19834915.218 6 105991708.250 6       -93.433          38.000  
R17  19847523.514 4 106208083.59124     -1245.599          29.000  
R24  23530111.077 6 125826075.135 6     -4000.162          36.000  
E10  25244320.837 7 132659810.761 7      -593.353          47.000  
E11  24265402.431 7 127515571.952 7       996.894          42.000  
E12  26852306.208 6 141109801.998 6     -1760.620          39.000  
E24  26336271.737 6 138398034.692 6     -1553.558          41.000  
J 2  39407867.677 5 207089737.54325       412.113          33.000  
J 3  37896219.688 7 199145978.67427      -217.806          42.000  
J 4  38214148.521 4               4       -31.208          26.000  
> 2024 11 28 10 17 30.6010000  0 18                     
G 2  22593422.254 4 118729269.666 4      3100.198          27.000  
G10  25692261.463 7 135013781.296 7      1649.534          45.000  
G16  23470028.166 6 123335836.268 6     -2513.450          40.000  
G21  21107589.872 6 110921163.825 6      2215.143          38.000  
G23  25906798.087 5 136141145.57725       125.705          33.000  
G26  25972332.188 5 136485544.62725     -2932.384          32.000  
G27  21986905.385 7 115541950.795 7     -2496.556          44.000  
R14  22581284.098 6 120370848.374 6     -3037.264          36.000  
R15  19834918.795 6 105991726.969 6       -93.690          37.000  
R17  19847570.194 4 106208332.75224     -1245.860          29.000  
R24  23530260.695 6 125826875.157 6     -3999.566          36.000  
E10  25244343.418 7 132659929.440 7      -593.115          47.000  
E11  24265364.686 7 127515372.553 7       996.942          42.000  
E12  26852373.182 6 141110154.097 6     -1759.977          39.000  
E24  26336330.928 7 138398345.434 7     -1553.483          42.000  
J 2  39407851.763 5 207089655.06625       413.385          32.000  
J 3  37896228.099 7 199146022.26727      -217.817          42.000  
J 4  38214148.730 4               4       -30.572          26.000  
> 2024 11 28 10 17 30.8010000  0 18                     
G 2  22593307.379 4 118728649.888 4      3098.163          26.000  
G10  25692198.939 7 135013451.408 7      1649.728          44.000  
G16  23470124.055 7 123336338.993 7     -2513.351          43.000  
G21  21107505.431 6 110920720.889 6      2214.966          37.000  
G23  25906789.903 5 136141120.53425       126.333          33.000  
G26  25972444.410 5 136486131.19325     -2931.534          32.000  
G27  21987000.471 7 115542450.145 7     -2496.396          44.000  
R14  22581398.327 6 120371455.836 6     -3036.900          36.000  
R15  19834922.320 6 105991745.695 6       -93.707          37.000  
R17  19847615.582 4 106208581.95024     -1245.722          29.000  
R24  23530410.314 6 125827675.061 6     -3998.968          37.000  
E10  25244366.085 7 132660048.090 7      -593.071          47.000  
E11  24265326.662 7 127515173.165 7       997.026          42.000  
E12  26852440.069 6 141110506.176 6     -1760.115          39.000  
E24  26336389.892 7 138398656.142 7     -1553.271          42.000  
J 2  39407836.005 5 207089572.64225       412.791          32.000  
J 3  37896236.493 7 199146065.87227      -217.784          42.000  
J 4  38214149.393 5               5       -33.938          31.000  
> 2024 11 28 10 17 31.0010000  0 18                     
G 2  22593189.555 4 118728029.961 4      3099.245          26.000  
G10  25692136.310 7 135013121.511 7      1649.639          42.000  
G16  23470219.839 7 123336841.694 7     -2513.414          43.000  
G21  21107421.059 6 110920277.983 6      2214.496          37.000  
G23  25906783.376 5 136141095.38425       125.287          32.000  
G26  25972554.940 5 136486717.83625     -2933.146          32.000  
G27  21987095.540 7 115542949.436 7     -2496.474          44.000  
R14  22581512.643 6 120372063.335 6     -3037.590          36.000  
R15  19834925.897 6 105991764.390 6       -93.518          37.000  
R17  19847662.802 4 106208831.12024     -1245.812          28.000  
R24  23530560.089 6 125828474.919 6     -3998.851          37.000  
E10  25244388.526 7 132660166.708 7      -593.032          47.000  
E11  24265288.743 7 127514973.780 7       996.906          42.000  
E12  26852506.763 6 141110858.150 6     -1759.453          39.000  
E24  26336449.014 7 138398966.825 7     -1553.312          42.000  
J 2  39407819.358 5 207089490.09325       413.813          32.000  
J 3  37896244.764 7 199146109.48627      -217.926          42.000  
J 4  38214150.772 5               5       -31.549          32.000  
> 2024 11 28 10 17 31.2010000  0 18                     
G 2  22593075.099 4 118727410.173 4      3098.972          26.000  
G10  25692073.577 7 135012791.542 7      1649.953          42.000  
G16  23470315.588 7 123337344.338 7     -2513.078          43.000  
G21  21107336.705 6 110919835.118 6      2213.965          37.000  
G23  25906777.897 5 136141070.07425       126.807          31.000  
G26  25972667.162 5 136487304.36925     -2932.793          32.000  
G27  21987190.539 7 115543448.664 7     -2496.198          44.000  
R14  22581626.489 6 120372670.771 6     -3037.401          38.000  
R15  19834929.457 6 105991783.074 6       -93.952          37.000  
R17  19847708.242 4 106209080.34824     -1246.213          28.000  
R24  23530709.742 6 125829274.708 6     -3998.746          37.000  
E10  25244411.247 7 132660285.284 7      -592.771          47.000  
E11  24265250.946 7 127514774.390 7       997.033          42.000  
E12  26852573.650 6 141111210.108 6     -1759.482          39.000  
E24  26336508.083 7 138399277.457 7     -1553.195          42.000  
J 2  39407802.047 5 207089407.70425       411.868          31.000  
J 3  37896253.001 7 199146152.59617      -218.145          42.000  
J 4  38214149.376 5 200816723.72135       -32.607          31.000  
> 2024 11 28 10 17 31.4010000  0 18                     
G 2  22592957.013 4 118726790.552 4      3097.456          26.000  
G10  25692010.930 7 135012461.517 7      1650.049          43.000  
G16  23470411.250 7 123337846.924 7     -2512.822          43.000  
G21  21107252.438 6 110919392.255 6      2214.056          37.000  
G23  25906770.987 4 136141044.46224       129.160          26.000  
G26  25972779.297 5 136487890.83225     -2932.340          32.000  
G27  21987285.415 7 115543947.770 7     -2495.382          44.000  
R14  22581740.456 6 120373278.163 6     -3036.805          38.000  
R15  19834932.947 6 105991801.680 6       -93.175          37.000  
R17  19847755.218 4 106209329.35524     -1244.942          28.000  
R24  23530859.255 6 125830074.333 6     -3997.717          37.000  
E10  25244433.757 7 132660403.773 7      -592.297          47.000  
E11  24265213.026 7 127514575.007 7       996.846          42.000  
E12  26852640.397 6 141111561.896 6     -1758.688          38.000  
E24  26336567.204 7 138399588.005 7     -1552.619          42.000  
J 2  39407786.656 5 207089325.11825       412.457          31.000  
J 3  37896261.464 7 199146196.201 7      -218.259          42.000  
J 4  38214148.503 5 200816730.49825       -34.622          31.000  
> 2024 11 28 10 17 31.6010000  0 18                     
G 2  22592835.717 4 118726170.975 4      3098.479          26.000  
G10  25691948.232 7 135012131.406 7      1651.255          42.000  
G16  23470506.755 7 123338349.487 7     -2512.780          42.000  
G21  21107168.101 6 110918949.653 6      2212.128          37.000  
G23  25906771.475 5 136141019.12625       127.213          31.000  
G26  25972891.415 5 136488477.25225     -2931.480          31.000  
G27  21987380.275 7 115544446.852 7     -2495.244          44.000  
R14  22581854.441 6 120373885.689 6     -3037.990          36.000  
R15  19834936.594 6 105991820.445 6       -94.216          36.000  
R17  19847801.601 4 106209578.61024     -1246.267          28.000  
R24  23531008.821 6 125830873.878 6     -3997.390          37.000  
E10  25244456.111 7 132660522.260 7      -592.352          47.000  
E11  24265175.002 7 127514375.674 7       996.581          42.000  
E12  26852707.336 6 141111913.677 6     -1758.672          39.000  
E24  26336626.325 7 138399898.545 7     -1552.442          42.000  
J 2  39407772.434 5 207089242.52725       413.482          35.000  
J 3  37896269.718 6 199146239.954 6      -218.807          41.000  
J 4  38214151.714 5 200816737.05225       -33.000          31.000  
> 2024 11 28 10 17 31.8010000  0 18                     
G 2  22592718.399 4 118725551.613 4      3095.452          26.000  
G10  25691885.167 6 135011801.228 6      1651.560          39.000  
G16  23470602.208 6 123338851.950 6     -2511.981          40.000  
G21  21107083.816 6 110918506.994 6      2214.087          39.000  
G23  25906771.004 5 136140993.47825       126.930          35.000  
G26  25973005.347 5 136489063.51425     -2931.644          31.000  
G27  21987475.099 7 115544945.799 7     -2494.237          43.000  
R14  22581968.338 6 120374493.156 6     -3037.179          37.000  
R15  19834939.945 6 105991838.951 6       -91.726          36.000  
R17  19847848.210 4 106209827.74824     -1245.609          28.000  
R24  23531158.335 5 125831673.168 5     -3996.160          35.000  
E10  25244478.779 7 132660640.630 7      -591.442          47.000  
E11  24265137.118 7 127514176.263 7       997.246          42.000  
E12  26852774.240 6 141112265.316 6     -1758.446          39.000  
E24  26336685.412 7 138400208.980 7     -1551.864          42.000  
J 2  39407762.452 5 207089159.88425       413.934          35.000  
J 3  37896278.007 7 199146283.633 7      -218.295          42.000  
J 4  38214150.213 5 200816744.02325       -35.276          31.000  
> 2024 11 28 10 17 32.0010000  0 18                     
G 2  22592599.685 4               4      3097.148          26.000  
G10  25691822.241 6 135011470.875 6      1650.744          37.000  
G16  23470697.800 6 123339354.370 6     -2512.597          40.000  
G21  21106999.706 6 110918064.384 6      2212.982          39.000  
G23  25906766.485 6 136140967.92926       128.740          37.000  
G26  25973114.027 5 136489650.16625     -2933.157          30.000  
G27  21987570.011 7 115545444.782 7     -2495.004          44.000  
R14  22582082.358 6 120375100.543 6     -3037.273          37.000  
R15  19834943.574 6 105991857.622 6       -93.390          38.000  
R17  19847895.588 4               4     -1244.481          27.000  
R24  23531307.831 5 125832472.512 5     -3995.874          35.000  
E10  25244501.429 7 132660759.010 7      -592.265          47.000  
E11  24265099.129 7 127513976.850 7       996.857          43.000  
E12  26852841.110 6 141112616.846 6     -1757.590          37.000  
E24  26336744.498 7 138400519.397 7     -1552.055          42.000  
J 2  39407745.927 5 207089077.22325       411.736          35.000  
J 3  37896286.383 7 199146327.302 7      -218.153          42.000  
J 4  38214147.770 5 200816750.55525       -33.308          31.000  
> 2024 11 28 10 17 32.2010000  0 18                     
G 2  22592480.936 4               4      3098.638          26.000  
G10  25691759.403 7 135011140.828 7      1648.958          42.000  
G16  23470793.428 6 123339856.842 6     -2512.374          40.000  
G21  21106915.561 6 110917621.733 6      2213.007          39.000  
G23  25906762.209 6 136140942.54126       126.242          39.000  
G26  25973227.175 5 136490236.57925     -2932.709          34.000  
G27  21987665.080 7 115545943.852 7     -2495.646          44.000  
R14  22582196.378 6 120375708.129 6     -3037.934          37.000  
R15  19834947.151 6 105991876.264 6       -93.493          39.000  
R17  19847942.389 4               4     -1245.636          28.000  
R24  23531457.274 6 125833272.094 6     -3998.343          39.000  
E10  25244524.167 7 132660877.496 7      -592.736          47.000  
E11  24265061.262 7 127513777.534 7       996.590          43.000  
E12  26852908.258 6 141112968.600 6     -1758.534          37.000  
E24  26336803.585 7 138400829.890 7     -1553.075          42.000  
J 2  39407728.965 5 207088994.67725       412.549          35.000  
J 3  37896294.794 7 199146370.990 7      -218.705          43.000  
J 4  38214151.156 4 200816757.46724       -33.447          26.000  
> 2024 11 28 10 17 32.4010000  0 18                     
G 2  22592358.558 4               4      3096.150          26.000  
G10  25691696.477 6 135010810.720 6      1650.760          40.000  
G16  23470889.159 6 123340359.423 6     -2513.095          41.000  
G21  21106831.224 6 110917179.154 6      2212.769          39.000  
G23  25906755.421 6 136140917.10626       126.980          39.000  
G26  25973339.257 5 136490823.08125     -2932.667          34.000  
G27  21987759.939 7 115546442.886 7     -2495.201          44.000  
R14  22582310.415 6 120376315.650 6     -3038.041          37.000  
R15  19834950.415 6 105991895.029 6       -94.080          39.000  
R17  19847986.905 4 106210570.56534     -1245.422          28.000  
R24  23531606.858 6 125834071.629 6     -3998.044          39.000  
E10  25244546.747 8 132660996.032 8      -592.904          48.000  
E11  24265023.343 7 127513578.223 7       996.687          43.000  
E12  26852975.197 6 141113320.355 6     -1759.215          36.000  
E24  26336862.619 7 138401140.417 7     -1552.828          42.000  
J 2  39407712.248 5 207088912.03725       412.773          35.000  
J 3  37896303.153 7 199146414.677 7      -218.618          44.000  
J 4  38214149.079 5 200816764.07625       -33.773          31.000  
> 2024 11 28 10 17 32.6010000  0 18                     
G 2  22592240.263 4               4      3097.635          27.000  
G10  25691633.709 7 135010480.732 7      1649.846          42.000  
G16  23470984.822 6 123340862.008 6     -2512.897          41.000  
G21  21106746.957 6 110916736.519 6      2213.171          40.000  
G23  25906752.647 6 136140891.65126       127.566          39.000  
G26  25973446.000 5 136491409.67525     -2932.833          30.000  
G27  21987854.973 7 115546941.936 7     -2495.016          44.000  
R14  22582424.313 6 120376923.270 6     -3038.409          36.000  
R15  19834953.905 6 105991913.776 6       -93.644          39.000  
R17  19848035.259 4 106210819.82324     -1246.490          29.000  
R24  23531756.249 6 125834871.076 6     -3996.976          39.000  
E10  25244569.572 8 132661114.552 8      -592.499          48.000  
E11  24264985.615 7 127513378.944 7       996.460          43.000  
E12  26853042.154 6 141113672.120 6     -1758.657          36.000  
E24  26336921.618 7 138401451.002 7     -1552.786          42.000  
J 2  39407696.386 6 207088829.42526       413.024          36.000  
J 3  37896311.459 7 199146458.358 7      -218.111          44.000  
J 4  38214153.267 5 200816770.82225       -33.583          31.000  
> 2024 11 28 10 17 32.8010000  0 18                     
G 2  22592126.435 5 118722453.894 5      3096.306          32.000  
G10  25691570.888 7 135010150.608 7      1651.265          42.000  
G16  23471080.274 6 123341364.632 6     -2513.284          40.000  
G21  21106662.690 6 110916293.999 6      2212.408          40.000  
G23  25906749.802 6 136140866.05226       128.704          37.000  
G26  25973555.448 5 136491996.03425     -2931.664          30.000  
G27  21987949.885 7 115547440.948 7     -2495.476          44.000  
R14  22582538.262 6 120377530.831 6     -3038.159          37.000  
R15  19834957.430 6 105991932.530 6       -93.885          38.000  
R17  19848081.747 4 106211069.05924     -1246.603          29.000  
R24  23531905.815 6 125835670.459 6     -3996.352          39.000  
E10  25244591.821 8 132661233.064 8      -592.767          48.000  
E11  24264947.626 7 127513179.670 7       996.001          43.000  
E12  26853109.110 6 141114023.896 6     -1758.833          36.000  
E24  26336980.809 7 138401761.598 7     -1552.880          43.000  
J 2  39407679.162 6 207088746.76826       413.435          36.000  
J 3  37896319.713 7 199146502.071 7      -218.988          44.000  
J 4  38214154.873 5 200816777.50325       -34.817          31.000  
> 2024 11 28 10 17 33.0010000  0 18                     
G 2  22592006.709 5 118721834.331 5      3097.588          32.000  
G10  25691507.997 7 135009820.478 7      1650.120          45.000  
G16  23471175.849 6 123341867.122 6     -2512.365          41.000  
G21  21106578.528 6 110915851.398 6      2213.086          40.000  
G23  25906741.252 6 136140840.42226       128.184          37.000  
G26  25973673.830 5 136492582.52225     -2933.008          30.000  
G27  21988044.831 7 115547939.840 7     -2494.026          44.000  
R14  22582652.352 6 120378138.394 6     -3038.226          37.000  
R15  19834960.972 6 105991951.155 6       -92.927          39.000  
R17  19848130.921 4 106211318.18824     -1245.774          28.000  
R24  23532055.381 6 125836469.742 6     -3996.653          41.000  
E10  25244613.948 7 132661351.460 7      -591.797          47.000  
E11  24264909.986 7 127512980.253 7       997.330          44.000  
E12  26853176.154 6 141114375.502 6     -1758.087          36.000  
E24  26337040.000 7 138402072.016 7     -1551.944          43.000  
J 2  39407663.265 5 207088663.99225       413.690          35.000  
J 3  37896328.002 7 199146545.659 7      -217.872          44.000  
J 4  38214156.914 4               4       -24.560          25.000  
> 2024 11 28 10 17 33.2010000  0 18                     
G 2  22591890.456 5 118721214.724 5      3100.226          35.000  
G10  25691445.194 7 135009490.198 7      1651.952          43.000  
G16  23471271.511 6 123342369.537 6     -2511.832          41.000  
G21  21106494.383 6 110915408.781 6      2212.762          38.000  
G23  25906736.732 6 136140814.76926       128.356          38.000  
G26  25973784.081 5 136493168.90925     -2931.717          34.000  
G27  21988140.110 7 115548438.698 7     -2494.289          45.000  
R14  22582766.267 6 120378745.860 6     -3037.188          37.000  
R15  19834964.480 6 105991969.743 6       -92.971          38.000  
R17  19848178.421 4 106211567.31524     -1245.510          29.000  
R24  23532204.981 6 125837268.947 6     -3995.859          41.000  
E10  25244636.546 7 132661469.826 7      -591.632          47.000  
E11  24264872.101 7 127512780.855 7       996.985          44.000  
E12  26853243.145 6 141114727.005 6     -1757.300          38.000  
E24  26337099.401 7 138402382.391 7     -1551.542          43.000  
J 2  39407647.508 5 207088580.69615       414.285          35.000  
J 3  37896336.256 7 199146589.210 7      -217.917          42.000  
J 4  38214159.951 4               4       -35.793          25.000  
> 2024 11 28 10 17 33.4010000  0 18                     
G 2  22591772.859 5 118720595.253 5      3097.829          32.000  
G10  25691382.338 6 135009159.881 6      1652.143          41.000  
G16  23471367.243 6 123342871.923 6     -2511.761          41.000  
G21  21106410.046 6 110914966.094 6      2213.702          38.000  
G23  25906730.206 6 136140789.12426       128.188          37.000  
G26  25973896.198 5 136493755.21625     -2931.143          34.000  
G27  21988235.248 7 115548937.491 7     -2493.567          45.000  
R14  22582880.357 6 120379353.338 6     -3036.770          37.000  
R15  19834967.952 6 105991988.375 6       -92.480          36.000  
R17  19848225.362 5 106211816.44325     -1245.174          33.000  
R24  23532354.338 6 125838068.120 6     -3996.019          41.000  
E10  25244659.057 8 132661588.154 8      -591.630          48.000  
E11  24264834.200 7 127512581.421 7       997.529          44.000  
E12  26853310.137 6 141115078.503 6     -1757.350          40.000  
E24  26337158.295 7 138402692.727 7     -1551.522          42.000  
J 2  39407631.733 5 207088497.848 5       414.154          35.000  
J 3  37896344.475 6 199146632.733 6      -217.010          41.000  
J 4  38214159.811 4               4       -30.131          26.000  
> 2024 11 28 10 17 33.6010000  0 18                     
G 2  22591656.344 5 118719975.612 5      3096.152          32.000  
G10  25691319.692 7 135008829.592 7      1650.713          43.000  
G16  23471462.853 6 123343374.233 6     -2511.382          41.000  
G21  21106325.796 6 110914523.510 6      2211.981          38.000  
G23  25906724.342 6 136140763.42026       127.039          39.000  
G26  25974009.485 5 136494341.52525     -2932.200          34.000  
G27  21988330.474 7 115549436.224 7     -2493.536          45.000  
R14  22582994.254 6 120379960.719 6     -3036.764          39.000  
R15  19834971.477 6 105992006.965 6       -93.225          38.000  
R17  19848270.471 5 106212065.48925     -1244.722          33.000  
R24  23532503.694 6 125838867.219 6     -3995.130          39.000  
E10  25244681.568 8 132661706.468 8      -591.469          48.000  
E11  24264796.210 7 127512381.997 7       997.049          44.000  
E12  26853377.320 6 141115429.996 6     -1757.238          40.000  
E24  26337217.260 6 138403002.998 6     -1551.446          41.000  
J 2  39407613.428 5 207088414.966 5       414.535          34.000  
J 3  37896352.624 6 199146676.251 6      -217.355          41.000  
J 4  38214158.380 4               4       -32.595          26.000  
> 2024 11 28 10 17 33.8010000  0 18                     
G 2  22591538.503 5 118719355.907 5      3099.448          32.000  
G10  25691256.959 7 135008499.235 7      1651.034          43.000  
G16  23471558.515 7 123343876.524 7     -2511.513          42.000  
G21  21106241.267 6 110914080.833 6      2213.086          38.000  
G23  25906718.671 6 136140737.68026       130.018          36.000  
G26  25974118.026 4 136494927.70224     -2930.635          29.000  
G27  21988425.892 7 115549935.053 7     -2494.273          47.000  
R14  22583108.221 6 120380568.126 6     -3036.941          37.000  
R15  19834974.862 6 105992025.556 6       -92.944          38.000  
R17  19848315.667 5 106212314.60825     -1245.734          33.000  
R24  23532653.225 6 125839666.374 6     -3995.909          39.000  
E10  25244703.834 7 132661824.782 7      -591.771          47.000  
E11  24264758.047 7 127512182.566 7       997.021          43.000  
E12  26853444.207 6 141115781.533 6     -1757.634          38.000  
E24  26337276.224 6 138403313.291 6     -1551.385          41.000  
J 2  39407601.631 5 207088332.028 5       414.268          34.000  
J 3  37896360.965 7 199146719.715 7      -217.255          43.000  
J 4  38214159.794 4               4       -28.428          26.000  
> 2024 11 28 10 17 34.0010000  0 18                     
G 2  22591420.975 4 118718736.520 4      3098.553          28.000  
G10  25691194.190 7 135008168.975 7      1652.212          42.000  
G16  23471654.125 6 123344378.831 6     -2511.825          41.000  
G21  21106156.913 6 110913638.369 6      2213.330          38.000  
G23  25906713.122 6 136140712.25026       127.375          38.000  
G26  25974229.515 4 136495513.79524     -2930.168          29.000  
G27  21988521.170 7 115550433.920 7     -2494.831          47.000  
R14  22583222.084 6 120381175.551 6     -3037.201          37.000  
R15  19834978.370 6 105992044.277 6       -93.631          40.000  
R17  19848359.903 5 106212563.80825     -1246.651          32.000  
R24  23532802.773 6 125840465.646 6     -3996.628          39.000  
E10  25244726.258 7 132661943.210 7      -592.462          47.000  
E11  24264720.215 7 127511983.210 7       996.465          43.000  
E12  26853510.762 6 141116133.174 6     -1759.366          36.000  
E24  26337335.275 7 138403623.631 7     -1552.156          43.000  
J 2  39407586.781 5 207088249.150 5       414.130          35.000  
J 3  37896369.062 7 199146763.279 7      -218.076          42.000  
J 4  38214161.696 4               4       -31.270          26.000  
> 2024 11 28 10 17 34.2010000  0 18                     
G 2  22591303.466 4 118718117.006 4      3095.342          29.000  
G10  25691131.544 7 135007839.016 7      1648.894          43.000  
G16  23471749.769 6 123344881.431 6     -2513.554          40.000  
G21  21106072.855 6 110913195.820 6      2211.768          38.000  
G23  25906708.131 6 136140686.88326       125.475          38.000  
G26  25974343.692 4 136496100.09224     -2932.000          29.000  
G27  21988616.378 7 115550932.963 7     -2495.803          47.000  
R14  22583336.243 5 120381783.147 5     -3038.962          35.000  
R15  19834981.860 6 105992063.080 6       -94.655          38.000  
R17  19848404.331 5 106212813.26525     -1248.229          32.000  
R24  23532952.322 6 125841265.045 6     -3998.386          39.000  
E10  25244748.594 7 132662061.790 7      -593.599          47.000  
E11  24264682.173 7 127511783.980 7       995.673          43.000  
E12  26853577.177 5 141116484.911 5     -1759.534          33.000  
E24  26337394.414 7 138403934.128 7     -1553.055          43.000  
J 2  39407570.343 5 207088166.455 5       413.188          35.000  
J 3  37896377.386 7 199146806.867 7      -218.352          43.000  
J 4  38214166.425 4               4       -37.771          25.000  
> 2024 11 28 10 17 34.4010000  0 18                     
G 2  22591187.038 4 118717497.540 4      3097.152          29.000  
G10  25691068.776 6 135007509.049 6      1649.660          41.000  
G16  23471845.501 6 123345384.125 6     -2513.233          40.000  
G21  21105988.518 6 110912753.432 6      2211.804          36.000  
G23  25906703.245 5 136140661.54025       126.437          35.000  
G26  25974460.085 4               4     -2929.650          28.000  
G27  21988711.587 8 115551432.125 8     -2495.919          48.000  
R14  22583450.211 5 120382390.868 5     -3038.013          35.000  
R15  19834985.315 6 105992082.077 6       -94.738          38.000  
R17  19848453.314 5 106213062.78525     -1247.797          31.000  
R24  23533101.940 6 125842064.620 6     -3997.869          39.000  
E10  25244771.524 7 132662180.499 7      -593.538          47.000  
E11  24264644.533 7 127511584.808 7       996.038          43.000  
E12  26853643.907 5 141116836.846 5     -1759.270          33.000  
E24  26337453.413 7 138404244.740 7     -1553.090          42.000  
J 2  39407555.475 5 207088083.807 5       413.341          35.000  
J 3  37896385.745 7 199146850.492 7      -217.958          43.000  
J 4  38214168.205 4               4       -24.891          25.000  
> 2024 11 28 10 17 34.6010000  0 18                     
G 2  22591068.324 5 118716877.936 5      3097.788          33.000  
G10  25691005.902 6 135007179.311 6      1648.200          37.000  
G16  23471941.251 6 123345886.939 6     -2514.081          41.000  
G21  21105904.356 6 110912311.028 6      2212.219          36.000  
G23  25906700.610 5 136140636.52225       124.681          35.000  
G26  25974569.323 3               3     -2930.878          22.000  
G27  21988806.656 8 115551931.405 8     -2496.682          49.000  
R14  22583564.335 5 120382998.636 5     -3038.584          35.000  
R15  19834988.875 6 105992101.173 6       -95.911          38.000  
R17  19848503.606 5 106213312.32425     -1246.635          31.000  
R24  23533251.453 6 125842864.362 6     -3999.443          39.000  
E10  25244794.104 7 132662299.345 7      -594.576          47.000  
E11  24264606.823 7 127511385.755 7       995.199          43.000  
E12  26853710.741 6 141117188.922 6     -1760.776          39.000  
E24  26337512.413 6 138404555.512 6     -1554.241          41.000  
J 2  39407538.810 5 207088001.178 5       413.287          34.000  
J 3  37896393.859 7 199146894.188 7      -218.354          43.000  
J 4  38214169.723 4               4       -31.262          25.000  
> 2024 11 28 10 17 34.8010000  0 18                     
G 2  22590952.611 4 118716258.369 4      3098.056          29.000  
G10  25690942.872 5 135006849.679 5      1647.993          35.000  
G16  23472037.052 7 123346389.735 7     -2513.746          42.000  
G21  21105820.263 6 110911868.613 6      2212.329          37.000  
G23  25906696.649 4 136140611.63224       122.326          28.000  
G26  25974680.115 4               4     -2933.700          29.000  
G27  21988901.759 8 115552430.723 8     -2496.772          49.000  
R14  22583678.338 6 120383606.463 6     -3039.377          36.000  
R15  19834992.505 6 105992120.267 6       -95.645          38.000  
R17  19848549.221 5 106213562.03925     -1248.003          31.000  
R24  23533401.141 6 125843664.164 6     -3999.137          39.000  
E10  25244816.982 7 132662418.255 7      -594.681          45.000  
E11  24264568.921 7 127511186.702 7       995.235          42.000  
E12  26853777.663 7 141117541.017 7     -1760.571          42.000  
E24  26337571.429 6 138404866.282 6     -1553.848          40.000  
J 2  39407522.355 5 207087918.599 5       413.486          31.000  
J 3  37896402.200 7 199146937.854 7      -218.207          42.000  
J 4  38214171.799 4               4       -31.262          24.000  
> 2024 11 28 10 17 35.0010000  0 18                     
G 2  22590835.904 4 118715638.813 4      3097.736          29.000  
G10  25690879.825 5 135006519.992 5      1648.566          35.000  
G16  23472132.871 7 123346892.536 7     -2514.140          43.000  
G21  21105736.153 6 110911426.178 6      2212.189          37.000  
G23  25906692.182 4               4       123.040          27.000  
G26  25974789.213 5               5     -2933.167          30.000  
G27  21988996.671 8 115552930.085 8     -2496.982          49.000  
R14  22583792.287 6 120384214.192 6     -3038.928          38.000  
R15  19834995.942 6 105992139.390 6       -95.737          38.000  
R17  19848597.104 5 106213811.78425     -1248.610          31.000  
R24  23533550.585 6 125844464.043 6     -3999.385          40.000  
E10  25244839.614 7 132662537.192 7      -594.900          45.000  
E11  24264530.723 7 127510987.673 7       994.969          42.000  
E12  26853844.584 7 141117893.211 7     -1761.034          43.000  
E24  26337630.498 6 138405177.031 6     -1553.872          40.000  
J 2  39407504.416 5 207087836.047 5       412.961          30.000  
J 3  37896410.384 6 199146981.498 6      -218.259          41.000  
J 4  38214172.532 4               4       -31.262          24.000  
> 2024 11 28 10 17 35.2010000  0 18                     
G 2  22590713.317 4 118715019.296 4      3097.662          28.000  
G10  25690817.039 5 135006190.364 5      1648.453          35.000  
G16  23472228.516 7 123347395.328 7     -2513.802          44.000  
G21  21105651.973 6 110910983.783 6      2211.768          39.000  
G23  25906687.976 4               4       116.970          27.000  
G26  25974900.703 5               5     -2931.986          30.000  
G27  21989091.600 8 115553429.531 8     -2497.413          48.000  
R14  22583906.307 6 120384821.934 6     -3038.430          38.000  
R15  19834999.642 6 105992158.574 6       -96.094          38.000  
R17  19848641.462 5 106214061.56725     -1248.477          31.000  
R24  23533700.081 6 125845263.995 6     -3999.869          41.000  
E10  25244862.370 7 132662656.190 7      -595.154          45.000  
E11  24264492.472 7 127510788.657 7       994.989          42.000  
E12  26853911.803 7 141118245.501 7     -1761.620          43.000  
E24  26337689.462 6 138405487.806 6     -1553.802          40.000  
J 2  39407486.809 5 207087753.501 5       412.109          30.000  
J 3  37896418.725 6 199147025.148 6      -218.281          41.000  
J 4  38214171.852 4               4       -32.937          24.000  
> 2024 11 28 10 17 35.4010000  0 18                     
G 2  22590592.753 4 118714399.687 4      3097.967          28.000  
G10  25690754.218 6 135005860.737 6      1648.160          37.000  
G16  23472324.126 7 123347898.138 7     -2513.933          44.000  
G21  21105567.881 6 110910541.370 6      2212.122          39.000  
G23  25906684.940 5               5       125.225          32.000  
G26  25975015.002 5 136499610.79135     -2932.688          30.000  
G27  21989186.669 8 115553928.954 8     -2497.083          48.000  
R14  22584020.257 6 120385429.677 6     -3038.709          38.000  
R15  19835003.114 6 105992177.738 6       -95.645          38.000  
R17  19848688.438 5 106214311.38725     -1249.375          31.000  
R24  23533849.629 6 125846063.928 6     -3999.798          41.000  
E10  25244884.933 7 132662775.183 7      -594.845          45.000  
E11  24264454.483 7 127510589.649 7       995.024          42.000  
E12  26853978.777 7 141118597.789 7     -1761.688          43.000  
E24  26337748.444 6 138405798.541 6     -1553.511          40.000  
J 2  39407461.262 4 207087670.966 4       412.590          29.000  
J 3  37896427.032 6 199147068.750 6      -217.790          41.000  
J 4  38214169.950 4               4       -32.500          25.000  
> 2024 11 28 10 17 35.6010000  0 18                     
G 2  22590472.591 4 118713780.237 4      3097.126          28.000  
G10  25690691.362 6 135005531.175 6      1647.388          38.000  
G16  23472419.753 7 123348400.994 7     -2514.499          44.000  
G21  21105483.753 6 110910099.044 6      2211.035          39.000  
G23  25906683.474 5               5       123.730          32.000  
G26  25975124.170 4 136500197.42224     -2932.543          29.000  
G27  21989281.825 8 115554428.490 8     -2497.890          48.000  
R14  22584134.207 6 120386037.471 6     -3039.025          38.000  
R15  19835006.639 6 105992197.033 6       -96.652          38.000  
R17  19848736.182 5 106214561.29025     -1251.146          31.000  
R24  23533999.213 6 125846863.972 6     -4000.231          41.000  
E10  25244907.321 7 132662894.278 7      -595.816          45.000  
E11  24264416.511 7 127510390.697 7       994.654          42.000  
E12  26854046.030 7 141118950.164 7     -1762.264          43.000  
E24  26337807.548 6 138406109.382 6     -1554.457          40.000  
J 2  39407443.637 4 207087588.346 4       413.114          29.000  
J 3  37896435.355 6 199147112.443 6      -218.584          41.000  
J 4  38214170.072 4               4       -32.641          25.000  
> 2024 11 28 10 17 35.8010000  0 18                     
G 2  22590355.657 4 118713160.717 4      3097.553          28.000  
G10  25690628.611 6 135005201.589 6      1647.600          38.000  
G16  23472515.450 7 123348903.832 7     -2514.254          44.000  
G21  21105399.539 6 110909656.694 6      2211.566          39.000  
G23  25906678.780 5               5       122.293          32.000  
G26  25975238.661 4 136500784.06124     -2933.463          29.000  
G27  21989376.859 8 115554927.974 8     -2497.604          48.000  
R14  22584248.209 6 120386645.254 6     -3039.030          38.000  
R15  19835010.339 6 105992216.292 6       -96.444          38.000  
R17  19848781.849 5 106214811.11425     -1249.427          31.000  
R24  23534148.639 6 125847663.978 6     -4000.362          41.000  
E10  25244929.867 7 132663013.329 7      -595.294          45.000  
E11  24264378.697 7 127510191.762 7       994.530          42.000  
E12  26854113.196 7 141119302.508 7     -1761.793          44.000  
E24  26337866.600 6 138406420.151 6     -1554.142          40.000  
J 2  39407422.801 4 207087505.789 4       412.819          29.000  
J 3  37896443.662 6 199147156.087 6      -218.605          41.000  
J 4  38214172.393 4               4       -33.255          25.000  
> 2024 11 28 10 17 36.0010000  0 18                     
G 2  22590241.986 4 118712541.205 4      3097.636          28.000  
G10  25690565.878 6 135004872.013 6      1647.852          38.000  
G16  23472611.217 7 123349406.680 7     -2514.109          44.000  
G21  21105315.359 6 110909214.387 6      2211.633          39.000  
G23  25906676.197 5 136140490.20435       123.130          33.000  
G26  25975351.093 4 136501370.61524     -2932.798          29.000  
G27  21989471.840 8 115555427.481 8     -2497.620          48.000  
R14  22584362.142 6 120387253.071 6     -3038.924          38.000  
R15  19835013.916 6 105992235.581 6       -96.207          38.000  
R17  19848829.733 5 106215061.05025     -1249.280          31.000  
R24  23534298.240 6 125848463.990 6     -4000.078          41.000  
E10  25244952.378 7 132663132.435 7      -595.467          45.000  
E11  24264340.707 7 127509992.830 7       994.701          42.000  
E12  26854180.396 7 141119654.904 7     -1761.963          44.000  
E24  26337925.948 6 138406730.935 6     -1553.744          40.000  
J 2  39407405.997 4 207087423.262 4       412.227          28.000  
J 3  37896451.846 6 199147199.735 6      -218.137          41.000  
J 4  38214171.049 4               4       -31.413          25.000  
> 2024 11 28 10 17 36.2010000  0 18                     
G 2  22590125.715 4 118711921.713 4      3097.427          28.000  
G10  25690503.057 6 135004542.365 6      1648.100          38.000  
G16  23472706.879 7 123349909.466 7     -2514.010          44.000  
G21  21105231.266 6 110908772.050 6      2211.835          38.000  
G23  25906672.864 5 136140465.53825       122.984          33.000  
G26  25975461.727 4 136501957.18024     -2932.894          28.000  
G27  21989566.927 8 115555926.923 8     -2497.355          48.000  
R14  22584476.109 6 120387860.821 6     -3038.966          38.000  
R15  19835017.441 6 105992254.847 6       -96.536          37.000  
R17  19848874.772 5 106215310.99825     -1250.256          31.000  
R24  23534447.683 6 125849263.953 6     -3999.962          41.000  
E10  25244974.906 7 132663251.467 7      -595.112          45.000  
E11  24264302.666 7 127509793.878 7       994.725          42.000  
E12  26854247.353 7 141120007.225 7     -1761.626          44.000  
E24  26337984.930 6 138407041.690 6     -1553.600          40.000  
J 2  39407390.135 4 207087232.09714       413.296          28.000  
J 3  37896460.082 6 199147241.83936      -218.101          41.000  
J 4  38214168.868 4               4       -32.175          25.000  
> 2024 11 28 10 17 36.4010000  0 19                     
G 2  22590006.443 4 118711302.195 4      3097.513          28.000  
G10  25690440.323 6 135004212.731 6      1648.501          38.000  
G16  23472802.454 7 123350412.234 7     -2513.432          44.000  
G21  21105147.121 6 110908329.730 6      2211.835          38.000  
G23  25906665.273 5 136140440.83425       124.010          33.000  
G26  25975570.756 4 136502543.81024     -2933.182          28.000  
G27  21989662.030 8 115556426.362 8     -2496.891          48.000  
R14  22584590.129 6 120388468.576 6     -3038.290          38.000  
R15  19835021.018 6 105992274.101 6       -95.792          37.000  
R17  19848922.376 5 106215560.87625     -1249.548          31.000  
R18  20396983.629 4               4      2594.447          25.000  
R24  23534597.232 6 125850063.894 6     -3999.457          41.000  
E10  25244997.452 7 132663370.524 7      -595.063          45.000  
E11  24264264.712 7 127509594.909 7       994.862          42.000  
E12  26854314.589 7 141120359.555 7     -1761.406          44.000  
E24  26338044.068 6 138407352.402 6     -1553.339          40.000  
J 2  39407372.126 4 207087149.469 4       413.231          28.000  
J 3  37896468.267 6 199147285.44026      -217.834          41.000  
J 4  38214171.834 4               4       -32.031          25.000  
> 2024 11 28 10 17 36.6010000  0 19                     
G 2  22589891.097 4 118710682.621 4      3098.037          29.000  
G10  25690377.520 6 135003883.049 6      1648.821          38.000  
G16  23472898.186 7 123350914.958 7     -2513.300          44.000  
G21  21105062.872 6 110907887.370 6      2212.091          38.000  
G23  25906660.579 5 136140416.13225       123.355          33.000  
G26  25975681.687 4 136503130.23024     -2931.992          28.000  
G27  21989757.117 8 115556925.753 8     -2496.621          48.000  
R14  22584704.009 6 120389076.301 6     -3038.404          39.000  
R15  19835024.578 6 105992293.326 6       -95.907          37.000  
R17  19848969.404 5 106215810.77625     -1249.331          31.000  
R18  20396885.995 4               4      2595.601          25.000  
R24  23534746.832 6 125850863.806 6     -3999.493          41.000  
E10  25245019.910 7 132663489.525 7      -594.907          45.000  
E11  24264226.600 7 127509395.890 7       995.305          42.000  
E12  26854381.720 7 141120711.847 7     -1761.263          44.000  
E24  26338103.225 6 138407663.070 6     -1552.956          40.000  
J 2  39407358.358 4 207087066.723 4       414.021          28.000  
J 3  37896476.608 6 199147328.95826      -217.466          41.000  
J 4  38214174.050 4               4       -30.900          25.000  
> 2024 11 28 10 17 36.8010000  0 20                     
G 2  22589773.081 4 118710063.003 4      3097.705          29.000  
G 4  25735503.469 3               3     -2844.000          19.000  
G10  25690314.734 6 135003553.359 6      1648.434          38.000  
G16  23472993.952 7 123351417.641 7     -2513.273          44.000  
G21  21104978.779 6 110907444.982 6      2211.633          38.000  
G23  25906655.135 4 136140391.39724       123.565          28.000  
G26  25975790.873 4 136503716.70524     -2932.373          28.000  
G27  21989852.185 8 115557425.118 8     -2496.777          48.000  
R14  22584817.976 6 120389683.968 6     -3038.237          39.000  
R15  19835028.121 6 105992312.534 6       -96.055          37.000  
R17  19849015.595 5 106216060.64825     -1249.205          30.000  
R18  20396790.629 4               4      2596.232          25.000  
R24  23534896.398 6 125851663.665 6     -3999.098          41.000  
E10  25245042.543 7 132663608.493 7      -594.654          45.000  
E11  24264188.559 7 127509196.849 7       995.445          42.000  
E12  26854448.659 7 141121064.120 7     -1761.333          44.000  
E24  26338162.363 6 138407973.688 6     -1552.894          40.000  
J 2  39407344.555 4 207086983.952 4       414.075          28.000  
J 3  37896484.932 6 199147372.45126      -217.451          41.000  
J 4  38214175.534 4               4       -30.749          24.000  
> 2024 11 28 10 17 37.0010000  0 20                     
G 2  22589657.962 5 118709443.393 5      3097.091          30.000  
G 4  25735614.191 3               3     -2844.000          18.000  
G10  25690251.844 6 135003223.570 6      1648.919          36.000  
G16  23473089.562 7 123351920.284 7     -2513.114          44.000  
G21  21104894.721 6 110907002.588 6      2211.853          38.000  
G23  25906650.493 4 136140366.67824       123.459          28.000  
G26  25975903.462 4 136504303.16524     -2932.260          28.000  
G27  21989947.324 8 115557924.452 8     -2496.672          48.000  
R14  22584932.031 6 120390291.615 6     -3038.137          39.000  
R15  19835031.698 6 105992331.719 6       -96.064          37.000  
R17  19849063.042 5 106216310.52325     -1249.580          30.000  
R18  20396691.512 4 108878849.06234      2596.080          26.000  
R24  23535046.016 6 125852463.511 6     -3999.306          41.000  
E10  25245064.879 7 132663727.458 7      -594.857          45.000  
E11  24264150.552 7 127508997.817 7       995.047          42.000  
E12  26854515.633 7 141121416.368 7     -1761.320          43.000  
E24  26338221.537 6 138408284.294 6     -1553.019          40.000  
J 2  39407327.349 4 207086901.186 4       413.829          28.000  
J 3  37896493.238 6 199147415.91926      -217.365          41.000  
J 4  38214177.296 4               4       -28.190          24.000  
> 2024 11 28 10 17 37.2010000  0 20                     
G 2  22589543.070 5 118708823.750 5      3098.384          31.000  
G 4  25735720.550 3               3     -2844.000          18.000  
G10  25690189.040 5 135002893.719 5      1649.464          35.000  
G16  23473185.224 7 123352422.891 7     -2512.962          43.000  
G21  21104810.524 6 110906560.172 6      2212.262          38.000  
G23  25906643.810 3               3       130.211          20.000  
G26  25976012.718 4 136504889.56724     -2932.323          29.000  
G27  21990042.218 8 115558423.774 8     -2496.668          49.000  
R14  22585046.051 6 120390899.237 6     -3037.924          39.000  
R15  19835035.362 6 105992350.901 6       -95.939          37.000  
R17  19849111.048 5 106216560.34525     -1249.530          30.000  
R18  20396596.496 4 108878329.81024      2596.200          26.000  
R24  23535195.792 6 125853263.349 6     -3999.200          41.000  
E10  25245087.460 7 132663846.402 7      -594.838          45.000  
E11  24264112.685 7 127508798.744 7       995.316          42.000  
E12  26854582.711 7 141121768.620 7     -1761.324          42.000  
E24  26338280.920 6 138408594.836 6     -1552.785          40.000  
J 2  39407314.523 4 207086818.387 4       413.995          29.000  
J 3  37896501.579 7 199147459.33827      -216.908          42.000  
J 4  38214178.396 3               3       -28.160          23.000  
> 2024 11 28 10 17 37.4010000  0 20                     
G 2  22589424.601 5 118708204.120 5      3098.463          34.000  
G 4  25735825.007 3               3     -2844.000          18.000  
G10  25690126.062 5 135002564.162 5      1645.877          32.000  
G16  23473281.061 6 123352925.524 6     -2513.672          41.000  
G21  21104726.362 6 110906117.723 6      2212.469          38.000  
G23  25906634.107 3               3       130.370          21.000  
G26  25976123.597 4 136505475.87924     -2930.966          29.000  
G27  21990137.147 8 115558923.134 8     -2497.141          49.000  
R14  22585160.018 6 120391506.884 6     -3038.816          38.000  
R15  19835038.957 6 105992370.037 6       -95.568          37.000  
R17  19849156.575 5 106216810.28925     -1249.704          30.000  
R18  20396498.949 4 108877810.65124      2595.904          27.000  
R24  23535345.480 6 125854063.262 6     -4000.066          41.000  
E10  25245110.180 7 132663965.386 7      -595.239          45.000  
E11  24264075.063 7 127508599.678 7       994.990          42.000  
E12  26854649.842 7 141122120.957 7     -1762.092          42.000  
E24  26338339.937 6 138408905.376 6     -1552.976          40.000  
J 2  39407305.885 5 207086735.513 5       414.291          33.000  
J 3  37896509.885 7 199147502.71927      -216.997          42.000  
J 4  38214177.837 3               3       -25.865          23.000  
> 2024 11 28 10 17 37.6010000  0 20                     
G 2  22589301.577 5 118707584.323 5      3099.213          35.000  
G 4  25735936.793 3               3     -2844.000          18.000  
G10  25690063.521 6 135002234.756 6      1648.324          39.000  
G16  23473376.862 6 123353428.385 6     -2514.803          41.000  
G21  21104642.060 6 110905675.316 6      2211.951          38.000  
G23  25906629.657 3               3       117.786          21.000  
G26  25976235.627 5 136506062.51225     -2933.360          30.000  
G27  21990232.338 8 115559422.686 8     -2497.964          49.000  
R14  22585274.073 6 120392114.785 6     -3040.314          37.000  
R15  19835042.761 6 105992389.393 6       -97.217          37.000  
R17  19849203.534 5 106217060.31525     -1251.179          30.000  
R18  20396401.577 4 108877291.58024      2595.450          27.000  
R24  23535495.150 6 125854863.499 6     -4002.022          38.000  
E10  25245132.656 7 132664084.639 7      -596.921          46.000  
E11  24264037.388 7 127508400.776 7       993.992          43.000  
E12  26854717.113 7 141122473.489 7     -1763.018          43.000  
E24  26338399.198 6 138409216.235 6     -1555.043          40.000  
J 2  39407296.950 5 207086652.830 5       413.534          33.000  
J 3  37896518.279 7 199147546.16727      -217.642          42.000  
J 4  38214177.628 3               3       -27.097          23.000  
> 2024 11 28 10 17 37.8010000  0 19                     
G 2  22589180.490 6 118706965.067 6      3095.103          37.000  
G 4  25736047.811 3               3     -2844.000          18.000  
G10  25690001.049 6 135001905.385 6      1646.569          41.000  
G16  23473472.542 6 123353931.557 6     -2516.323          40.000  
G21  21104558.089 6 110905233.370 6      2208.813          40.000  
G23  25906627.092 4               4       121.803          29.000  
G26  25976345.267 3               3     -2900.787          21.000  
G27  21990327.564 7 115559922.409 7     -2499.065          46.000  
R14  22585388.110 6 120392722.905 6     -3040.842          36.000  
R15  19835046.478 5 105992409.200 5      -100.063          35.000  
R17  19849249.829 4 106217310.60524     -1251.881          24.000  
R24  23535644.873 6 125855663.568 6     -3999.953          39.000  
E10  25245155.341 7 132664204.108 7      -597.760          45.000  
E11  24263999.573 6 127508202.214 6       992.074          41.000  
E12  26854784.348 7 141122826.024 7     -1762.613          43.000  
E24  26338458.546 6 138409527.313 6     -1555.688          38.000  
J 2  39407285.381 5 207086570.489 5       410.691          33.000  
J 3  37896526.672 7 199147590.05727      -220.697          42.000  
J 4  38214180.786 5               5       -31.997          30.000  
> 2024 11 28 10 17 38.0010000  0 19                     
G 2  22589059.420 6 118706345.777 6      3096.858          37.000  
G 4  25736157.800 3               3     -2844.000          18.000  
G10  25689938.455 6 135001575.830 6      1648.699          39.000  
G16  23473567.977 6 123354434.292 6     -2511.793          36.000  
G21  21104474.119 6 110904791.314 6      2210.675          40.000  
G23  25906619.519 4               4       125.770          29.000  
G26  25976459.705 3               3     -2900.787          21.000  
G27  21990422.703 7 115560421.990 7     -2497.031          46.000  
R14  22585502.165 6 120393330.792 6     -3038.591          36.000  
R15  19835049.933 5 105992428.692 5       -96.629          35.000  
R17  19849303.873 4 106217560.65224     -1250.122          24.000  
R24  23535794.648 6 125856463.629 6     -3999.662          41.000  
E10  25245178.079 7 132664323.398 7      -595.147          43.000  
E11  24263961.636 6 127508003.500 6       995.207          41.000  
E12  26854851.410 7 141123178.568 7     -1762.696          43.000  
E24  26338517.493 6 138409838.045 6     -1552.140          38.000  
J 2  39407271.735 5 207086487.868 5       414.634          32.000  
J 3  37896535.049 6 199147633.74726      -217.323          40.000  
J 4  38214182.461 5               5       -32.259          30.000  
> 2024 11 28 10 17 38.2010000  0 19                     
G 2  22588940.549 6 118705726.425 6      3097.033          37.000  
G 4  25736265.084 2               2     -2844.000          17.000  
G10  25689875.896 5 135001246.126 5      1649.976          35.000  
G16  23473663.622 6 123354936.988 6     -2514.224          38.000  
G21  21104389.956 6 110904349.190 6      2210.480          40.000  
G23  25906613.917 4               4       122.198          29.000  
G26  25976571.910 3               3     -2937.154          22.000  
G27  21990517.824 8 115560921.561 8     -2497.990          48.000  
R14  22585616.114 5 120393938.543 5     -3037.644          33.000  
R15  19835053.615 5 105992448.144 5       -96.910          35.000  
R17  19849350.046 3 106217811.09923     -1252.602          23.000  
R24  23535944.336 6 125857263.637 6     -4000.013          41.000  
E10  25245200.607 7 132664442.483 7      -595.906          43.000  
E11  24263923.944 6 127507804.647 6       993.765          41.000  
E12  26854918.558 6 141123531.122 6     -1762.896          41.000  
E24  26338576.474 6 138410148.690 6     -1553.451          38.000  
J 2  39407251.213 5 207086405.14625       413.380          32.000  
J 3  37896543.564 7 199147677.31227      -217.972          42.000  
J 4  38214184.172 5               5       -31.344          31.000  
> 2024 11 28 10 17 38.4010000  0 19                     
G 2  22588820.090 6 118705107.015 6      3097.215          37.000  
G 4  25736375.491 2               2     -2844.000          17.000  
G10  25689813.093 6 135000916.642 6      1646.330          39.000  
G16  23473759.336 6 123355439.746 6     -2513.818          36.000  
G21  21104305.811 6 110903907.127 6      2210.107          40.000  
G23  25906608.682 6 136140150.32436       120.972          36.000  
G26  25976685.825 3               3     -2935.708          22.000  
G27  21990613.102 8 115561421.194 8     -2498.263          48.000  
R14  22585730.117 5 120394546.379 5     -3040.051          33.000  
R15  19835057.315 6 105992467.731 6       -97.966          37.000  
R17  19849394.352 4 106218061.43924     -1251.364          24.000  
R24  23536094.024 6 125858063.804 6     -4001.248          40.000  
E10  25245223.676 7 132664561.796 7      -596.638          46.000  
E11  24263886.304 6 127507605.907 6       993.504          41.000  
E12  26854985.637 5 141123883.810 5     -1763.626          35.000  
E24  26338635.770 6 138410459.478 6     -1554.185          40.000  
J 2  39407239.260 5 207086322.53025       413.354          33.000  
J 3  37896551.783 7 199147720.96327      -218.256          42.000  
J 4  38214187.156 5 200816898.74835       -31.725          31.000  
> 2024 11 28 10 17 38.6010000  0 18                     
G 2  22588704.814 6 118704487.701 6      3096.781          36.000  
G10  25689750.586 6 135000587.140 6      1647.551          41.000  
G16  23473854.894 6 123355942.524 6     -2513.459          36.000  
G21  21104221.405 6 110903465.117 6      2210.455          40.000  
G23  25906606.955 6 136140125.89626       122.206          38.000  
G26  25976798.484 4               4     -2930.754          29.000  
G27  21990708.171 7 115561920.770 7     -2497.375          47.000  
R14  22585844.171 5 120395154.290 5     -3039.161          33.000  
R15  19835060.909 6 105992487.291 6       -97.063          38.000  
R17  19849436.669 4 106218311.74224     -1251.332          25.000  
R24  23536243.712 6 125858863.828 6     -3999.843          40.000  
E10  25245246.588 7 132664681.095 7      -596.261          47.000  
E11  24263848.542 6 127507407.189 6       993.690          41.000  
E12  26855054.425 4 141124236.782 4     -1765.226          27.000  
E24  26338694.944 6 138410770.260 6     -1553.767          40.000  
J 2  39407223.782 6 207086239.89426       413.641          36.000  
J 3  37896560.159 7 199147764.60027      -217.698          42.000  
J 4  38214190.646 5 200816905.08825       -31.310          31.000  
> 2024 11 28 10 17 38.8010000  0 18                     
G 2  22588588.875 6 118703868.444 6      3096.012          36.000  
G10  25689688.202 6 135000257.669 6      1647.054          41.000  
G16  23473950.346 6 123356445.387 6     -2514.686          40.000  
G21  21104137.190 6 110903023.169 6      2209.460          40.000  
G23  25906600.708 6 136140101.46026       122.026          41.000  
G26  25976909.991 5               5     -2933.134          30.000  
G27  21990803.240 7 115562420.271 7     -2497.810          45.000  
R14  22585958.278 5 120395762.220 5     -3040.080          33.000  
R15  19835064.714 6 105992506.888 6       -97.929          38.000  
R17  19849482.633 4 106218562.05424     -1251.494          26.000  
R24  23536393.435 6 125859663.854 6     -4000.297          40.000  
E10  25245269.570 7 132664800.363 7      -596.606          47.000  
E11  24263810.901 6 127507208.458 6       993.391          41.000  
E12  26855121.068 5 141124589.212 5     -1762.069          35.000  
E24  26338754.222 6 138411081.034 6     -1554.330          41.000  
J 2  39407210.205 6 207086157.24626       413.323          36.000  
J 3  37896568.501 7 199147808.26727      -218.610          43.000  
J 4  38214191.902 5 200816911.51825       -32.656          32.000  
> 2024 11 28 10 17 39.0010000  0 18                     
G 2  22588471.731 6 118703249.211 6      3096.695          36.000  
G10  25689625.800 6 134999928.310 6      1646.624          40.000  
G16  23474046.043 6 123356948.312 6     -2514.556          40.000  
G21  21104053.045 6 110902581.217 6      2209.863          40.000  
G23  25906600.393 6 136140077.16526       121.233          41.000  
G26  25977019.962 5               5     -2932.415          30.000  
G27  21990898.413 7 115562919.846 7     -2497.914          45.000  
R14  22586072.385 5 120396370.250 5     -3040.235          34.000  
R15  19835068.570 6 105992526.504 6       -97.978          38.000  
R17  19849530.900 4 106218812.36324     -1251.385          26.000  
R24  23536543.193 6 125860463.922 6     -4000.591          40.000  
E10  25245292.500 7 132664919.713 7      -596.856          47.000  
E11  24263773.191 6 127507009.792 6       993.638          41.000  
E12  26855185.110 5 141124941.809 5     -1763.091          35.000  
E24  26338813.309 6 138411391.867 6     -1553.826          41.000  
J 2  39407190.766 5 207086074.61125       413.219          35.000  
J 3  37896576.842 7 199147851.94627      -218.231          43.000  
J 4  38214193.298 5 200816917.94125       -31.773          32.000  
> 2024 11 28 10 17 39.2010000  0 18                     
G 2  22588354.292 6 118702629.939 6      3096.166          36.000  
G10  25689563.188 6 134999598.928 6      1646.712          38.000  
G16  23474141.897 6 123357451.247 6     -2515.029          40.000  
G21  21103968.760 6 110902139.297 6      2209.204          40.000  
G23  25906595.193 6 136140052.91926       121.036          41.000  
G26  25977132.376 5 136510747.54635     -2933.737          31.000  
G27  21990993.273 7 115563419.486 7     -2498.444          45.000  
R14  22586186.510 5 120396978.276 5     -3040.433          34.000  
R15  19835072.200 6 105992546.228 6       -99.222          37.000  
R17  19849574.543 4 106219062.84524     -1252.924          27.000  
R24  23536692.811 6 125861264.116 6     -4001.457          40.000  
E10  25245315.255 7 132665039.129 7      -597.245          47.000  
E11  24263735.464 6 127506811.182 6       992.885          41.000  
E12  26855255.103 6 141125294.510 6     -1763.687          38.000  
E24  26338872.587 6 138411702.757 6     -1554.576          41.000  
J 2  39407174.851 5 207085992.00225       412.983          35.000  
J 3  37896585.131 7 199147895.64427      -218.574          43.000  
J 4  38214195.026 5 200816924.35325       -32.235          32.000  
> 2024 11 28 10 17 39.4010000  0 18                     
G 2  22588231.372 6 118702010.727 6      3095.884          36.000  
G10  25689500.577 6 134999269.589 6      1646.488          38.000  
G16  23474237.752 6 123357954.234 6     -2515.241          41.000  
G21  21103884.790 6 110901697.460 6      2208.740          41.000  
G23  25906591.738 7 136140028.71227       120.882          42.000  
G26  25977244.110 5 136511334.19025     -2933.646          30.000  
G27  21991088.376 7 115563919.181 7     -2498.568          45.000  
R14  22586300.529 5 120397586.361 5     -3040.637          34.000  
R15  19835075.794 6 105992565.959 6       -98.992          37.000  
R17  19849620.507 4 106219313.33424     -1252.463          28.000  
R24  23536842.481 6 125862064.303 6     -4001.185          40.000  
E10  25245337.993 7 132665158.589 7      -597.420          47.000  
E11  24263697.841 6 127506612.620 6       992.623          41.000  
E12  26855322.059 6 141125647.203 6     -1763.698          39.000  
E24  26338931.970 7 138412013.677 7     -1554.893          42.000  
J 2  39407158.692 5 207085909.45025       412.742          35.000  
J 3  37896593.507 7 199147939.38827      -218.842          44.000  
J 4  38214196.195 5 200816930.73025       -32.412          32.000  
> 2024 11 28 10 17 39.6010000  0 18                     
G 2  22588113.950 6 118701391.549 6      3095.772          37.000  
G10  25689437.931 6 134998940.363 6      1646.139          38.000  
G16  23474333.588 7 123358457.261 7     -2515.037          42.000  
G21  21103800.697 6 110901255.627 6      2209.210          41.000  
G23  25906587.655 7 136140004.55227       120.826          42.000  
G26  25977356.420 5 136511920.92725     -2933.368          30.000  
G27  21991183.463 7 115564418.901 7     -2498.540          45.000  
R14  22586414.759 5 120398194.502 5     -3040.254          35.000  
R15  19835079.319 6 105992585.749 6       -98.529          37.000  
R17  19849670.467 4 106219563.84024     -1252.114          29.000  
R24  23536992.239 6 125862864.503 6     -4000.796          40.000  
E10  25245360.608 7 132665278.087 7      -597.383          47.000  
E11  24263660.062 6 127506414.075 6       992.724          41.000  
E12  26855389.068 6 141125999.924 6     -1763.440          39.000  
E24  26338991.214 7 138412324.628 7     -1554.650          42.000  
J 2  39407143.179 5 207085826.89125       412.744          35.000  
J 3  37896601.970 7 199147983.12727      -218.531          44.000  
J 4  38214197.434 5 200816937.12725       -31.750          33.000  
> 2024 11 28 10 17 39.8010000  0 18                     
G 2  22587997.801 6 118700772.413 6      3096.013          37.000  
G10  25689375.424 6 134998611.084 6      1646.567          38.000  
G16  23474429.460 7 123358960.303 7     -2515.109          42.000  
G21  21103716.500 6 110900813.888 6      2208.679          41.000  
G23  25906585.037 7 136139980.36927       120.789          42.000  
G26  25977470.509 5 136512507.66325     -2934.062          30.000  
G27  21991278.514 7 115564918.628 7     -2498.794          45.000  
R14  22586528.848 5 120398802.696 5     -3040.841          35.000  
R15  19835082.984 6 105992605.570 6       -99.104          37.000  
R17  19849713.255 4 106219814.45224     -1252.849          29.000  
R24  23537141.857 6 125863664.690 6     -4000.929          40.000  
E10  25245383.381 7 132665397.611 7      -597.648          47.000  
E11  24263622.334 7 127506215.597 7       992.271          42.000  
E12  26855456.862 6 141126352.639 6     -1763.676          39.000  
E24  26339050.545 7 138412635.609 7     -1554.946          42.000  
J 2  39407127.666 5 207085744.34725       412.921          35.000  
J 3  37896610.416 7 199148026.93127      -219.010          44.000  
J 4  38214196.317 5 200816943.61125       -32.681          33.000  
> 2024 11 28 10 17 40.0010000  0 18                     
G 2  22587881.426 6 118700153.326 6      3096.137          37.000  
G10  25689312.760 6 134998281.830 6      1646.481          38.000  
G16  23474525.331 7 123359463.335 7     -2514.874          42.000  
G21  21103632.390 7 110900372.144 7      2208.942          42.000  
G23  25906576.958 7 136139956.19627       120.834          42.000  
G26  25977582.592 5 136513094.36925     -2933.071          30.000  
G27  21991373.565 7 115565418.326 7     -2497.979          45.000  
R14  22586643.025 5 120399410.858 5     -3040.693          35.000  
R15  19835086.649 6 105992625.406 6       -98.801          37.000  
R17  19849759.812 5 106220065.04525     -1253.009          30.000  
R24  23537291.441 6 125864464.872 6     -4000.644          41.000  
E10  25245406.014 7 132665517.129 7      -597.377          47.000  
E11  24263584.816 6 127506017.096 6       992.771          41.000  
E12  26855524.971 6 141126705.356 6     -1763.406          40.000  
E24  26339109.718 7 138412946.553 7     -1554.341          42.000  
J 2  39407114.229 5 207085661.77025       413.362          35.000  
J 3  37896618.757 7 199148070.72227      -218.674          44.000  
J 4  38214198.079 5 200816950.03725       -31.835          33.000  
> 2024 11 28 10 17 40.2010000  0 18                     
G 2  22587763.357 6 118699534.265 6      3095.348          37.000  
G10  25689250.044 6 134997952.548 6      1646.368          38.000  
G16  23474621.080 7 123359966.359 7     -2515.094          42.000  
G21  21103548.280 7 110899930.439 7      2208.734          42.000  
G23  25906571.705 7 136139932.05027       120.530          42.000  
G26  25977693.837 5 136513681.10325     -2933.674          30.000  
G27  21991468.669 7 115565918.029 7     -2498.431          45.000  
R14  22586757.097 5 120400019.032 5     -3040.963          35.000  
R15  19835090.261 6 105992645.273 6       -99.352          37.000  
R17  19849808.533 5 106220315.635 5     -1253.013          30.000  
R24  23537441.006 6 125865265.036 6     -4000.931          41.000  
E10  25245428.734 7 132665636.651 7      -597.680          47.000  
E11  24263547.176 6 127505818.614 6       992.559          41.000  
E12  26855592.398 6 141127058.098 6     -1763.930          40.000  
E24  26339168.909 7 138413257.498 7     -1554.676          42.000  
J 2  39407096.378 5 207085579.21625       412.885          35.000  
J 3  37896627.151 7 199148114.49727      -218.853          44.000  
J 4  38214203.419 5 200816956.53125       -32.284          33.000  
> 2024 11 28 10 17 40.4010000  0 18                     
G 2  22587646.249 6 118698915.162 6      3095.793          37.000  
G10  25689187.031 6 134997623.167 6      1646.150          37.000  
G16  23474716.830 7 123360469.315 7     -2514.710          42.000  
G21  21103464.152 7 110899488.721 7      2208.740          42.000  
G23  25906568.372 7 136139907.82327       121.375          42.000  
G26  25977806.583 4 136514267.80924     -2933.142          29.000  
G27  21991563.685 7 115566417.661 7     -2498.056          45.000  
R14  22586871.291 5 120400627.152 5     -3040.629          35.000  
R15  19835093.873 6 105992665.094 6       -99.083          37.000  
R17  19849858.894 5 106220566.282 5     -1254.395          30.000  
R24  23537590.712 6 125866065.099 6     -4000.002          41.000  
E10  25245451.245 7 132665756.122 7      -597.133          47.000  
E11  24263509.501 6 127505620.111 6       992.750          41.000  
E12  26855656.249 6 141127410.738 6     -1762.950          41.000  
E24  26339228.118 7 138413568.390 7     -1554.161          42.000  
J 2  39407080.986 5 207085496.57725       413.275          35.000  
J 3  37896635.544 7 199148158.25227      -218.637          44.000  
J 4  38214204.902 5 200816962.94125       -31.776          33.000  
> 2024 11 28 10 17 40.6010000  0 18                     
G 2  22587528.983 6 118698296.138 6      3094.810          37.000  
G10  25689124.158 6 134997293.889 6      1645.891          38.000  
G16  23474812.597 7 123360972.346 7     -2514.969          42.000  
G21  21103380.025 7 110899047.077 7      2208.258          42.000  
G23  25906564.289 7 136139883.65827       121.084          42.000  
G26  25977918.264 4 136514854.43624     -2933.729          29.000  
G27  21991658.824 7 115566917.347 7     -2498.478          45.000  
R14  22586985.555 5 120401235.341 5     -3041.232          35.000  
R15  19835097.468 6 105992684.977 6       -99.835          37.000  
R17  19849909.814 5 106220816.859 5     -1252.933          30.000  
R24  23537740.313 6 125866865.236 6     -4000.505          41.000  
E10  25245474.139 7 132665875.671 7      -597.830          47.000  
E11  24263471.809 6 127505421.700 6       991.817          41.000  
E12  26855724.322 7 141127763.461 7     -1763.672          42.000  
E24  26339287.327 7 138413879.337 7     -1554.891          42.000  
J 2  39407064.444 5 207085413.97825       413.288          35.000  
J 3  37896643.973 7 199148202.05027      -218.964          44.000  
J 4  38214204.152 5 200816969.46625       -32.865          33.000  
> 2024 11 28 10 17 40.8010000  0 18                     
G 2  22587411.317 6 118697677.130 6      3095.117          37.000  
G10  25689061.407 6 134996964.643 6      1646.273          40.000  
G16  23474908.294 7 123361475.385 7     -2515.036          42.000  
G21  21103295.915 6 110898605.477 6      2207.996          40.000  
G23  25906554.691 7 136139859.54827       120.734          42.000  
G26  25978030.923 4 136515441.08824     -2932.775          28.000  
G27  21991753.980 7 115567417.035 7     -2498.449          45.000  
R14  22587099.645 5 120401843.522 5     -3040.889          35.000  
R15  19835101.097 6 105992704.869 6       -99.727          37.000  
R17  19849957.750 5 106221067.615 5     -1254.218          30.000  
R24  23537889.931 6 125867665.369 6     -4000.484          41.000  
E10  25245496.912 7 132665995.217 7      -597.720          47.000  
E11  24263434.029 6 127505223.243 6       992.133          41.000  
E12  26855787.387 7 141128116.185 7     -1763.569          42.000  
E24  26339346.448 7 138414190.267 7     -1554.432          42.000  
J 2  39407049.419 5 207085331.38225       413.158          35.000  
J 3  37896652.244 7 199148245.86227      -219.105          44.000  
J 4  38214205.182 5 200816975.86925       -31.270          32.000  
> 2024 11 28 10 17 41.0010000  0 18                     
G 2  22587292.254 6 118697058.156 6      3094.611          37.000  
G10  25688998.726 6 134996635.450 6      1645.589          40.000  
G16  23475004.078 7 123361978.439 7     -2515.538          42.000  
G21  21103211.822 6 110898163.912 6      2207.574          40.000  
G23  25906554.168 7 136139835.43527       120.664          42.000  
G26  25978142.238 4 136516027.87124     -2933.922          28.000  
G27  21991848.996 7 115567916.757 7     -2498.662          45.000  
R14  22587213.717 5 120402451.757 5     -3041.449          35.000  
R15  19835104.936 6 105992724.833 6      -100.105          38.000  
R17  19850004.499 5 106221318.378 5     -1255.128          30.000  
R24  23538039.584 7 125868465.535 7     -4000.943          43.000  
E10  25245519.632 7 132666114.818 7      -598.295          46.000  
E11  24263396.057 6 127505024.867 6       991.623          41.000  
E12  26855854.047 7 141128468.962 7     -1764.000          44.000  
E24  26339405.709 6 138414501.248 6     -1554.919          41.000  
J 2  39407035.005 5 207085248.80225       412.631          35.000  
J 3  37896660.516 7 199148289.68427      -219.135          44.000  
J 4  38214206.246 4 200816982.40324       -31.966          27.000  
