     3.03           OBSERVATION DATA    M: Mixed            RINEX VERSION / TYPE
Emlid RGL 1.2.7                         20241128 124813 UTC PGM / RUN BY / DATE 
format: u-blox                                              COMMENT             
                                                            MARKER NAME         
                                                            MARKER NUMBER       
                                                            MARKER TYPE         
                                                            OBSERVER / AGENCY   
                    EMLID REACH M+                          REC # / TYPE / VERS 
                                                            ANT # / TYPE        
 -3035445.7356  4047994.9022  3870423.2492                  APPROX POSITION XYZ 
        0.0000        0.0000        0.0000                  ANTENNA: DELTA H/E/N
G    4 C1C L1C D1C S1C                                      SYS / # / OBS TYPES 
R    4 C1C L1C D1C S1C                                      SYS / # / OBS TYPES 
E    4 C1C L1C D1C S1C                                      SYS / # / OBS TYPES 
J    4 C1C L1C D1C S1C                                      SYS / # / OBS TYPES 
C    4 C1I L1I D1I S1I                                      SYS / # / OBS TYPES 
  2024    11    28    12    41   19.1970000     GPS         TIME OF FIRST OBS   
  2024    11    28    12    48   31.3970000     GPS         TIME OF LAST OBS    
G                                                           SYS / PHASE SHIFT   
R                                                           SYS / PHASE SHIFT   
E                                                           SYS / PHASE SHIFT   
J                                                           SYS / PHASE SHIFT   
C                                                           SYS / PHASE SHIFT   
  0                                                         GLONASS SLOT / FRQ #
 C1C    0.000 C1P    0.000 C2C    0.000 C2P    0.000        GLONASS COD/PHS/BIS 
                                                            END OF HEADER       
> 2024 11 28 12 41 19.1970000  0 22                     
G 2  19904884.657 7 104600877.11417     -1414.948          42.000  
G 3  21692139.273 6 113992935.976 6      3267.204          41.000  
G 7  22350434.568 5 117452137.490 5     -3024.655          31.000  
G 8  22114680.660 6 116213337.69116     -2414.167          38.000  
G14  20079624.192 6 105519156.713 6      2179.492          39.000  
G17  21732706.981 6 114206147.32516      1957.284          38.000  
G19  24360002.812 4               4      2791.542          24.000  
G21  20722573.625 7 108897866.050 7     -2692.582          44.000  
G22  22061385.723 5 115933395.38615      2774.950          35.000  
G30  21580495.747 4 113406335.53614     -1897.814          25.000  
R 2  23010376.278 4               4       798.062          25.000  
R 9  19107889.133 6 102035010.52216      2059.773          40.000  
R15  22772578.353 7 121689630.50817     -4391.705          44.000  
R16  18857382.928 8 100732678.099 8     -2372.672          48.000  
R18  19712070.348 6 105224279.774 6     -2538.727          40.000  
R19  18725732.498 5 100170061.965 5       -68.594          30.000  
E11  24431836.710 5 128390225.725 5     -2288.901          30.000  
E25  23741215.724 7 124760964.510 7     -1865.732          43.000  
E30  25819281.291 5 135681212.214 5      2575.443          30.000  
J 2  37058659.197 6 194744566.266 6       745.133          39.000  
J 3  37313195.890 7 196082168.427 7      -553.648          43.000  
J 4  36642169.510 6 192555900.29816       300.742          36.000  
> 2024 11 28 12 41 19.3970000  0 22                     
G 2  19904938.525 7 104601160.228 7     -1415.729          42.000  
G 3  21692015.010 7 113992282.589 7      3266.667          42.000  
G 7  22350550.018 5 117452742.364 5     -3023.967          30.000  
G 8  22114772.640 6 116213820.592 6     -2414.856          38.000  
G14  20079541.391 6 105518720.806 6      2179.736          39.000  
G17  21732632.695 6 114205756.021 6      1956.746          38.000  
G19  24359897.081 3               3      2793.041          23.000  
G21  20722676.076 7 108898404.655 7     -2693.118          44.000  
G22  22061280.027 5 115932840.386 5      2774.473          35.000  
G30  21580569.142 4 113406714.951 4     -1896.847          25.000  
R 2  23010347.450 4               4       799.463          25.000  
R 9  19107812.125 6 102034598.619 6      2059.365          41.000  
R15  22772742.751 7 121690508.910 7     -4392.270          44.000  
R16  18857471.662 8 100733152.668 8     -2373.037          48.000  
R18  19712165.434 6 105224787.525 6     -2538.522          40.000  
R19  18725735.831 4 100170075.733 4       -69.384          29.000  
E11  24431924.414 5 128390683.482 5     -2289.263          30.000  
E25  23741286.729 7 124761337.691 7     -1865.924          43.000  
E30  25819184.965 5 135680697.077 5      2575.428          30.000  
J 2  37058631.032 6 194744417.261 6       744.937          39.000  
J 3  37313217.005 7 196082279.241 7      -554.083          43.000  
J 4  36642158.168 6 192555840.359 6       299.698          36.000  
> 2024 11 28 12 41 19.5970000  0 22                     
G 2  19904992.342 7 104601443.272 7     -1415.338          42.000  
G 3  21691890.730 7 113991629.176 7      3266.894          42.000  
G 7  22350664.893 5 117453347.251 5     -3024.478          30.000  
G 8  22114864.568 6 116214303.432 6     -2414.254          38.000  
G14  20079458.502 6 105518284.858 6      2179.706          39.000  
G17  21732558.096 6 114205364.668 6      1956.564          38.000  
G19  24359791.664 3               3      2793.052          23.000  
G21  20722778.404 7 108898943.197 7     -2692.851          43.000  
G22  22061174.366 5 115932285.331 5      2774.858          35.000  
G30  21580641.194 4 113407094.415 4     -1897.138          25.000  
R 2  23010317.785 4               4       797.977          25.000  
R 9  19107735.065 6 102034186.656 6      2059.741          41.000  
R15  22772907.237 7 121691387.265 7     -4391.947          43.000  
R16  18857560.397 8 100733627.232 8     -2372.927          48.000  
R18  19712260.590 6 105225295.311 6     -2538.967          40.000  
R19  18725738.291 4 100170089.404 4       -68.216          29.000  
E11  24432013.445 5 128391141.181 5     -2288.211          30.000  
E25  23741357.525 7 124761710.804 7     -1865.445          43.000  
E30  25819086.843 5 135680181.951 5      2575.621          31.000  
J 2  37058602.728 6 194744268.230 6       745.132          39.000  
J 3  37313238.085 7 196082390.008 7      -553.709          44.000  
J 4  36642146.755 6 192555780.338 6       299.982          36.000  
> 2024 11 28 12 41 19.7970000  0 22                     
G 2  19905046.246 7 104601726.347 7     -1415.344          42.000  
G 3  21691766.467 7 113990975.740 7      3267.607          42.000  
G 7  22350780.885 5 117453952.105 5     -3024.019          30.000  
G 8  22114956.461 6 116214786.265 6     -2413.768          38.000  
G14  20079375.614 6 105517848.895 6      2179.926          40.000  
G17  21732483.601 6 114204973.272 6      1956.877          37.000  
G19  24359686.021 3               3      2793.973          23.000  
G21  20722880.871 7 108899481.746 7     -2692.502          43.000  
G22  22061068.705 5 115931730.313 5      2775.193          35.000  
G30  21580712.914 4 113407473.900 4     -1897.594          26.000  
R 2  23010288.084 4               4       799.055          25.000  
R 9  19107657.848 6 102033774.720 6      2059.775          41.000  
R15  22773071.653 7 121692265.600 7     -4391.367          43.000  
R16  18857649.236 8 100734101.804 8     -2372.816          48.000  
R18  19712355.798 6 105225803.042 6     -2538.789          40.000  
R19  18725738.972 4 100170103.179 4       -68.586          29.000  
E11  24432098.795 5 128391598.914 5     -2287.510          30.000  
E25  23741428.704 7 124762083.956 7     -1865.458          43.000  
E30  25818989.244 5 135679666.807 5      2575.998          31.000  
J 2  37058574.493 6 194744119.174 6       745.397          39.000  
J 3  37313259.165 7 196082500.758 7      -553.717          44.000  
J 4  36642135.412 6 192555720.262 6       300.742          36.000  
> 2024 11 28 12 41 19.9970000  0 22                     
G 2  19905100.202 7 104602009.439 7     -1415.308          42.000  
G 3  21691642.116 7 113990322.361 7      3266.963          42.000  
G 7  22350895.411 5 117454556.957 5     -3024.064          30.000  
G 8  22115048.406 6 116215269.115 6     -2414.516          38.000  
G14  20079292.847 6 105517412.990 6      2179.559          40.000  
G17  21732409.141 6 114204581.895 6      1957.075          37.000  
G19  24359580.272 3               3      2793.007          23.000  
G21  20722983.217 7 108900020.311 7     -2692.746          43.000  
G22  22060963.184 5 115931175.262 5      2775.783          35.000  
G30  21580785.228 4 113407853.429 4     -1897.568          26.000  
R 2  23010258.349 4               4       798.381          25.000  
R 9  19107580.718 6 102033362.831 6      2059.537          41.000  
R15  22773236.139 7 121693143.966 7     -4391.618          43.000  
R16  18857738.040 8 100734576.413 8     -2372.946          48.000  
R18  19712450.885 6 105226310.803 6     -2538.998          40.000  
R19  18725740.804 4 100170116.904 4       -68.603          29.000  
E11  24432185.976 5 128392056.714 5     -2288.983          30.000  
E25  23741499.761 7 124762457.102 7     -1865.856          43.000  
E30  25818893.477 5 135679151.682 5      2576.014          31.000  
J 2  37058546.049 6 194743970.141 6       745.482          39.000  
J 3  37313280.245 7 196082611.519 7      -553.772          44.000  
J 4  36642124.035 6 192555660.243 6       300.206          36.000  
> 2024 11 28 12 41 20.1970000  0 22                     
G 2  19905154.071 7 104602292.549 7     -1415.454          42.000  
G 3  21691517.696 7 113989668.951 7      3266.991          42.000  
G 7  22351011.036 5 117455161.851 5     -3024.110          30.000  
G 8  22115140.159 6 116215751.989 6     -2414.236          39.000  
G14  20079210.081 6 105516977.073 6      2179.620          40.000  
G17  21732334.646 5 114204190.557 5      1956.955          34.000  
G19  24359474.524 3               3      2792.523          23.000  
G21  20723085.667 7 108900558.890 7     -2692.784          44.000  
G22  22060857.523 5 115930620.268 5      2775.353          35.000  
G30  21580857.036 4 113408232.928 4     -1897.619          26.000  
R 2  23010228.073 4               4       797.860          24.000  
R 9  19107503.570 6 102032950.984 6      2059.265          41.000  
R15  22773400.467 7 121694022.334 7     -4391.944          43.000  
R16  18857826.844 8 100735051.064 8     -2373.140          48.000  
R18  19712546.041 6 105226818.575 6     -2539.140          40.000  
R19  18725744.486 4 100170130.758 4       -69.345          29.000  
E11  24432269.144 5 128392514.416 5     -2288.516          30.000  
E25  23741570.732 7 124762830.278 7     -1865.933          43.000  
E30  25818792.597 5 135678636.556 5      2575.293          31.000  
J 2  37058517.553 6 194743821.098 6       745.178          38.000  
J 3  37313301.307 7 196082722.280 7      -553.834          44.000  
J 4  36642112.640 6 192555600.239 6       299.714          36.000  
> 2024 11 28 12 41 20.3970000  0 22                     
G 2  19905207.922 7 104602575.697 7     -1416.235          42.000  
G 3  21691393.311 6 113989015.606 6      3266.451          41.000  
G 7  22351124.881 5 117455766.776 5     -3024.963          31.000  
G 8  22115232.052 6 116216234.891 6     -2414.527          39.000  
G14  20079127.175 6 105516541.223 6      2179.108          40.000  
G17  21732260.151 5 114203799.244 5      1956.424          35.000  
G19  24359369.194 3               3      2792.114          23.000  
G21  20723188.205 7 108901097.523 7     -2693.504          44.000  
G22  22060752.001 5 115930065.293 5      2774.457          34.000  
G30  21580930.152 4 113408612.452 4     -1897.817          26.000  
R 2  23010198.129 4               4       797.811          24.000  
R 9  19107426.440 6 102032539.180 6      2058.628          41.000  
R15  22773564.936 7 121694900.739 7     -4392.263          43.000  
R16  18857915.631 8 100735525.787 8     -2374.114          48.000  
R18  19712641.197 6 105227326.378 6     -2539.049          40.000  
R19  18725746.510 4 100170144.523 4       -69.190          29.000  
E11  24432361.787 5 128392972.254 5     -2289.363          30.000  
E25  23741641.719 7 124763203.493 7     -1866.459          43.000  
E30  25818691.875 5 135678121.432 5      2575.889          31.000  
J 2  37058489.144 6 194743672.072 6       744.967          38.000  
J 3  37313322.404 7 196082833.069 7      -554.206          43.000  
J 4  36642101.053 6 192555540.209 6       299.978          36.000  
> 2024 11 28 12 41 20.5970000  0 23                     
G 2  19905261.703 7 104602858.852 7     -1415.942          42.000  
G 3  21691268.943 6 113988362.255 6      3266.460          41.000  
G 7  22351236.772 5 117456371.724 5     -3025.731          31.000  
G 8  22115323.945 6 116216717.786 6     -2414.488          38.000  
G14  20079044.408 6 105516105.377 6      2179.114          40.000  
G17  21732185.603 5 114203407.928 5      1956.469          35.000  
G19  24359263.760 3               3      2792.111          23.000  
G21  20723290.742 7 108901636.138 7     -2693.411          45.000  
G22  22060646.462 5 115929510.268 5      2774.882          34.000  
G30  21581003.094 4 113408992.023 4     -1897.985          26.000  
R 2  23010167.922 4               4       797.164          24.000  
R 3  23083347.980 3               3      2968.000          18.000  
R 9  19107349.328 6 102032127.379 6      2058.868          41.000  
R15  22773729.195 7 121695779.133 7     -4392.097          43.000  
R16  18858004.418 8 100736000.507 8     -2373.961          48.000  
R18  19712736.370 6 105227834.196 6     -2539.340          40.000  
R19  18725749.861 4 100170158.391 4       -69.445          29.000  
E11  24432449.596 5 128393429.999 5     -2288.472          30.000  
E25  23741712.724 7 124763576.698 7     -1866.131          43.000  
E30  25818596.596 5 135677606.369 5      2575.280          31.000  
J 2  37058460.718 6 194743523.055 6       745.306          38.000  
J 3  37313343.432 7 196082943.846 7      -553.775          43.000  
J 4  36642089.623 6 192555480.200 6       300.119          37.000  
> 2024 11 28 12 41 20.7970000  0 23                     
G 2  19905315.660 7 104603142.080 7     -1416.199          42.000  
G 3  21691144.698 6 113987708.966 6      3266.091          41.000  
G 7  22351354.386 5 117456976.652 5     -3025.303          31.000  
G 8  22115415.803 6 116217200.733 6     -2415.168          39.000  
G14  20078961.555 6 105515669.596 6      2178.705          40.000  
G17  21732111.178 5 114203016.630 5      1956.378          35.000  
G19  24359159.809 4               4      2792.264          24.000  
G21  20723393.402 7 108902174.802 7     -2693.366          45.000  
G22  22060540.993 5 115928955.366 5      2774.585          34.000  
G30  21581076.594 4 113409371.648 4     -1898.262          26.000  
R 2  23010138.449 4               4       798.505          24.000  
R 3  23083237.537 3               3      2965.737          18.000  
R 9  19107272.355 6 102031715.712 6      2058.146          41.000  
R15  22773893.698 7 121696657.578 7     -4392.422          43.000  
R16  18858093.326 8 100736475.313 8     -2374.221          48.000  
R18  19712831.422 6 105228342.080 6     -2539.885          40.000  
R19  18725755.584 4 100170172.299 4       -69.519          28.000  
E11  24432532.624 5 128393887.838 5     -2289.182          30.000  
E25  23741783.764 7 124763949.984 7     -1866.536          43.000  
E30  25818498.770 5 135677091.344 5      2574.471          31.000  
J 2  37058432.414 6 194743374.070 6       744.898          38.000  
J 3  37313364.425 7 196083054.679 7      -554.051          43.000  
J 4  36642078.106 6 192555420.217 6       300.022          37.000  
> 2024 11 28 12 41 20.9970000  0 23                     
G 2  19905369.528 7 104603425.294 7     -1415.948          42.000  
G 3  21691020.400 6 113987055.666 6      3266.456          41.000  
G 7  22351469.296 5 117457581.612 5     -3024.236          31.000  
G 8  22115507.661 6 116217683.674 6     -2414.680          39.000  
G14  20078878.666 6 105515233.813 6      2179.071          40.000  
G17  21732036.701 5 114202625.365 5      1956.576          35.000  
G19  24359054.881 4               4      2791.823          24.000  
G21  20723496.044 7 108902713.480 7     -2693.207          44.000  
G22  22060435.454 5 115928400.393 5      2774.838          34.000  
G30  21581149.728 4 113409751.282 4     -1897.970          27.000  
R 2  23010108.592 4               4       797.486          24.000  
R 3  23083126.886 3               3      2965.737          18.000  
R 9  19107195.277 6 102031304.034 6      2058.202          41.000  
R15  22774058.079 7 121697535.998 7     -4392.134          43.000  
R16  18858182.183 8 100736950.127 8     -2373.904          48.000  
R18  19712926.682 6 105228849.931 6     -2539.277          40.000  
R19  18725752.356 4 100170186.246 4       -69.945          28.000  
E11  24432621.865 5 128394345.664 5     -2289.023          30.000  
E25  23741854.699 7 124764323.248 7     -1866.303          43.000  
E30  25818402.533 5 135676576.220 5      2575.458          31.000  
J 2  37058403.935 6 194743225.088 6       745.357          38.000  
J 3  37313385.522 7 196083165.500 7      -553.966          43.000  
J 4  36642066.641 6 192555360.227 6       300.090          37.000  
> 2024 11 28 12 41 21.1970000  0 23                     
G 2  19905423.397 7 104603708.553 7     -1416.400          42.000  
G 3  21690896.032 6 113986402.371 6      3266.678          41.000  
G 7  22351582.111 5 117458186.622 5     -3024.818          31.000  
G 8  22115599.467 6 116218166.595 6     -2414.639          38.000  
G14  20078795.778 6 105514798.033 6      2178.815          40.000  
G17  21731962.223 5 114202234.093 5      1956.173          35.000  
G19  24358948.662 4               4      2793.200          24.000  
G21  20723598.529 7 108903252.158 7     -2693.554          44.000  
G22  22060329.881 5 115927845.460 5      2774.545          33.000  
G30  21581222.496 4 113410130.935 4     -1898.440          27.000  
R 2  23010079.275 4               4       796.929          25.000  
R 3  23083016.583 3               3      2965.737          18.000  
R 9  19107118.147 6 102030892.369 6      2058.425          41.000  
R15  22774222.390 7 121698414.423 7     -4392.120          43.000  
R16  18858271.005 8 100737424.991 8     -2374.380          48.000  
R18  19713021.716 6 105229357.805 6     -2539.368          40.000  
R19  18725756.352 4 100170200.163 4       -69.728          28.000  
E11  24432708.488 5 128394803.515 5     -2289.049          30.000  
E25  23741925.547 7 124764696.525 7     -1866.404          43.000  
E30  25818296.365 5 135676061.172 5      2575.524          31.000  
J 2  37058375.543 6 194743076.111 6       744.782          38.000  
J 3  37313406.549 7 196083276.303 7      -553.942          43.000  
J 4  36642055.141 6 192555300.220 6       300.195          38.000  
> 2024 11 28 12 41 21.3970000  0 23                     
G 2  19905477.214 7 104603991.807 7     -1416.559          42.000  
G 3  21690771.700 6 113985749.108 6      3266.147          41.000  
G 7  22351698.330 5 117458791.612 5     -3025.144          30.000  
G 8  22115691.307 6 116218649.518 6     -2414.716          38.000  
G14  20078713.011 6 105514362.298 6      2178.625          40.000  
G17  21731887.745 6 114201842.794 6      1956.298          36.000  
G19  24358842.669 4               4      2791.075          24.000  
G21  20723701.119 7 108903790.850 7     -2693.878          44.000  
G22  22060224.272 5 115927290.488 5      2775.017          34.000  
G30  21581294.303 4 113410510.570 4     -1898.077          27.000  
R 2  23010049.156 4               4       793.861          25.000  
R 3  23082906.018 3               3      2965.737          18.000  
R 9  19107041.087 6 102030480.769 6      2057.785          41.000  
R15  22774386.754 7 121699292.856 7     -4392.305          43.000  
R16  18858359.809 8 100737899.875 8     -2374.734          48.000  
R18  19713116.942 6 105229865.694 6     -2539.762          41.000  
R19  18725756.230 4 100170214.106 4       -69.931          28.000  
E11  24432796.629 5 128395261.343 5     -2288.533          30.000  
E25  23741996.325 7 124765069.826 7     -1866.659          43.000  
E30  25818200.634 5 135675546.073 5      2575.470          30.000  
J 2  37058347.169 6 194742927.126 6       744.537          38.000  
J 3  37313427.542 7 196083387.128 7      -554.239          44.000  
J 4  36642043.729 6 192555240.224 6       300.012          37.000  
> 2024 11 28 12 41 21.5970000  0 23                     
G 2  19905531.222 7 104604275.068 7     -1416.656          42.000  
G 3  21690647.314 6 113985095.839 6      3265.899          41.000  
G 7  22351812.158 5 117459396.560 5     -3024.391          30.000  
G 8  22115783.287 6 116219132.450 6     -2414.802          38.000  
G14  20078630.280 6 105513926.533 6      2178.552          39.000  
G17  21731813.390 6 114201451.496 6      1956.253          36.000  
G19  24358736.484 4               4      2791.741          24.000  
G21  20723803.482 7 108904329.518 7     -2693.623          44.000  
G22  22060118.698 5 115926735.570 5      2774.420          34.000  
G30  21581366.722 4 113410890.265 4     -1898.761          27.000  
R 2  23010018.915 4               4       798.741          24.000  
R 3  23082795.227 2               2      2965.737          17.000  
R 9  19106963.992 6 102030069.153 6      2057.811          41.000  
R15  22774551.222 7 121700171.274 7     -4392.275          43.000  
R16  18858448.770 8 100738374.774 8     -2374.758          48.000  
R18  19713212.203 6 105230373.572 6     -2539.701          41.000  
R19  18725761.255 4 100170228.056 4       -69.755          28.000  
E11  24432880.303 5 128395719.227 5     -2289.628          31.000  
E25  23742067.469 7 124765443.111 7     -1866.581          43.000  
E30  25818103.767 5 135675031.050 5      2575.007          30.000  
J 2  37058318.865 6 194742778.099 6       745.241          38.000  
J 3  37313448.639 7 196083497.928 7      -554.143          44.000  
J 4  36642032.212 6 192555180.221 6       299.989          37.000  
> 2024 11 28 12 41 21.7970000  0 23                     
G 2  19905585.161 7 104604558.362 7     -1416.565          42.000  
G 3  21690523.104 6 113984442.581 6      3266.073          41.000  
G 7  22351929.371 5 117460001.523 5     -3024.346          30.000  
G 8  22115875.197 6 116219615.419 6     -2414.795          38.000  
G14  20078547.374 6 105513490.830 6      2178.583          40.000  
G17  21731738.965 6 114201060.252 6      1956.241          36.000  
G19  24358630.823 4               4      2791.033          24.000  
G21  20723905.950 7 108904868.248 7     -2693.608          43.000  
G22  22060013.072 5 115926180.645 5      2774.580          34.000  
G30  21581438.931 4 113411269.948 4     -1898.631          27.000  
R 2  23009988.534 4               4       795.429          24.000  
R 3  23082685.081 2               2      2965.737          17.000  
R 9  19106887.089 6 102029657.629 6      2057.657          41.000  
R15  22774715.551 7 121701049.729 7     -4392.428          43.000  
R16  18858537.644 8 100738849.727 8     -2374.840          48.000  
R18  19713307.359 6 105230881.500 6     -2539.797          41.000  
R19  18725764.013 4 100170242.131 4       -70.579          28.000  
E11  24432973.853 5 128396177.066 5     -2289.140          31.000  
E25  23742138.562 7 124765816.439 7     -1866.899          43.000  
E30  25818004.685 5 135674515.983 5      2575.598          31.000  
J 2  37058290.543 6 194742629.124 6       745.075          38.000  
J 3  37313469.824 7 196083608.756 7      -554.194          44.000  
J 4  36642020.817 6 192555120.273 6       299.266          37.000  
> 2024 11 28 12 41 21.9970000  0 23                     
G 2  19905638.942 7 104604841.682 7     -1416.968          42.000  
G 3  21690398.719 7 113983789.363 7      3265.867          42.000  
G 7  22352045.572 5 117460606.545 5     -3024.902          30.000  
G 8  22115967.178 6 116220098.368 6     -2414.977          38.000  
G14  20078464.555 6 105513055.139 6      2178.278          40.000  
G17  21731664.505 6 114200669.014 6      1955.919          37.000  
G19  24358524.482 4               4      2792.508          24.000  
G21  20724008.435 7 108905406.976 7     -2693.867          43.000  
G22  22059907.446 5 115925625.759 5      2774.027          34.000  
G30  21581512.361 4 113411649.678 4     -1898.710          27.000  
R 2  23009958.171 4               4       795.881          24.000  
R 3  23082574.988 2               2      2965.737          17.000  
R 9  19106810.029 6 102029246.129 6      2057.405          41.000  
R15  22774880.159 7 121701928.200 7     -4392.557          43.000  
R16  18858626.535 8 100739324.722 8     -2375.161          48.000  
R18  19713402.550 6 105231389.398 6     -2539.959          41.000  
R19  18725767.660 4 100170256.098 4       -69.591          28.000  
E11  24433054.403 5 128396634.937 5     -2288.694          31.000  
E25  23742209.549 7 124766189.758 7     -1866.778          43.000  
E30  25817906.702 5 135674000.981 5      2574.637          30.000  
J 2  37058262.204 6 194742480.166 6       744.575          38.000  
J 3  37313491.026 7 196083719.579 7      -554.413          44.000  
J 4  36642009.387 6 192555060.287 6       299.420          36.000  
> 2024 11 28 12 41 22.1970000  0 23                     
G 2  19905692.881 7 104605125.041 7     -1417.010          42.000  
G 3  21690274.351 7 113983136.179 7      3265.835          42.000  
G 7  22352162.977 5 117461211.601 5     -3024.700          30.000  
G 8  22116058.966 6 116220581.373 6     -2414.897          38.000  
G14  20078381.806 6 105512619.502 6      2177.985          40.000  
G17  21731590.080 6 114200277.799 6      1956.064          37.000  
G19  24358417.547 4               4      2791.405          24.000  
G21  20724110.850 7 108905945.744 7     -2693.799          43.000  
G22  22059801.854 5 115925070.878 5      2774.631          34.000  
G30  21581584.396 4 113412029.524 4     -1899.351          27.000  
R 2  23009927.319 4               4       797.042          25.000  
R 3  23082465.086 2               2      2965.737          17.000  
R 9  19106733.108 6 102028834.659 6      2057.367          41.000  
R15  22775044.662 7 121702806.716 7     -4392.350          43.000  
R16  18858715.427 8 100739799.783 8     -2375.435          48.000  
R18  19713497.723 6 105231897.370 6     -2539.856          41.000  
R19  18725772.092 4 100170270.262 4       -70.997          28.000  
E11  24433144.220 5 128397092.811 5     -2289.518          31.000  
E25  23742280.397 7 124766563.161 7     -1866.945          43.000  
E30  25817812.785 5 135673485.950 5      2575.220          30.000  
J 2  37058233.952 6 194742331.204 6       744.812          38.000  
J 3  37313512.001 7 196083830.436 7      -554.223          44.000  
J 4  36641998.079 6 192555000.333 6       299.597          37.000  
> 2024 11 28 12 41 22.3970000  0 23                     
G 2  19905746.837 7 104605408.376 7     -1416.821          42.000  
G 3  21690150.140 7 113982482.966 7      3266.031          42.000  
G 7  22352277.049 5 117461816.608 5     -3024.811          30.000  
G 8  22116150.981 6 116221064.350 6     -2414.761          38.000  
G14  20078298.953 6 105512183.865 6      2177.856          40.000  
G17  21731515.585 6 114199886.567 6      1956.111          37.000  
G19  24358310.821 4               4      2792.214          25.000  
G21  20724213.510 7 108906484.500 7     -2693.689          43.000  
G22  22059696.263 5 115924516.031 5      2774.434          34.000  
G30  21581656.448 4 113412409.234 4     -1898.385          27.000  
R 2  23009897.828 4               4       795.990          25.000  
R 3  23082354.452 2               2      2965.737          16.000  
R 9  19106656.048 6 102028423.203 6      2057.205          41.000  
R15  22775208.990 7 121703685.212 7     -4392.604          43.000  
R16  18858804.405 8 100740274.827 8     -2375.374          48.000  
R18  19713592.949 6 105232405.317 6     -2539.852          41.000  
R19  18725774.134 4 100170284.308 4       -70.076          28.000  
E11  24433234.804 5 128397550.738 5     -2289.610          31.000  
E25  23742351.419 7 124766936.521 7     -1866.841          43.000  
E30  25817714.296 5 135672970.928 5      2575.512          31.000  
J 2  37058205.596 6 194742182.237 6       745.080          39.000  
J 3  37313533.116 7 196083941.274 7      -554.195          44.000  
J 4  36641986.632 6 192554940.360 6       299.687          39.000  
> 2024 11 28 12 41 22.5970000  0 23                     
G 2  19905800.549 7 104605691.719 7     -1416.486          42.000  
G 3  21690025.895 7 113981829.745 7      3266.378          42.000  
G 7  22352390.214 5 117462421.688 5     -3026.295          30.000  
G 8  22116242.856 6 116221547.303 6     -2414.541          38.000  
G14  20078216.012 6 105511748.188 6      2178.363          39.000  
G17  21731441.229 6 114199495.329 6      1956.921          37.000  
G19  24358206.085 4               4      2792.193          25.000  
G21  20724316.047 7 108907023.246 7     -2693.712          43.000  
G22  22059590.602 5 115923961.163 5      2774.412          33.000  
G30  21581728.500 4 113412789.044 4     -1898.738          27.000  
R 2  23009866.627 4               4       796.112          25.000  
R 3  23082244.428 2               2      2965.737          16.000  
R 9  19106579.023 6 102028011.769 6      2057.321          41.000  
R15  22775373.319 7 121704563.664 7     -4392.175          43.000  
R16  18858893.262 8 100740749.889 8     -2375.115          48.000  
R18  19713688.140 6 105232913.241 6     -2539.328          41.000  
R19  18725776.873 4 100170298.371 4       -70.103          28.000  
E11  24433314.551 5 128398008.634 5     -2288.913          31.000  
E25  23742422.285 7 124767309.904 7     -1866.824          43.000  
E30  25817610.432 5 135672455.921 5      2575.584          30.000  
J 2  37058177.152 6 194742033.255 6       745.133          39.000  
J 3  37313554.074 7 196084052.079 7      -553.812          44.000  
J 4  36641975.342 6 192554880.382 6       300.314          39.000  
> 2024 11 28 12 41 22.7970000  0 22                     
G 2  19905854.470 7 104605975.079 7     -1416.797          42.000  
G 3  21689901.614 7 113981176.543 7      3266.081          42.000  
G 7  22352502.261 5 117463026.646 5     -3025.876          30.000  
G 8  22116334.627 6 116222030.263 6     -2414.750          39.000  
G14  20078133.123 6 105511312.547 6      2178.290          39.000  
G17  21731366.647 6 114199104.083 6      1956.436          36.000  
G19  24358100.616 4               4      2789.749          25.000  
G21  20724418.567 7 108907562.013 7     -2694.123          44.000  
G22  22059484.941 5 115923406.246 5      2775.378          30.000  
G30  21581799.540 4 113413168.869 4     -1899.412          27.000  
R 2  23009836.333 4               4       794.766          25.000  
R 9  19106501.980 6 102027600.362 6      2056.841          41.000  
R15  22775537.665 7 121705442.142 7     -4392.470          43.000  
R16  18858982.241 8 100741224.985 8     -2375.504          48.000  
R18  19713783.418 6 105233421.169 6     -2539.629          41.000  
R19  18725779.980 4 100170312.525 4       -70.867          28.000  
E11  24433405.851 5 128398466.507 5     -2289.858          31.000  
E25  23742493.255 7 124767683.271 7     -1866.891          43.000  
E30  25817515.957 5 135671940.876 5      2575.192          30.000  
J 2  37058148.673 6 194741884.255 6       744.874          39.000  
J 3  37313575.223 7 196084162.900 7      -554.178          44.000  
J 4  36641963.947 6 192554820.405 6       299.852          39.000  
> 2024 11 28 12 41 22.9970000  0 22                     
G 2  19905908.321 7 104606258.441 7     -1416.687          42.000  
G 3  21689777.334 7 113980523.326 7      3266.210          42.000  
G 7  22352614.379 5 117463631.604 5     -3024.551          30.000  
G 8  22116426.485 6 116222513.203 6     -2414.375          39.000  
G14  20078050.409 6 105510876.921 6      2178.418          40.000  
G17  21731292.274 6 114198712.820 6      1956.432          36.000  
G19  24357995.374 4               4      2792.985          25.000  
G21  20724521.140 7 108908100.750 7     -2693.499          44.000  
G22  22059379.262 5 115922851.379 5      2774.811          30.000  
G30  21581871.400 4 113413548.660 4     -1899.444          27.000  
R 2  23009805.760 4               4       795.800          24.000  
R 9  19106425.060 6 102027188.974 6      2056.994          41.000  
R15  22775701.977 7 121706320.591 7     -4392.063          43.000  
R16  18859071.167 7 100741700.102 7     -2375.531          47.000  
R18  19713878.574 6 105233929.103 6     -2539.729          41.000  
R19  18725782.929 4 100170326.627 4       -70.436          28.000  
E11  24433493.451 5 128398924.404 5     -2289.801          31.000  
E25  23742564.155 7 124768056.644 7     -1866.639          43.000  
E30  25817424.308 5 135671425.851 5      2575.420          30.000  
J 2  37058120.282 6 194741735.246 6       745.269          39.000  
J 3  37313596.338 7 196084273.678 7      -553.671          43.000  
J 4  36641952.482 6 192554760.403 6       300.145          39.000  
> 2024 11 28 12 41 23.1970000  0 22                     
G 2  19905962.190 7 104606541.818 7     -1416.632          42.000  
G 3  21689653.053 7 113979870.129 7      3266.097          42.000  
G 7  22352728.451 5 117464236.590 5     -3024.012          31.000  
G 8  22116518.255 6 116222996.158 6     -2414.758          39.000  
G14  20077967.573 6 105510441.289 6      2178.284          40.000  
G17  21731217.727 6 114198321.554 6      1956.729          38.000  
G19  24357889.957 4               4      2791.001          24.000  
G21  20724623.625 7 108908639.488 7     -2693.505          44.000  
G22  22059273.689 5 115922296.476 5      2775.158          31.000  
G30  21581943.591 4 113413928.438 4     -1898.320          27.000  
R 2  23009776.252 4               4       794.393          25.000  
R 9  19106347.982 6 102026777.610 6      2057.112          41.000  
R15  22775866.270 7 121707199.048 7     -4392.100          43.000  
R16  18859160.076 7 100742175.227 7     -2375.518          47.000  
R18  19713973.678 6 105234437.034 6     -2539.562          41.000  
R19  18725787.029 4 100170340.751 4       -70.770          28.000  
E11  24433584.768 5 128399382.281 5     -2289.434          31.000  
E25  23742635.090 7 124768430.030 7     -1866.948          43.000  
E30  25817325.470 5 135670910.778 5      2575.339          30.000  
J 2  37058092.047 6 194741586.248 6       745.240          38.000  
J 3  37313617.523 7 196084384.477 7      -553.905          43.000  
J 4  36641940.965 6 192554700.384 6       300.439          38.000  
> 2024 11 28 12 41 23.3970000  0 22                     
G 2  19906016.129 7 104606825.261 7     -1417.792          42.000  
G 3  21689528.790 7 113979216.958 7      3265.454          42.000  
G 7  22352844.530 5 117464841.687 5     -3024.826          31.000  
G 8  22116610.026 6 116223479.140 6     -2415.279          39.000  
G14  20077884.702 6 105510005.733 6      2177.460          40.000  
G17  21731143.441 6 114197930.324 6      1955.833          36.000  
G19  24357784.505 4               4      2791.723          24.000  
G21  20724726.127 7 108909178.282 7     -2694.417          45.000  
G22  22059168.132 5 115921741.642 5      2773.849          32.000  
G30  21582015.311 4 113414308.271 4     -1899.762          27.000  
R 2  23009746.081 4               4       795.476          25.000  
R 9  19106270.904 6 102026366.332 6      2055.591          41.000  
R15  22776030.564 7 121708077.537 7     -4392.604          43.000  
R16  18859248.967 7 100742650.421 7     -2376.355          47.000  
R18  19714068.869 6 105234945.033 6     -2540.515          41.000  
R19  18725789.560 4 100170354.890 4       -70.909          28.000  
E11  24433668.267 5 128399840.221 5     -2289.921          31.000  
E25  23742706.008 7 124768803.449 7     -1867.277          43.000  
E30  25817225.812 5 135670395.775 5      2574.915          30.000  
J 2  37058063.760 6 194741437.290 6       744.364          38.000  
J 3  37313638.655 7 196084495.316 7      -554.349          43.000  
J 4  36641929.535 6 192554640.422 6       299.089          37.000  
> 2024 11 28 12 41 23.5970000  0 23                     
G 2  19906070.172 7 104607108.690 7     -1416.809          42.000  
G 3  21689404.440 7 113978563.816 7      3265.671          42.000  
G 7  22352955.688 5 117465446.756 5     -3024.981          31.000  
G 8  22116701.989 6 116223962.141 6     -2414.665          39.000  
G14  20077801.796 6 105509570.167 6      2177.838          40.000  
G17  21731069.051 6 114197539.129 6      1956.192          36.000  
G19  24357679.629 4               4      2792.309          24.000  
G21  20724828.630 7 108909717.087 7     -2693.656          45.000  
G22  22059062.506 5 115921186.787 5      2774.281          32.000  
G30  21582087.084 4 113414688.184 4     -1899.316          27.000  
R 2  23009716.119 4               4       793.776          25.000  
R 9  19106193.966 6 102025955.035 6      2056.433          41.000  
R15  22776194.980 7 121708956.045 7     -4392.308          43.000  
R16  18859337.928 7 100743125.650 7     -2375.893          47.000  
R17  23424940.861 3               3     -3427.000          19.000  
R18  19714164.060 6 105235452.973 6     -2539.562          41.000  
R19  18725791.008 4 100170369.124 4       -70.987          28.000  
E11  24433755.536 5 128400298.066 5     -2288.614          31.000  
E25  23742777.152 7 124769176.876 7     -1866.982          43.000  
E30  25817126.241 5 135669880.759 5      2574.719          30.000  
J 2  37058035.439 6 194741288.299 6       745.123          38.000  
J 3  37313659.682 7 196084606.140 7      -553.890          43.000  
J 4  36641917.913 6 192554580.376 6       300.777          36.000  
> 2024 11 28 12 41 23.7970000  0 23                     
G 2  19906124.198 7 104607392.186 7     -1417.584          42.000  
G 3  21689280.212 7 113977910.720 7      3265.193          42.000  
G 7  22353073.459 5 117466051.881 5     -3025.580          30.000  
G 8  22116793.917 6 116224445.209 6     -2415.353          38.000  
G14  20077719.029 6 105509134.661 6      2177.106          40.000  
G17  21730994.626 5 114197147.954 5      1955.687          35.000  
G19  24357572.904 4               4      2790.617          25.000  
G21  20724931.272 7 108910255.944 7     -2694.513          45.000  
G22  22058956.880 5 115920631.956 5      2774.294          32.000  
G30  21582157.915 4 113415068.011 4     -1899.503          27.000  
R 2  23009684.848 4               4       793.603          24.000  
R 9  19106116.993 6 102025543.808 6      2056.059          40.000  
R15  22776359.414 7 121709834.586 7     -4392.743          43.000  
R16  18859426.924 7 100743600.931 7     -2376.665          47.000  
R17  23425069.015 3               3     -3427.000          19.000  
R18  19714259.286 6 105235961.024 6     -2540.511          41.000  
R19  18725792.910 4 100170383.396 4       -71.584          28.000  
E11  24433840.693 5 128400756.099 5     -2290.362          31.000  
E25  23742848.297 7 124769550.347 7     -1867.494          43.000  
E30  25817029.811 5 135669365.719 5      2575.068          30.000  
J 2  37058007.187 6 194741139.338 6       744.658          38.000  
J 3  37313680.814 7 196084716.981 7      -554.406          43.000  
J 4  36641906.605 6 192554520.477 6       299.225          39.000  
> 2024 11 28 12 41 23.9970000  0 23                     
G 2  19906178.102 7 104607675.673 7     -1417.444          42.000  
G 3  21689156.019 7 113977257.610 7      3265.296          42.000  
G 7  22353191.161 5 117466656.951 5     -3025.463          30.000  
G 8  22116885.740 6 116224928.236 6     -2415.186          37.000  
G14  20077636.158 6 105508699.160 6      2177.319          40.000  
G17  21730920.113 5 114196756.838 5      1955.524          35.000  
G19  24357467.592 4               4      2791.224          25.000  
G21  20725033.740 7 108910794.788 7     -2694.310          45.000  
G22  22058851.306 5 115920077.231 5      2772.761          32.000  
G30  21582230.490 4               4     -1900.029          26.000  
R 2  23009654.450 4               4       794.508          24.000  
R 9  19106039.933 6 102025132.635 6      2055.712          40.000  
R15  22776523.707 7 121710713.136 7     -4392.841          43.000  
R16  18859515.921 7 100744076.245 7     -2376.708          47.000  
R17  23425197.012 3               3     -3427.000          19.000  
R18  19714354.442 6 105236469.050 6     -2539.920          41.000  
R19  18725795.318 4 100170397.610 4       -71.293          27.000  
E11  24433927.804 5 128401214.042 5     -2289.124          30.000  
E25  23742919.215 7 124769923.804 7     -1867.355          43.000  
E30  25816928.129 5 135668850.709 5      2574.460          30.000  
J 2  37057978.848 6 194740990.393 6       744.574          38.000  
J 3  37313701.964 7 196084827.837 7      -554.153          43.000  
J 4  36641895.210 6 192554460.507 6       299.877          39.000  
> 2024 11 28 12 41 24.1970000  0 23                     
G 2  19906231.988 7 104607959.205 7     -1417.676          42.000  
G 3  21689031.721 7 113976604.533 7      3265.334          42.000  
G 7  22353304.134 5 117467262.068 5     -3025.683          30.000  
G 8  22116977.632 6 116225411.270 6     -2415.363          37.000  
G14  20077553.462 6 105508263.707 6      2177.393          40.000  
G17  21730845.479 5 114196365.677 5      1955.746          35.000  
G19  24357360.500 4               4      2791.243          25.000  
G21  20725136.242 7 108911333.666 7     -2694.550          45.000  
G22  22058745.732 5 115919522.402 5      2774.184          32.000  
G30  21582302.472 4               4     -1899.875          26.000  
R 2  23009623.423 4               4       792.388          24.000  
R 9  19105962.768 6 102024721.486 6      2055.458          40.000  
R15  22776688.106 7 121711591.699 7     -4392.946          43.000  
R16  18859604.864 7 100744551.603 7     -2376.961          47.000  
R17  23425325.010 3               3     -3428.573          19.000  
R18  19714449.598 6 105236977.112 6     -2540.332          41.000  
R19  18725798.145 4 100170411.979 4       -72.060          27.000  
E11  24434016.643 5 128401672.090 5     -2290.164          30.000  
E25  23742990.289 7 124770297.326 7     -1867.655          43.000  
E30  25816824.998 4 135668335.729 4      2574.509          29.000  
J 2  37057950.631 6 194740844.44836       744.727          38.000  
J 3  37313723.114 7 196084937.70337      -554.435          44.000  
J 4  36641883.606 6 192554400.570 6       299.978          38.000  
> 2024 11 28 12 41 24.3970000  0 23                     
G 2  19906285.979 7 104608242.772 7     -1418.225          42.000  
G 3  21688907.301 7 113975951.496 7      3265.238          42.000  
G 7  22353419.078 5 117467867.207 5     -3025.878          30.000  
G 8  22117069.630 6 116225894.321 6     -2414.885          37.000  
G14  20077470.556 6 105507828.254 6      2177.252          40.000  
G17  21730771.054 6 114195974.540 6      1955.920          36.000  
G19  24357254.141 4               4      2791.804          25.000  
G21  20725238.832 7 108911872.577 7     -2694.629          45.000  
G22  22058640.211 5 115918967.690 5      2773.559          32.000  
G30  21582374.891 4 113416207.930 4     -1899.598          26.000  
R 2  23009593.199 4               4       794.359          24.000  
R 9  19105885.795 6 102024310.366 6      2055.692          40.000  
R15  22776852.574 7 121712470.284 7     -4393.018          43.000  
R16  18859693.983 7 100745027.002 7     -2377.111          47.000  
R17  23425454.089 3               3     -3428.573          19.000  
R18  19714544.754 6 105237485.172 6     -2540.431          41.000  
R19  18725800.466 4 100170426.282 4       -72.199          27.000  
E11  24434105.849 5 128402130.085 5     -2289.871          30.000  
E25  23743061.277 7 124770670.852 7     -1867.759          43.000  
E30  25816728.324 4 135667820.776 4      2574.212          29.000  
J 2  37057922.396 6 194740695.53926       744.619          38.000  
J 3  37313744.316 7 196085048.57727      -554.339          44.000  
J 4  36641872.193 6 192554340.679 6       299.650          38.000  
> 2024 11 28 12 41 24.5970000  0 23                     
G 2  19906340.040 7 104608526.340 7     -1417.834          42.000  
G 3  21688783.142 7 113975298.479 7      3264.759          42.000  
G 7  22353532.627 5 117468472.333 5     -3025.617          30.000  
G 8  22117161.488 6 116226377.381 6     -2415.503          38.000  
G14  20077387.842 6 105507392.847 6      2176.697          40.000  
G17  21730696.611 6 114195583.390 6      1955.437          36.000  
G19  24357148.480 4               4      2791.105          25.000  
G21  20725341.457 7 108912411.491 7     -2694.831          45.000  
G22  22058534.602 5 115918412.938 5      2773.771          32.000  
G30  21582447.292 4 113416587.986 4     -1900.320          26.000  
R 2  23009563.150 3               3       794.953          23.000  
R 9  19105808.700 6 102023899.289 6      2055.181          40.000  
R15  22777017.008 7 121713348.875 7     -4393.104          43.000  
R16  18859782.874 7 100745502.433 7     -2377.295          47.000  
R17  23425582.435 3               3     -3428.573          19.000  
R18  19714639.875 6 105237993.267 6     -2540.435          41.000  
R19  18725802.613 4 100170440.651 4       -72.353          27.000  
E11  24434189.121 5 128402588.046 5     -2289.903          30.000  
E25  23743132.369 7 124771044.393 7     -1867.788          43.000  
E30  25816633.220 4 135667305.841 4      2575.071          29.000  
J 2  37057894.197 6 194740546.61026       744.384          39.000  
J 3  37313765.483 7 196085159.45727      -554.614          44.000  
J 4  36641860.868 6 192554280.765 6       299.160          39.000  
> 2024 11 28 12 41 24.7970000  0 23                     
G 2  19906393.961 7 104608809.907 7     -1417.798          42.000  
G 3  21688658.949 6 113974645.437 6      3265.468          40.000  
G 7  22353647.973 5 117469077.476 5     -3026.049          30.000  
G 8  22117253.206 6 116226860.459 6     -2415.118          38.000  
G14  20077305.093 6 105506957.417 6      2177.203          40.000  
G17  21730621.976 6 114195192.183 6      1956.153          36.000  
G19  24357041.231 4               4      2791.457          25.000  
G21  20725443.977 7 108912950.374 7     -2694.271          45.000  
G22  22058429.116 5 115917858.144 5      2773.753          33.000  
G30  21582520.024 4 113416968.050 4     -1900.675          26.000  
R 2  23009533.118 3               3       792.803          23.000  
R 9  19105731.780 6 102023488.245 6      2055.317          40.000  
R15  22777181.458 7 121714227.429 7     -4392.483          42.000  
R16  18859871.888 8 100745977.873 8     -2377.153          48.000  
R17  23425710.537 3               3     -3426.583          19.000  
R18  19714734.926 6 105238501.357 6     -2540.479          41.000  
R19  18725804.183 4 100170454.994 4       -71.741          27.000  
E11  24434278.117 5 128403046.064 5     -2290.895          30.000  
E25  23743203.479 7 124771417.942 7     -1867.563          43.000  
E30  25816536.354 4 135666790.859 4      2575.823          29.000  
J 2  37057865.945 6 194740397.66426       744.929          39.000  
J 3  37313786.458 7 196085270.31927      -554.128          44.000  
J 4  36641849.386 6 192554220.810 6       300.142          37.000  
> 2024 11 28 12 41 24.9970000  0 24                     
G 2  19906447.865 7 104609093.470 7     -1417.798          43.000  
G 3  21688534.739 6 113973992.401 6      3265.127          40.000  
G 7  22353761.522 5 117469682.555 5     -3025.245          31.000  
G 8  22117345.151 6 116227343.486 6     -2415.272          38.000  
G14  20077222.292 6 105506521.959 6      2177.325          40.000  
G17  21730547.551 5 114194801.072 5      1955.942          35.000  
G19  24356933.388 4               4      2791.789          25.000  
G21  20725546.584 7 108913489.272 7     -2694.552          45.000  
G22  22058323.542 5 115917303.374 5      2773.627          33.000  
G30  21582590.314 4 113417348.066 4     -1900.227          27.000  
R 2  23009504.029 3               3       798.601          23.000  
R 3  23080915.123 3               3      2967.000          18.000  
R 9  19105654.824 6 102023077.202 6      2055.000          40.000  
R15  22777345.770 6 121715105.967 6     -4392.657          41.000  
R16  18859960.831 8 100746453.323 8     -2377.359          48.000  
R17  23425838.465 3               3     -3426.583          18.000  
R18  19714830.065 7 105239009.419 7     -2540.197          42.000  
R19  18725806.609 4 100170469.348 4       -71.844          27.000  
E11  24434366.485 5 128403504.052 5     -2290.270          30.000  
E25  23743274.728 7 124771791.481 7     -1867.863          43.000  
E30  25816440.325 4 135666275.986 4      2574.267          29.000  
J 2  37057837.536 6 194740248.72426       744.763          39.000  
J 3  37313807.625 7 196085381.16527      -554.073          44.000  
J 4  36641838.043 6 192554160.806 6       299.750          37.000  
> 2024 11 28 12 41 25.1970000  0 24                     
G 2  19906501.890 7 104609377.063 7     -1417.999          42.000  
G 3  21688410.615 6 113973339.358 6      3265.035          40.000  
G 7  22353877.251 5 117470287.664 5     -3026.259          31.000  
G 8  22117436.957 6 116227826.549 6     -2414.991          38.000  
G14  20077139.490 6 105506086.561 6      2177.130          40.000  
G17  21730473.091 5 114194409.956 5      1955.017          35.000  
G19  24356824.394 4               4      2793.411          24.000  
G21  20725649.104 7 108914028.175 7     -2694.380          45.000  
G22  22058217.881 5 115916748.637 5      2773.787          33.000  
G30  21582662.557 4 113417728.118 4     -1900.473          27.000  
R 2  23009473.788 3               3       794.088          23.000  
R 3  23080805.134 3               3      2967.000          18.000  
R 9  19105577.764 6 102022666.149 6      2055.434          40.000  
R15  22777510.238 7 121715984.531 7     -4392.612          42.000  
R16  18860050.037 8 100746928.804 8     -2377.360          48.000  
R17  23425967.509 3               3     -3426.583          18.000  
R18  19714925.116 7 105239517.507 7     -2540.516          43.000  
R19  18725809.785 4 100170483.755 4       -71.884          27.000  
E11  24434456.197 5 128403962.066 5     -2290.737          30.000  
E25  23743345.733 7 124772165.030 7     -1867.624          43.000  
E30  25816342.639 4 135665761.005 4      2575.167          29.000  
J 2  37057809.284 6 194740099.76726       744.972          39.000  
J 3  37313828.845 7 196085492.02627      -554.428          44.000  
J 4  36641826.596 6 192554100.821 6       299.830          37.000  
> 2024 11 28 12 41 25.3970000  0 24                     
G 2  19906555.847 7 104609660.651 7     -1417.938          42.000  
G 3  21688286.370 6 113972686.289 6      3265.422          40.000  
G 7  22353993.697 5 117470892.808 5     -3025.952          31.000  
G 8  22117528.763 6 116228309.582 6     -2415.189          38.000  
G14  20077056.829 6 105505651.138 6      2176.959          40.000  
G17  21730398.771 5 114194018.779 5      1955.942          35.000  
G19  24356717.267 4               4      2793.530          24.000  
G21  20725751.729 7 108914567.081 7     -2694.348          45.000  
G22  22058112.289 5 115916193.811 5      2774.429          33.000  
G30  21582734.958 4 113418108.134 4     -1899.993          28.000  
R 2  23009444.873 3               3       794.668          23.000  
R 3  23080695.180 3               3      2970.951          19.000  
R 9  19105500.861 6 102022255.153 6      2055.073          40.000  
R15  22777674.759 7 121716863.083 7     -4392.385          42.000  
R16  18860138.946 8 100747404.308 8     -2377.552          48.000  
R17  23426095.908 3               3     -3426.583          18.000  
R18  19715020.290 7 105240025.585 7     -2540.238          42.000  
R19  18725812.978 4 100170498.122 4       -72.001          27.000  
E11  24434535.072 5 128404420.115 5     -2290.034          30.000  
E25  23743416.790 7 124772538.580 7     -1867.610          43.000  
E30  25816244.324 4 135665246.093 4      2573.486          29.000  
J 2  37057780.770 6 194739950.82326       744.809          39.000  
J 3  37313849.890 7 196085602.84527      -553.989          44.000  
J 4  36641815.131 6 192554040.806 6       300.332          37.000  
> 2024 11 28 12 41 25.5970000  0 24                     
G 2  19906609.838 7 104609944.245 7     -1418.127          42.000  
G 3  21688162.281 6 113972033.238 6      3265.560          40.000  
G 7  22354107.996 5 117471497.836 5     -3025.527          30.000  
G 8  22117620.498 6 116228792.601 6     -2414.866          38.000  
G14  20076974.045 6 105505215.740 6      2177.112          40.000  
G17  21730324.311 5 114193627.622 5      1955.614          35.000  
G19  24356610.385 3               3      2792.799          23.000  
G21  20725854.197 7 108915105.981 7     -2694.460          45.000  
G22  22058006.873 5 115915639.051 5      2774.169          33.000  
G30  21582806.766 4 113418488.203 4     -1900.580          28.000  
R 2  23009414.230 3               3       791.432          23.000  
R 3  23080584.703 3               3      2970.024          19.000  
R 9  19105423.906 6 102021844.149 6      2055.049          40.000  
R15  22777839.122 7 121717741.645 7     -4393.008          42.000  
R16  18860228.064 8 100747879.824 8     -2377.673          48.000  
R17  23426224.638 3               3     -3426.583          18.000  
R18  19715115.620 7 105240533.649 7     -2540.418          42.000  
R19  18725815.212 4 100170512.501 4       -72.177          27.000  
E11  24434630.210 5 128404878.016 5     -2289.487          30.000  
E25  23743487.969 7 124772912.108 7     -1867.749          43.000  
E30  25816145.417 4 135664730.994 4      2576.025          29.000  
J 2  37057752.466 6 194739801.82726       744.778          39.000  
J 3  37313870.935 7 196085713.65327      -553.874          44.000  
J 4  36641803.684 6 192553980.835 6       300.237          36.000  
> 2024 11 28 12 41 25.7970000  0 24                     
G 2  19906663.828 7 104610227.846 7     -1417.902          42.000  
G 3  21688038.053 6 113971380.207 6      3265.361          40.000  
G 7  22354223.987 5 117472102.943 5     -3024.631          30.000  
G 8  22117712.426 6 116229275.655 6     -2415.431          39.000  
G14  20076891.191 6 105504780.335 6      2177.319          40.000  
G17  21730249.798 5 114193236.404 5      1956.045          35.000  
G19  24356502.804 3               3      2788.058          23.000  
G21  20725956.682 7 108915644.898 7     -2694.537          45.000  
G22  22057901.246 5 115915084.266 5      2774.570          33.000  
G30  21582880.912 4 113418868.274 4     -1900.309          28.000  
R 2  23009384.303 3               3       794.080          23.000  
R 3  23080474.540 3               3      2957.673          20.000  
R 9  19105346.950 6 102021433.193 6      2054.783          40.000  
R15  22778003.433 7 121718620.202 7     -4392.644          42.000  
R16  18860316.990 8 100748355.388 8     -2377.694          48.000  
R17  23426352.426 3               3     -3435.066          18.000  
R18  19715210.776 7 105241041.757 7     -2540.398          42.000  
R19  18725817.724 4 100170526.933 4       -72.009          27.000  
E11  24434713.081 5 128405336.069 5     -2290.156          30.000  
E25  23743558.887 7 124773285.664 7     -1867.753          43.000  
E30  25816050.575 4 135664216.125 4      2574.047          29.000  
J 2  37057724.214 6 194739652.86026       745.175          39.000  
J 3  37313891.980 7 196085824.48627      -554.027          44.000  
J 4  36641792.167 5 192553920.868 5       299.961          34.000  
> 2024 11 28 12 41 25.9970000  0 24                     
G 2  19906717.889 7 104610511.442 7     -1417.413          42.000  
G 3  21687914.017 6 113970727.164 6      3265.726          40.000  
G 7  22354338.949 5 117472708.127 5     -3025.198          30.000  
G 8  22117804.214 6 116229758.619 6     -2414.393          39.000  
G14  20076808.233 6 105504344.976 6      2176.971          40.000  
G17  21730175.268 5 114192845.252 5      1956.314          35.000  
G19  24356395.363 3               3      2787.435          23.000  
G21  20726059.202 7 108916183.790 7     -2694.046          45.000  
G22  22057795.568 5 115914529.543 5      2774.064          33.000  
G30  21582952.964 4 113419248.327 4     -1900.275          29.000  
R 2  23009354.690 3               3       791.846          23.000  
R 3  23080365.005 3               3      2957.673          20.000  
R 9  19105269.995 6 102021022.255 6      2055.110          40.000  
R15  22778167.902 7 121719498.747 7     -4392.367          42.000  
R16  18860406.056 8 100748830.959 8     -2377.564          48.000  
R17  23426480.947 3               3     -3435.066          18.000  
R18  19715305.862 7 105241549.813 7     -2540.037          42.000  
R19  18725820.464 4 100170541.347 4       -71.786          28.000  
E11  24434800.228 5 128405794.011 5     -2289.953          30.000  
E25  23743629.822 7 124773659.199 7     -1867.414          43.000  
E30  25815952.225 4 135663701.026 4      2575.682          29.000  
J 2  37057695.910 6 194739503.85626       745.086          39.000  
J 3  37313913.077 7 196085935.27727      -553.431          44.000  
J 4  36641780.754 5 192553860.851 5       300.426          34.000  
> 2024 11 28 12 41 26.1970000  0 24                     
G 2  19906771.898 7 104610795.056 7     -1418.140          43.000  
G 3  21687789.789 6 113970074.113 6      3265.135          40.000  
G 7  22354453.772 5 117473313.243 5     -3025.258          31.000  
G 8  22117896.020 6 116230241.688 6     -2415.305          40.000  
G14  20076725.519 6 105503909.584 6      2176.984          40.000  
G17  21730100.738 6 114192454.185 6      1955.352          37.000  
G19  24356288.166 3               3      2787.435          22.000  
G21  20726161.931 7 108916722.706 7     -2694.387          46.000  
G22  22057689.802 5 115913974.844 5      2773.128          32.000  
G30  21583024.353 4 113419628.394 4     -1900.950          29.000  
R 2  23009325.164 3               3       802.582          22.000  
R 3  23080254.545 3               3      2959.907          20.000  
R 9  19105193.057 6 102020611.334 6      2054.554          39.000  
R15  22778332.161 6 121720377.284 6     -4392.664          41.000  
R16  18860495.052 8 100749306.561 8     -2378.091          48.000  
R17  23426609.555 2               2     -3435.066          17.000  
R18  19715401.123 7 105242057.909 7     -2540.484          42.000  
R19  18725824.303 4 100170555.788 4       -72.036          28.000  
E11  24434892.051 5 128406251.914 5     -2288.854          30.000  
E25  23743700.810 7 124774032.771 7     -1868.183          43.000  
E30  25815849.007 4 135663186.036 4      2574.977          29.000  
J 2  37057667.448 6 194739354.85326       744.920          39.000  
J 3  37313934.157 7 196086046.08627      -553.996          44.000  
J 4  36641769.359 5 192553800.877 5       299.781          35.000  
> 2024 11 28 12 41 26.3970000  0 24                     
G 2  19906825.889 7 104611078.636 7     -1417.731          43.000  
G 3  21687665.561 6 113969421.021 6      3265.801          41.000  
G 7  22354568.140 5 117473918.327 5     -3025.640          32.000  
G 8  22117987.826 6 116230724.617 6     -2414.776          40.000  
G14  20076642.700 6 105503474.186 6      2176.910          40.000  
G17  21730026.296 6 114192062.915 6      1956.348          37.000  
G19  24356180.900 3               3      2787.435          22.000  
G21  20726264.573 7 108917261.573 7     -2694.319          45.000  
G22  22057582.047 4 115913419.902 4      2775.203          28.000  
G30  21583099.563 4 113420008.420 4     -1899.629          29.000  
R 2  23009295.324 3               3       802.582          22.000  
R 3  23080144.992 3               3      2962.626          20.000  
R 9  19105116.084 6 102020200.396 6      2054.474          39.000  
R15  22778496.454 6 121721255.760 6     -4392.273          41.000  
R16  18860584.101 7 100749782.125 7     -2377.778          47.000  
R17  23426737.745 2               2     -3424.871          17.000  
R18  19715496.209 7 105242565.921 7     -2540.132          42.000  
R19  18725827.392 4 100170570.200 4       -71.903          28.000  
E11  24434976.772 5 128406709.932 5     -2289.843          30.000  
E25  23743771.989 7 124774406.261 7     -1867.357          43.000  
E30  25815748.075 4 135662671.047 4      2575.381          29.000  
J 2  37057639.162 6 194739205.80926       745.249          39.000  
J 3  37313955.306 7 196086156.81327      -553.632          44.000  
J 4  36641757.877 5 192553740.765 5       301.167          35.000  
> 2024 11 28 12 41 26.5970000  0 24                     
G 2  19906879.932 7 104611362.196 7     -1418.030          43.000  
G 3  21687541.193 6 113968767.956 6      3265.323          41.000  
G 7  22354685.127 5 117474523.341 5     -3025.425          32.000  
G 8  22118079.753 6 116231207.569 6     -2414.376          40.000  
G14  20076560.021 6 105503038.755 6      2176.904          40.000  
G17  21729951.836 6 114191671.659 6      1956.400          36.000  
G19  24356072.290 3               3      2788.967          22.000  
G21  20726367.128 7 108917800.390 7     -2694.043          45.000  
G22  22057477.154 4 115912865.108 4      2773.855          28.000  
G30  21583173.116 4 113420388.474 4     -1900.398          29.000  
R 2  23009265.083 3               3       802.582          22.000  
R 3  23080034.969 3               3      2966.411          20.000  
R 9  19105039.041 6 102019789.442 6      2054.790          39.000  
R15  22778660.766 6 121722134.192 6     -4392.164          41.000  
R16  18860673.027 7 100750257.687 7     -2377.856          46.000  
R17  23426865.812 2               2     -3424.871          17.000  
R18  19715591.400 7 105243073.916 7     -2540.003          42.000  
R19  18725830.969 4 100170584.601 4       -72.155          28.000  
E11  24435068.507 5 128407167.767 5     -2289.025          30.000  
E25  23743843.256 7 124774779.768 7     -1867.500          43.000  
E30  25815649.761 4 135662155.974 4      2575.298          29.000  
J 2  37057610.910 6 194739056.72126       745.240          39.000  
J 3  37313976.351 7 196086267.51927      -553.342          44.000  
J 4  36641746.482 5 192553680.662 5       300.329          35.000  
> 2024 11 28 12 41 26.7970000  0 24                     
G 2  19906933.888 7 104611645.772 7     -1417.950          43.000  
G 3  21687416.965 6 113968114.886 6      3265.194          41.000  
G 7  22354803.387 5 117475128.360 5     -3024.740          32.000  
G 8  22118171.716 6 116231690.546 6     -2414.902          40.000  
G14  20076477.167 6 105502603.350 6      2177.197          40.000  
G17  21729877.341 6 114191280.405 6      1956.200          36.000  
G19  24355965.407 3               3      2792.398          22.000  
G21  20726469.666 7 108918339.250 7     -2694.128          45.000  
G22  22057369.940 4 115912310.233 4      2774.568          29.000  
G30  21583243.946 4 113420768.538 4     -1900.667          29.000  
R 2  23009235.034 3               3       792.635          21.000  
R 3  23079923.916 3               3      2971.006          21.000  
R 9  19104962.103 6 102019378.529 6      2054.613          39.000  
R15  22778825.164 6 121723012.672 6     -4392.408          41.000  
R16  18860762.093 7 100750733.279 7     -2378.029          46.000  
R17  23426993.844 2               2     -3424.871          17.000  
R18  19715686.609 7 105243581.955 7     -2540.285          42.000  
R19  18725832.993 4 100170599.021 4       -72.183          29.000  
E11  24435158.167 5 128407625.754 5     -2289.677          30.000  
E25  23743914.366 7 124775153.289 7     -1867.558          43.000  
E30  25815556.577 4 135661640.871 4      2575.516          29.000  
J 2  37057582.588 6 194738907.65526       745.465          39.000  
J 3  37313997.361 7 196086378.24727      -553.552          44.000  
J 4  36641735.157 5 192553620.558 5       300.325          35.000  
> 2024 11 28 12 41 26.9970000  0 24                     
G 2  19906987.844 7 104611929.376 7     -1417.798          43.000  
G 3  21687292.737 6 113967461.785 6      3265.463          41.000  
G 7  22354918.122 5 117475733.415 5     -3025.407          32.000  
G 8  22118263.626 6 116232173.476 6     -2414.504          40.000  
G14  20076394.418 6 105502167.966 6      2176.788          40.000  
G17  21729802.741 6 114190889.152 6      1956.242          36.000  
G19  24355857.862 3               3      2797.841          21.000  
G21  20726572.133 7 108918878.112 7     -2694.181          45.000  
G22  22057263.773 4 115911755.374 4      2774.509          29.000  
G30  21583318.232 4 113421148.583 4     -1899.507          29.000  
R 2  23009205.002 3               3       792.635          21.000  
R 3  23079813.892 3               3      2966.232          21.000  
R 9  19104885.183 6 102018967.636 6      2054.346          39.000  
R15  22778989.475 6 121723891.147 6     -4392.396          41.000  
R16  18860851.176 7 100751208.907 7     -2378.046          46.000  
R17  23427122.243 2               2     -3424.871          17.000  
R18  19715781.817 7 105244089.980 7     -2540.026          42.000  
R19  18725836.152 4 100170613.480 4       -72.229          29.000  
E11  24435240.828 4 128408083.694 4     -2289.675          29.000  
E25  23743985.615 7 124775526.818 7     -1867.635          43.000  
E30  25815457.355 4 135661125.829 4      2575.033          29.000  
J 2  37057554.092 6 194738758.57026       745.465          39.000  
J 3  37314018.598 7 196086488.96427      -553.616          44.000  
J 4  36641723.675 5 192553560.442 5       300.702          35.000  
> 2024 11 28 12 41 27.1970000  0 24                     
G 2  19907041.975 7 104612212.998 7     -1418.152          43.000  
G 3  21687168.456 6 113966808.714 6      3265.504          41.000  
G 7  22355033.206 5 117476338.470 5     -3025.166          32.000  
G 8  22118355.554 6 116232656.437 6     -2414.851          40.000  
G14  20076311.512 6 105501732.568 6      2177.020          40.000  
G17  21729728.141 6 114190497.920 6      1956.000          36.000  
G19  24355749.827 3               3      2797.841          21.000  
G21  20726674.619 7 108919416.993 7     -2694.428          45.000  
G22  22057159.368 4 115911200.542 4      2774.798          29.000  
G30  21583393.582 4 113421528.749 4     -1901.862          29.000  
R 2  23009175.040 3               3       792.635          21.000  
R 3  23079704.392 3               3      2968.558          21.000  
R 9  19104808.384 6 102018556.787 6      2054.307          40.000  
R15  22779153.961 6 121724769.628 6     -4392.469          41.000  
R16  18860940.172 7 100751684.570 7     -2378.235          46.000  
R17  23427250.292 2               2     -3424.871          17.000  
R18  19715876.834 6 105244598.025 6     -2540.556          41.000  
R19  18725838.804 4 100170627.882 4       -72.097          29.000  
E11  24435325.392 4 128408541.613 4     -2289.344          29.000  
E25  23744056.690 7 124775900.352 7     -1867.597          43.000  
E30  25815360.611 4 135660610.737 4      2575.608          29.000  
J 2  37057525.718 6 194738609.48426       745.584          39.000  
J 3  37314039.678 7 196086599.68327      -553.559          44.000  
J 4  36641712.245 5 192553500.356 5       300.577          35.000  
> 2024 11 28 12 41 27.3970000  0 24                     
G 2  19907095.966 7 104612496.653 7     -1418.524          43.000  
G 3  21687044.141 6 113966155.672 6      3264.920          41.000  
G 7  22355149.477 5 117476943.532 5     -3024.883          32.000  
G 8  22118447.412 6 116233139.410 6     -2414.908          40.000  
G14  20076228.571 6 105501297.240 6      2176.733          40.000  
G17  21729653.786 6 114190106.673 6      1956.161          36.000  
G19  24355641.339 3               3      2791.874          21.000  
G21  20726777.226 7 108919955.901 7     -2694.565          45.000  
G22  22057053.480 5 115910645.770 5      2774.371          30.000  
G30  21583465.494 4 113421908.815 4     -1900.368          29.000  
R 2  23009145.654 3               3       792.635          20.000  
R 3  23079595.119 3               3      2964.995          22.000  
R 9  19104731.394 6 102018145.997 6      2053.649          40.000  
R15  22779318.395 6 121725648.132 6     -4392.641          41.000  
R16  18861029.238 7 100752160.296 7     -2378.768          46.000  
R17  23427378.202 2               2     -3424.871          17.000  
R18  19715972.077 6 105245106.110 6     -2540.534          41.000  
R19  18725841.038 4 100170642.432 4       -72.869          29.000  
E11  24435416.709 4 128408999.561 4     -2289.862          29.000  
E25  23744127.729 7 124776273.915 7     -1867.921          43.000  
E30  25815263.867 4 135660095.692 4      2575.167          29.000  
J 2  37057497.518 6 194738460.44626       745.059          39.000  
J 3  37314060.688 7 196086710.43027      -553.756          44.000  
J 4  36641700.762 5 192553440.290 5       300.282          35.000  
> 2024 11 28 12 41 27.5970000  0 24                     
G 2  19907150.026 7 104612780.321 7     -1418.372          43.000  
G 3  21686919.878 6 113965502.687 6      3264.865          39.000  
G 7  22355264.073 5 117477548.682 5     -3025.302          32.000  
G 8  22118539.252 6 116233622.425 6     -2414.811          40.000  
G14  20076145.770 6 105500861.937 6      2176.636          40.000  
G17  21729579.378 6 114189715.469 6      1956.137          36.000  
G19  24355533.828 3               3      2791.874          20.000  
G21  20726879.990 7 108920494.842 7     -2694.711          45.000  
G22  22056946.161 5 115910091.034 5      2773.729          31.000  
G30  21583537.145 4 113422288.987 4     -1900.960          28.000  
R 2  23009115.727 3               3       796.473          20.000  
R 3  23079485.252 3               3      2965.469          21.000  
R 9  19104654.473 6 102017735.233 6      2053.795          40.000  
R15  22779482.671 6 121726526.637 6     -4392.363          41.000  
R16  18861118.304 7 100752636.058 7     -2378.828          47.000  
R17  23427505.746 2               2     -3428.156          17.000  
R18  19716067.233 6 105245614.206 6     -2540.552          41.000  
R19  18725843.882 4 100170656.953 4       -71.599          29.000  
E11  24435499.790 4 128409457.599 4     -2290.060          29.000  
E25  23744198.856 7 124776647.504 7     -1867.818          43.000  
E30  25815162.097 4 135659580.649 4      2575.844          29.000  
J 2  37057469.197 6 194738311.39626       745.137          39.000  
J 3  37314081.716 7 196086821.18227      -553.705          44.000  
J 4  36641689.210 6 192553380.241 6       300.326          36.000  
> 2024 11 28 12 41 27.7970000  0 24                     
G 2  19907204.122 7 104613064.002 7     -1418.646          43.000  
G 3  21686795.598 6 113964849.677 6      3265.184          39.000  
G 7  22355380.326 5 117478153.745 5     -3024.560          32.000  
G 8  22118631.041 6 116234105.382 6     -2414.619          40.000  
G14  20076062.951 6 105500426.606 6      2176.538          40.000  
G17  21729504.936 6 114189324.308 6      1956.064          36.000  
G19  24355427.993 3               3      2795.366          20.000  
G21  20726982.650 7 108921033.756 7     -2694.834          45.000  
G22  22056841.041 5 115909536.313 5      2773.255          31.000  
G30  21583611.553 4 113422669.220 4     -1901.352          29.000  
R 2  23009085.538 3               3       788.986          21.000  
R 3  23079375.019 3               3      2959.875          22.000  
R 9  19104577.605 6 102017324.475 6      2053.638          40.000  
R15  22779647.000 6 121727405.156 6     -4392.776          41.000  
R16  18861207.353 8 100753111.800 8     -2378.683          48.000  
R17  23427633.988 2               2     -3428.156          16.000  
R18  19716162.389 6 105246122.271 6     -2540.432          41.000  
R19  18725844.179 5 100170671.533 5       -73.468          30.000  
E11  24435588.978 5 128409915.579 5     -2289.745          30.000  
E25  23744270.175 7 124777021.084 7     -1868.054          43.000  
E30  25815064.306 5 135659065.628 5      2575.834          30.000  
J 2  37057440.892 6 194738162.31326       745.345          39.000  
J 3  37314102.848 7 196086931.90227      -553.726          44.000  
J 4  36641677.728 6 192553320.138 6       301.049          36.000  
> 2024 11 28 12 41 27.9970000  0 24                     
G 2  19907258.096 7 104613347.670 7     -1418.250          43.000  
G 3  21686671.369 6 113964196.673 6      3265.369          41.000  
G 7  22355496.195 5 117478758.891 5     -3025.760          31.000  
G 8  22118722.864 6 116234588.354 6     -2414.814          39.000  
G14  20075980.255 6 105499991.333 6      2176.404          40.000  
G17  21729430.423 6 114188933.040 6      1956.214          37.000  
G19  24355319.976 3               3      2795.366          20.000  
G21  20727085.118 7 108921572.662 7     -2694.210          45.000  
G22  22056739.428 5 115908981.479 5      2774.211          32.000  
G30  21583683.325 4 113423049.277 4     -1900.868          29.000  
R 2  23009056.518 3               3       790.227          21.000  
R 3  23079264.734 3               3      2958.436          22.000  
R 9  19104500.737 6 102016913.770 6      2053.936          39.000  
R15  22779811.241 6 121728283.630 6     -4392.186          41.000  
R16  18861296.523 8 100753587.579 8     -2378.648          48.000  
R17  23427762.212 2               2     -3428.156          16.000  
R18  19716257.562 6 105246630.325 6     -2540.099          41.000  
R19  18725848.733 4 100170686.017 4       -71.706          29.000  
E11  24435675.601 5 128410373.556 5     -2290.002          30.000  
E25  23744341.146 7 124777394.655 7     -1867.596          43.000  
E30  25814964.526 5 135658550.664 5      2575.086          30.000  
J 2  37057412.483 6 194738013.23626       745.609          40.000  
J 3  37314123.823 7 196087042.61827      -553.486          44.000  
J 4  36641666.124 6 192553260.066 6       299.912          36.000  
> 2024 11 28 12 41 28.1970000  0 24                     
G 2  19907312.069 7 104613631.292 7     -1417.627          43.000  
G 3  21686547.176 6 113963543.585 6      3265.771          41.000  
G 7  22355612.257 5 117479363.927 5     -3024.870          31.000  
G 8  22118814.599 6 116235071.256 6     -2414.016          39.000  
G14  20075897.401 6 105499555.955 6      2177.301          41.000  
G17  21729356.016 6 114188541.775 6      1957.251          36.000  
G19  24355213.198 3               3      2789.287          20.000  
G21  20727187.515 7 108922111.505 7     -2693.780          45.000  
G22  22056633.750 5 115908426.611 5      2775.364          32.000  
G30  21583754.313 4 113423429.356 4     -1900.306          29.000  
R 2  23009027.777 3               3       791.418          20.000  
R 3  23079154.152 3               3      2972.376          22.000  
R 9  19104423.781 6 102016502.978 6      2054.502          39.000  
R15  22779975.570 6 121729162.052 6     -4391.528          41.000  
R16  18861385.624 8 100754063.314 8     -2378.414          48.000  
R17  23427890.611 2               2     -3428.156          16.000  
R18  19716352.701 6 105247138.317 6     -2539.669          41.000  
R19  18725850.827 4 100170700.573 4       -72.597          29.000  
E11  24435761.997 5 128410831.450 5     -2289.274          30.000  
E25  23744412.081 7 124777768.177 7     -1867.352          43.000  
E30  25814868.322 5 135658035.533 5      2576.083          30.000  
J 2  37057384.127 6 194737864.10726       745.696          39.000  
J 3  37314144.886 7 196087153.25227      -552.698          44.000  
J 4  36641654.711 6 192553199.883 6       300.964          36.000  
> 2024 11 28 12 41 28.3970000  0 24                     
G 2  19907366.025 7 104613914.901 7     -1418.353          43.000  
G 3  21686422.931 6 113962890.456 6      3265.721          41.000  
G 7  22355727.323 5 117479968.908 5     -3025.855          31.000  
G 8  22118906.492 6 116235554.133 6     -2414.455          39.000  
G14  20075814.617 6 105499120.598 6      2176.660          41.000  
G17  21729281.555 6 114188150.479 6      1955.933          36.000  
G19  24355106.752 3               3      2796.388          20.000  
G21  20727290.035 7 108922650.355 7     -2694.546          45.000  
G22  22056528.525 5 115907871.709 5      2773.923          32.000  
G30  21583822.508 4 113423809.452 4     -1900.447          29.000  
R 2  23008998.077 3               3       788.350          20.000  
R 3  23079044.163 3               3      2967.163          21.000  
R 9  19104346.965 6 102016092.239 6      2053.489          39.000  
R15  22780140.038 6 121730040.458 6     -4391.880          41.000  
R16  18861474.707 8 100754539.068 8     -2378.880          48.000  
R17  23428019.899 2               2     -3428.156          16.000  
R18  19716447.892 6 105247646.253 6     -2539.573          41.000  
R19  18725853.829 4 100170715.026 4       -72.316          29.000  
E11  24435848.707 5 128411289.308 5     -2289.963          30.000  
E25  23744482.894 7 124778141.668 7     -1867.527          43.000  
E30  25814769.048 5 135657520.427 5      2575.467          30.000  
J 2  37057355.805 6 194737714.91626       745.658          39.000  
J 3  37314165.948 7 196087263.87927      -553.299          44.000  
J 4  36641643.142 6 192553139.701 6       301.126          36.000  
> 2024 11 28 12 41 28.5970000  0 24                     
G 2  19907420.173 7 104614198.474 7     -1417.621          43.000  
G 3  21686298.738 6 113962237.298 6      3266.183          41.000  
G 7  22355842.408 5 117480573.815 5     -3024.474          31.000  
G 8  22118998.228 6 116236036.959 6     -2414.033          39.000  
G14  20075731.868 6 105498685.189 6      2177.240          41.000  
G17  21729207.165 6 114187759.112 6      1957.048          36.000  
G19  24355000.759 3               3      2792.399          21.000  
G21  20727392.625 7 108923189.139 7     -2693.742          45.000  
G22  22056420.822 5 115907316.773 5      2774.738          32.000  
G30  21583892.833 4 113424189.520 4     -1900.425          29.000  
R 2  23008968.778 3               3       788.350          20.000  
R 3  23078934.610 3               3      2967.163          21.000  
R 9  19104270.132 6 102015681.443 6      2054.268          40.000  
R15  22780304.280 6 121730918.834 6     -4391.759          41.000  
R16  18861563.791 8 100755014.795 8     -2378.512          48.000  
R17  23428148.734 2               2     -3428.156          16.000  
R18  19716543.065 7 105248154.185 7     -2539.520          42.000  
R19  18725854.858 4 100170729.427 4       -71.918          29.000  
E11  24435934.806 5 128411747.144 5     -2289.304          30.000  
E25  23744554.091 7 124778515.136 7     -1866.968          43.000  
E30  25814670.228 5 135657005.207 5      2576.510          30.000  
J 2  37057327.536 6 194737565.69826       746.247          39.000  
J 3  37314187.115 7 196087374.44927      -552.727          44.000  
J 4  36641631.590 6 192553079.448 6       301.792          36.000  
> 2024 11 28 12 41 28.7970000  0 24                     
G 2  19907474.094 7 104614482.045 7     -1418.134          43.000  
G 3  21686174.440 7 113961584.228 7      3264.933          42.000  
G 7  22355957.649 5 117481178.728 5     -3024.086          31.000  
G 8  22119089.981 6 116236519.806 6     -2414.370          39.000  
G14  20075649.067 6 105498249.793 6      2176.654          41.000  
G17  21729132.618 6 114187367.744 6      1956.423          36.000  
G19  24354894.086 3               3      2794.905          21.000  
G21  20727495.180 7 108923727.935 7     -2694.189          45.000  
G22  22056314.725 5 115906761.848 5      2774.974          33.000  
G30  21583967.851 4 113424569.570 4     -1900.021          29.000  
R 2  23008938.869 3               3       797.016          20.000  
R 3  23078823.941 3               3      2964.754          21.000  
R 9  19104193.229 6 102015270.685 6      2053.402          40.000  
R15  22780468.661 6 121731797.156 6     -4392.077          41.000  
R16  18861652.804 7 100755490.544 7     -2379.037          47.000  
R17  23428277.325 2               2     -3428.156          16.000  
R18  19716638.134 7 105248662.182 7     -2540.077          42.000  
R19  18725857.982 4 100170743.941 4       -72.348          29.000  
E11  24436023.959 5 128412204.948 5     -2288.608          30.000  
E25  23744625.008 7 124778888.626 7     -1867.517          43.000  
E30  25814571.564 5 135656490.036 5      2575.798          30.000  
J 2  37057299.127 6 194737416.47826       746.071          39.000  
J 3  37314208.108 7 196087485.02327      -552.962          44.000  
J 4  36641620.038 6 192553019.220 6       301.304          36.000  
> 2024 11 28 12 41 28.9970000  0 23                     
G 2  19907528.103 7 104614765.696 7     -1418.317          42.000  
G 3  21686050.159 6 113960931.134 6      3265.202          41.000  
G 7  22356072.646 5 117481783.750 5     -3024.604          31.000  
G 8  22119181.909 6 116237002.682 6     -2414.494          39.000  
G14  20075566.266 6 105497814.467 6      2176.367          41.000  
G17  21729058.088 5 114186976.459 5      1956.227          34.000  
G19  24354788.041 3               3      2797.481          21.000  
G21  20727597.683 7 108924266.803 7     -2694.384          45.000  
G22  22056210.565 5 115906206.959 5      2774.013          33.000  
G30  21584040.043 4 113424949.766 4     -1901.292          29.000  
R 2  23008909.378 3               3       798.900          21.000  
R 3  23078713.865 3               3      2964.754          21.000  
R 9  19104116.378 6 102014859.993 6      2053.167          40.000  
R15  22780633.024 6 121732675.538 6     -4392.215          40.000  
R16  18861742.027 7 100755966.350 7     -2379.316          46.000  
R18  19716733.238 7 105249170.157 7     -2540.022          42.000  
R19  18725860.879 4 100170758.493 4       -72.777          29.000  
E11  24436109.046 5 128412662.827 5     -2289.603          30.000  
E25  23744695.908 7 124779262.152 7     -1867.797          43.000  
E30  25814476.792 4 135655974.821 4      2575.758          29.000  
J 2  37057270.631 6 194737267.29726       745.815          39.000  
J 3  37314229.135 7 196087595.62727      -553.260          44.000  
J 4  36641608.643 5 192552958.990 5       301.099          35.000  
> 2024 11 28 12 41 29.1970000  0 23                     
G 2  19907582.303 7 104615049.415 7     -1418.573          43.000  
G 3  21685925.687 6 113960278.109 6      3265.078          40.000  
G 7  22356187.433 5 117482388.805 5     -3025.487          31.000  
G 8  22119273.680 6 116237485.599 6     -2414.723          38.000  
G14  20075483.482 6 105497379.193 6      2176.318          41.000  
G17  21728983.698 5 114186585.232 5      1956.297          34.000  
G19  24354682.066 3               3      2789.701          21.000  
G21  20727700.185 7 108924805.710 7     -2694.573          45.000  
G22  22056107.382 5 115905652.168 5      2773.987          33.000  
G30  21584113.962 4 113425329.946 4     -1900.964          29.000  
R 2  23008879.154 3               3       796.039          21.000  
R 3  23078603.650 3               3      2960.581          21.000  
R 9  19104039.615 6 102014449.384 6      2053.098          40.000  
R15  22780797.353 6 121733553.991 6     -4392.261          41.000  
R16  18861831.163 7 100756442.245 7     -2379.522          46.000  
R18  19716828.272 7 105249678.211 7     -2540.321          42.000  
R19  18725864.962 4 100170773.086 4       -72.903          28.000  
E11  24436198.182 5 128413120.784 5     -2289.856          30.000  
E25  23744767.158 7 124779635.751 7     -1867.925          43.000  
E30  25814378.792 4 135655459.749 4      2575.749          29.000  
J 2  37057242.326 6 194737118.13526       745.737          39.000  
J 3  37314250.320 7 196087706.27127      -553.138          44.000  
J 4  36641597.195 5 192552898.828 5       300.757          35.000  
> 2024 11 28 12 41 29.3970000  0 23                     
G 2  19907636.207 7 104615333.179 7     -1418.823          43.000  
G 3  21685801.581 6 113959625.153 6      3264.520          40.000  
G 7  22356301.383 5 117482993.956 5     -3026.241          31.000  
G 8  22119365.433 6 116237968.585 6     -2415.058          38.000  
G14  20075400.628 6 105496943.979 6      2176.105          41.000  
G17  21728909.290 6 114186194.019 6      1955.983          37.000  
G19  24354574.904 3               3      2788.037          21.000  
G21  20727802.653 7 108925344.665 7     -2694.838          45.000  
G22  22056000.569 5 115905097.397 5      2773.982          33.000  
G30  21584187.288 4 113425710.174 4     -1901.679          29.000  
R 2  23008849.872 3               3       795.099          21.000  
R 3  23078493.626 3               3      2960.581          20.000  
R 9  19103962.939 6 102014038.845 6      2052.538          40.000  
R15  22780961.839 6 121734432.505 6     -4392.585          41.000  
R16  18861920.334 7 100756918.214 7     -2380.018          46.000  
R18  19716923.341 7 105250186.349 7     -2540.723          42.000  
R19  18725868.016 4 100170787.728 4       -73.459          28.000  
E11  24436288.539 5 128413578.776 5     -2289.566          30.000  
E25  23744838.320 7 124780009.387 7     -1868.370          43.000  
E30  25814280.285 4 135654944.730 4      2574.798          29.000  
J 2  37057213.830 6 194736969.04426       745.627          39.000  
J 3  37314271.312 7 196087816.97527      -553.466          44.000  
J 4  36641585.696 5 192552838.710 5       300.500          35.000  
> 2024 11 28 12 41 29.5970000  0 23                     
G 2  19907690.268 7 104615617.003 7     -1419.489          43.000  
G 3  21685677.300 7 113958972.224 7      3264.146          42.000  
G 7  22356411.424 5 117483599.107 5     -3025.704          32.000  
G 8  22119457.343 6 116238451.609 6     -2415.359          38.000  
G14  20075318.019 6 105496508.820 6      2175.342          40.000  
G17  21728834.812 6 114185802.849 6      1955.529          37.000  
G19  24354467.585 3               3      2794.914          21.000  
G21  20727905.190 7 108925883.644 7     -2695.119          45.000  
G22  22055897.211 5 115904542.653 5      2773.050          33.000  
G30  21584258.834 4 113426090.491 4     -1901.738          29.000  
R 2  23008819.631 3               3       789.899          20.000  
R 3  23078383.323 3               3      2960.581          20.000  
R 9  19103885.966 6 102013628.363 6      2052.168          40.000  
R15  22781126.290 6 121735311.061 6     -4393.063          41.000  
R16  18862009.330 7 100757394.240 7     -2380.459          47.000  
R18  19717018.532 7 105250694.523 7     -2541.128          42.000  
R19  18725869.778 4 100170802.447 4       -73.436          28.000  
E11  24436372.458 5 128414036.805 5     -2289.939          30.000  
E25  23744909.325 7 124780383.058 7     -1868.396          43.000  
E30  25814180.574 4 135654429.755 4      2574.846          29.000  
J 2  37057185.526 6 194736819.97526       745.267          39.000  
J 3  37314292.322 7 196087927.70827      -553.987          44.000  
J 4  36641574.179 5 192552778.633 5       300.083          35.000  
> 2024 11 28 12 41 29.7970000  0 23                     
G 2  19907744.346 7 104615900.813 7     -1419.226          43.000  
G 3  21685553.125 7 113958319.288 7      3264.579          42.000  
G 7  22356528.027 5 117484204.208 5     -3026.594          31.000  
G 8  22119549.288 6 116238934.637 6     -2415.726          38.000  
G14  20075235.253 6 105496073.651 6      2175.720          41.000  
G17  21728760.300 6 114185411.707 6      1955.297          37.000  
G19  24354361.331 3               3      2794.914          21.000  
G21  20728007.798 7 108926422.665 7     -2694.798          45.000  
G22  22055789.543 5 115903987.904 5      2773.945          33.000  
G30  21584332.823 4 113426470.842 4     -1902.007          29.000  
R 2  23008790.315 3               3       786.742          20.000  
R 3  23078273.073 3               3      2963.364          20.000  
R 9  19103809.045 6 102013217.892 6      2052.214          40.000  
R15  22781290.758 6 121736189.581 6     -4392.641          41.000  
R16  18862098.535 7 100757870.273 7     -2380.279          47.000  
R18  19717113.722 6 105251202.657 6     -2540.619          41.000  
R19  18725871.157 4 100170817.214 4       -74.159          28.000  
E11  24436456.829 5 128414494.836 5     -2290.547          30.000  
E25  23744980.469 7 124780756.755 7     -1868.396          43.000  
E30  25814083.272 4 135653914.598 4      2575.592          29.000  
J 2  37057157.204 6 194736670.91626       745.149          39.000  
J 3  37314313.472 7 196088038.42127      -553.752          44.000  
J 4  36641562.661 6 192552718.543 6       299.633          37.000  
> 2024 11 28 12 41 29.9970000  0 23                     
G 2  19907798.319 7 104616184.624 7     -1418.964          43.000  
G 3  21685429.019 7 113957666.379 7      3264.372          42.000  
G 7  22356645.397 5 117484809.333 5     -3025.198          31.000  
G 8  22119641.181 6 116239417.627 6     -2415.284          36.000  
G14  20075152.434 6 105495638.495 6      2175.635          41.000  
G17  21728685.788 6 114185020.502 6      1955.870          36.000  
G19  24354252.913 3               3      2797.504          21.000  
G21  20728110.457 7 108926961.655 7     -2694.945          45.000  
G22  22055684.057 5 115903433.192 5      2773.874          33.000  
G30  21584402.868 4 113426851.121 4     -1901.273          28.000  
R 2  23008760.231 3               3       792.621          21.000  
R 3  23078162.543 3               3      2963.364          20.000  
R 9  19103732.229 6 102012807.450 6      2052.222          40.000  
R15  22781455.226 6 121737068.114 6     -4392.738          41.000  
R16  18862187.723 7 100758346.343 7     -2380.348          47.000  
R18  19717208.913 6 105251710.800 6     -2540.531          41.000  
R19  18725872.536 4 100170831.948 4       -73.547          28.000  
E11  24436541.166 4 128414952.968 4     -2290.716          29.000  
E25  23745051.614 7 124781130.446 7     -1868.385          43.000  
E30  25813985.324 4 135653399.663 4      2574.958          29.000  
J 2  37057129.039 6 194736521.81626       745.207          38.000  
J 3  37314334.604 7 196088149.12227      -553.691          44.000  
J 4  36641551.162 6 192552658.394 6       300.607          37.000  
> 2024 11 28 12 41 30.1970000  0 23                     
G 2  19907852.380 7 104616468.428 7     -1418.896          43.000  
G 3  21685304.738 7 113957013.387 7      3264.879          42.000  
G 7  22356759.155 5 117485414.439 5     -3025.073          30.000  
G 8  22119732.969 6 116239900.573 6     -2414.703          37.000  
G14  20075069.615 6 105495203.307 6      2175.916          41.000  
G17  21728611.432 6 114184629.290 6      1956.354          36.000  
G19  24354146.013 3               3      2796.804          21.000  
G21  20728212.943 7 108927500.627 7     -2694.893          45.000  
G22  22055580.786 5 115902878.438 5      2773.834          33.000  
G30  21584475.496 4 113427231.430 4     -1901.947          28.000  
R 2  23008731.909 3               3       788.972          21.000  
R 3  23078052.502 3               3      2963.364          20.000  
R 9  19103655.291 6 102012396.989 6      2052.375          40.000  
R15  22781619.694 6 121737946.596 6     -4392.500          41.000  
R16  18862276.859 7 100758822.393 7     -2380.265          47.000  
R18  19717303.808 6 105252218.911 6     -2540.657          41.000  
R19  18725872.937 4 100170846.602 4       -72.956          28.000  
E11  24436624.404 4 128415410.886 4     -2289.891          29.000  
E25  23745122.845 7 124781504.098 7     -1868.140          42.000  
E30  25813888.580 4 135652884.642 4      2575.514          29.000  
J 2  37057100.648 6 194736372.68626       745.792          38.000  
J 3  37314355.527 7 196088259.77227      -553.104          44.000  
J 4  36641539.784 6 192552598.238 6       301.364          37.000  
> 2024 11 28 12 41 30.3970000  0 23                     
G 2  19907906.441 7 104616752.227 7     -1419.049          42.000  
G 3  21685180.562 7 113956360.430 7      3265.112          42.000  
G 7  22356873.995 5 117486019.497 5     -3025.164          30.000  
G 8  22119824.792 6 116240383.477 6     -2414.034          37.000  
G14  20074986.709 6 105494768.129 6      2175.977          41.000  
G17  21728537.042 6 114184238.077 6      1956.185          36.000  
G19  24354040.195 3               3      2796.804          21.000  
G21  20728315.550 7 108928039.585 7     -2694.538          45.000  
G22  22055475.806 5 115902323.645 5      2774.153          33.000  
G30  21584549.781 4 113427611.767 4     -1902.072          28.000  
R 2  23008703.134 3               3       795.072          21.000  
R 3  23077942.566 3               3      2961.202          19.000  
R 9  19103578.493 6 102011986.562 6      2052.129          40.000  
R15  22781784.215 6 121738825.069 6     -4392.192          41.000  
R16  18862365.995 7 100759298.452 7     -2380.115          47.000  
R18  19717398.999 6 105252727.021 6     -2540.502          41.000  
R19  18725876.776 4 100170861.396 4       -74.083          27.000  
E11  24436711.637 4 128415868.832 4     -2289.948          29.000  
E25  23745193.955 7 124781877.750 7     -1868.200          42.000  
E30  25813788.608 4 135652369.539 4      2575.506          29.000  
J 2  37057072.256 6 194736223.54526       745.701          39.000  
J 3  37314376.537 7 196088370.41427      -552.837          44.000  
J 4  36641528.354 6 192552538.074 6       300.532          36.000  
> 2024 11 28 12 41 30.5970000  0 23                     
G 2  19907960.397 7 104617035.975 7     -1418.744          42.000  
G 3  21685056.230 7 113955707.427 7      3265.392          42.000  
G 7  22356987.543 5 117486624.592 5     -3025.372          30.000  
G 8  22119916.598 6 116240866.404 6     -2414.105          37.000  
G14  20074904.048 6 105494332.906 6      2176.062          41.000  
G17  21728462.477 6 114183846.768 6      1956.403          36.000  
G19  24353934.219 3               3      2795.829          21.000  
G21  20728418.140 7 108928578.510 7     -2694.690          45.000  
G22  22055368.225 5 115901768.829 5      2773.921          33.000  
G30  21584624.817 4 113427991.993 4     -1901.121          28.000  
R 2  23008674.114 3               3       798.808          21.000  
R 3  23077832.577 3               3      2961.202          19.000  
R 9  19103501.607 6 102011576.098 6      2052.078          40.000  
R15  22781948.614 6 121739703.483 6     -4392.004          41.000  
R16  18862455.218 7 100759774.483 7     -2380.109          47.000  
R18  19717494.242 6 105253235.065 6     -2540.198          41.000  
R19  18725878.748 4 100170876.092 4       -73.619          27.000  
E11  24436797.370 4 128416326.771 4     -2289.774          29.000  
E25  23745265.082 7 124782251.352 7     -1867.908          42.000  
E30  25813686.908 4 135651854.405 4      2575.963          29.000  
J 2  37057043.865 6 194736074.34726       745.925          39.000  
J 3  37314397.582 7 196088481.01527      -553.061          44.000  
J 4  36641516.872 6 192552477.811 6       301.136          36.000  
> 2024 11 28 12 41 30.7970000  0 23                     
G 2  19908014.318 7 104617319.747 7     -1418.787          43.000  
G 3  21684932.089 6 113955054.438 6      3264.895          41.000  
G 7  22357104.774 5 117487229.649 5     -3025.379          30.000  
G 8  22120008.404 6 116241349.298 6     -2414.002          37.000  
G14  20074821.334 6 105493897.717 6      2176.031          41.000  
G17  21728388.000 6 114183455.481 6      1956.615          36.000  
G19  24353826.045 3               3      2792.514          21.000  
G21  20728520.695 7 108929117.437 7     -2694.633          45.000  
G22  22055262.128 5 115901213.983 5      2774.274          33.000  
G30  21584698.527 4 113428372.272 4     -1901.426          28.000  
R 2  23008644.483 3               3       792.583          21.000  
R 3  23077722.344 3               3      2964.365          19.000  
R 9  19103424.844 6 102011165.674 6      2051.932          40.000  
R15  22782112.960 6 121740581.911 6     -4392.201          41.000  
R16  18862544.406 7 100760250.556 7     -2380.328          47.000  
R18  19717589.381 6 105253743.139 6     -2540.245          41.000  
R19  18725880.388 4 100170890.755 4       -73.253          27.000  
E11  24436888.635 4 128416784.676 4     -2289.536          29.000  
E25  23745336.279 7 124782624.988 7     -1868.207          42.000  
E30  25813588.087 4 135651339.343 4      2575.740          29.000  
J 2  37057015.404 6 194735925.16126       745.967          39.000  
J 3  37314418.627 7 196088591.61427      -552.937          44.000  
J 4  36641505.529 6 192552417.579 6       300.853          36.000  
> 2024 11 28 12 41 30.9970000  0 23                     
G 2  19908068.379 7 104617603.587 7     -1419.110          42.000  
G 3  21684807.808 6 113954401.502 6      3264.444          41.000  
G 7  22357220.748 5 117487834.779 5     -3025.964          30.000  
G 8  22120100.401 6 116241832.285 6     -2414.909          37.000  
G14  20074738.620 6 105493462.586 6      2175.482          41.000  
G17  21728313.522 6 114183064.301 6      1955.508          36.000  
G19  24353718.622 3               3      2790.421          21.000  
G21  20728623.302 7 108929656.424 7     -2694.897          45.000  
G22  22055154.984 5 115900659.223 5      2773.994          33.000  
G30  21584773.912 4 113428752.701 4     -1902.044          29.000  
R 2  23008614.958 3               3       796.878          22.000  
R 3  23077612.233 3               3      2964.365          19.000  
R 9  19103347.958 6 102010755.326 6      2051.430          40.000  
R15  22782277.341 7 121741460.408 7     -4392.425          43.000  
R16  18862633.576 7 100760726.719 7     -2380.880          47.000  
R18  19717684.624 7 105254251.263 7     -2540.469          42.000  
R19  18725884.140 4 100170905.535 4       -73.860          28.000  
E11  24436979.481 4 128417242.625 4     -2289.913          28.000  
E25  23745407.511 7 124782998.672 7     -1868.540          42.000  
E30  25813491.797 5 135650824.214 5      2576.651          30.000  
J 2  37056987.064 6 194735776.01826       745.970          39.000  
J 3  37314439.759 7 196088702.25927      -553.097          44.000  
J 4  36641494.239 6 192552357.402 6       300.518          36.000  
> 2024 11 28 12 41 31.1970000  0 23                     
G 2  19908122.405 7 104617887.500 7     -1419.611          42.000  
G 3  21684683.633 6 113953748.627 6      3264.278          41.000  
G 7  22357338.188 5 117488439.924 5     -3025.485          30.000  
G 8  22120192.207 6 116242315.315 6     -2415.733          37.000  
G14  20074655.975 6 105493027.525 6      2175.238          40.000  
G17  21728239.062 6 114182673.094 6      1955.373          36.000  
G19  24353613.362 3               3      2792.479          21.000  
G21  20728725.839 7 108930195.485 7     -2695.420          45.000  
G22  22055048.712 5 115900104.525 5      2773.155          33.000  
G30  21584846.348 4 113429133.119 4     -1903.634          29.000  
R 2  23008584.943 3               3       786.965          22.000  
R 3  23077501.564 3               3      2964.365          18.000  
R 9  19103271.194 6 102010345.065 6      2050.898          40.000  
R15  22782441.565 7 121742338.979 7     -4392.908          43.000  
R16  18862722.730 7 100761202.964 7     -2381.387          47.000  
R18  19717779.919 7 105254759.473 7     -2541.095          43.000  
R19  18725884.576 4 100170920.455 4       -74.929          27.000  
E11  24437074.148 4 128417700.702 4     -2290.496          28.000  
E25  23745478.638 7 124783372.430 7     -1869.114          42.000  
E30  25813397.025 5 135650309.249 5      2574.939          30.000  
J 2  37056958.673 6 194735626.965 6       744.863          39.000  
J 3  37314460.682 7 196088812.975 7      -553.562          44.000  
J 4  36641482.827 6 192552297.291 6       300.210          36.000  
> 2024 11 28 12 41 31.3970000  0 23                     
G 2  19908176.501 7 104618171.468 7     -1420.325          42.000  
G 3  21684559.265 6 113953095.821 6      3263.544          41.000  
G 7  22357452.225 5 117489045.113 5     -3026.076          31.000  
G 8  22120284.065 6 116242798.343 6     -2415.754          37.000  
G14  20074573.366 6 105492592.524 6      2174.542          40.000  
G17  21728164.515 6 114182281.963 6      1955.756          36.000  
G19  24353506.061 3               3      2789.841          21.000  
G21  20728828.412 7 108930734.577 7     -2695.627          45.000  
G22  22054943.120 5 115899549.940 5      2772.273          33.000  
G30  21584916.428 4 113429513.623 4     -1903.248          29.000  
R 2  23008555.836 3               3       790.140          23.000  
R 3  23077391.296 2               2      2964.365          17.000  
R 9  19103194.501 6 102009934.844 6      2050.758          40.000  
R15  22782606.051 7 121743217.565 7     -4393.155          43.000  
R16  18862811.883 7 100761679.260 7     -2381.809          47.000  
R18  19717875.180 7 105255267.702 7     -2541.435          42.000  
R19  18725889.375 4 100170935.344 4       -74.912          27.000  
E11  24437164.331 4 128418158.762 4     -2290.431          28.000  
E25  23745549.852 7 124783746.224 7     -1869.182          42.000  
E30  25813299.757 5 135649794.248 5      2574.813          30.000  
J 2  37056930.404 6 194735477.879 6       745.049          39.000  
J 3  37314481.797 7 196088923.710 7      -554.088          44.000  
J 4  36641471.501 6 192552237.199 6       300.750          36.000  
> 2024 11 28 12 41 31.5970000  0 23                     
G 2  19908230.509 7 104618455.542 7     -1420.538          42.000  
G 3  21684435.037 6 113952443.095 6      3263.658          41.000  
G 7  22357567.397 5 117489650.456 5     -3027.160          31.000  
G 8  22120376.097 6 116243281.509 6     -2416.050          37.000  
G14  20074490.547 6 105492157.617 6      2174.176          40.000  
G17  21728090.177 6 114181890.994 6      1954.911          36.000  
G19  24353398.707 3               3      2783.639          21.000  
G21  20728931.071 7 108931273.782 7     -2696.142          45.000  
G22  22054839.222 5 115898995.349 5      2772.286          33.000  
G30  21584985.251 4 113429894.176 4     -1903.138          29.000  
R 2  23008525.944 3               3       790.047          23.000  
R 3  23077279.928 2               2      2964.365          17.000  
R 9  19103117.894 6 102009524.777 6      2050.217          40.000  
R15  22782770.484 7 121744096.262 7     -4393.549          43.000  
R16  18862901.088 7 100762155.686 7     -2382.134          47.000  
R18  19717970.336 7 105255776.040 7     -2541.662          42.000  
R19  18725893.074 4 100170950.372 4       -75.797          28.000  
E11  24437245.213 4 128418617.045 4     -2291.497          28.000  
E25  23745621.171 7 124784120.129 7     -1869.780          42.000  
E30  25813202.280 4 135649279.437 4      2573.825          29.000  
J 2  37056902.134 6 194735328.922 6       744.767          39.000  
J 3  37314502.947 7 196089034.544 7      -554.300          44.000  
J 4  36641460.106 6 192552177.230 6       300.042          36.000  
> 2024 11 28 12 41 31.7970000  0 24                     
G 2  19908284.552 7 104618739.608 7     -1420.367          42.000  
G 3  21684310.791 6 113951790.384 6      3263.353          41.000  
G 7  22357683.475 5 117490255.717 5     -3026.774          31.000  
G 8  22120468.008 6 116243764.653 6     -2415.561          37.000  
G14  20074407.746 6 105491722.721 6      2174.512          40.000  
G17  21728015.752 6 114181499.941 6      1955.293          36.000  
G19  24353291.336 3               3      2780.278          21.000  
G21  20729033.644 7 108931812.974 7     -2695.980          44.000  
G22  22054732.549 5 115898440.769 5      2772.483          33.000  
G30  21585054.895 4 113430274.789 4     -1903.593          29.000  
R 2  23008496.924 3               3       790.313          23.000  
R 3  23077169.067 2               2      2964.365          16.000  
R 9  19103041.078 6 102009114.711 6      2050.286          40.000  
R15  22782934.743 7 121744974.934 7     -4393.322          43.000  
R16  18862990.311 7 100762632.132 7     -2382.157          47.000  
R17  23430198.210 2               2     -3425.000          12.000  
R18  19718065.719 7 105256284.401 7     -2541.889          42.000  
R19  18725895.203 4 100170965.429 4       -75.412          28.000  
E11  24437331.469 4 128419075.257 4     -2291.156          29.000  
E25  23745692.473 7 124784494.014 7     -1869.324          42.000  
E30  25813096.759 4 135648764.496 4      2575.062          29.000  
J 2  37056873.708 6 194735179.937 6       744.933          39.000  
J 3  37314524.096 7 196089145.348 7      -553.978          44.000  
J 4  36641448.816 6 192552117.244 6       299.979          36.000  
> 2024 11 28 12 41 31.9970000  0 24                     
G 2  19908338.718 7 104619023.722 7     -1420.404          42.000  
G 3  21684186.668 6 113951137.678 6      3263.788          41.000  
G 7  22357801.369 5 117490861.064 5     -3026.972          31.000  
G 8  22120559.935 6 116244247.815 6     -2415.891          39.000  
G14  20074325.084 7 105491287.841 7      2174.640          42.000  
G17  21727941.309 6 114181108.941 6      1955.159          37.000  
G19  24353183.528 3               3      2780.278          20.000  
G21  20729136.216 7 108932352.200 7     -2695.996          44.000  
G22  22054628.196 5 115897886.212 5      2772.733          33.000  
G30  21585128.954 4 113430655.359 4     -1902.681          29.000  
R 2  23008467.625 3               3       789.863          23.000  
R 3  23077058.468 2               2      2964.365          16.000  
R 9  19102964.175 6 102008704.703 6      2050.135          40.000  
R15  22783099.194 7 121745853.626 7     -4393.346          43.000  
R16  18863079.621 7 100763108.636 7     -2382.419          47.000  
R17  23430327.900 1               1     -3425.000          11.000  
R18  19718161.032 6 105256792.754 6     -2541.495          41.000  
R19  18725895.849 4 100170980.435 4       -75.265          28.000  
E11  24437415.911 4 128419533.389 4     -2290.572          29.000  
E25  23745763.617 7 124784867.954 7     -1869.752          43.000  
E30  25813005.180 4 135648249.658 4      2573.788          29.000  
J 2  37056845.264 6 194735030.981 6       744.834          39.000  
J 3  37314545.159 7 196089256.171 7      -554.065          44.000  
J 4  36641437.561 6 192552057.235 6       300.265          36.000  
> 2024 11 28 12 41 32.1970000  0 24                     
G 2  19908392.761 7 104619307.832 7     -1420.764          42.000  
G 3  21684062.387 6 113950485.007 6      3263.007          41.000  
G 7  22357917.745 5 117491466.359 5     -3026.210          31.000  
G 8  22120651.793 6 116244730.943 6     -2415.884          39.000  
G14  20074242.248 7 105490852.990 7      2173.761          42.000  
G17  21727866.901 6 114180717.943 6      1954.738          37.000  
G19  24353076.541 3               3      2780.278          20.000  
G21  20729238.823 7 108932891.433 7     -2696.440          44.000  
G22  22054524.141 5 115897331.653 5      2772.488          33.000  
G30  21585199.767 4 113431035.991 4     -1903.653          29.000  
R 2  23008436.599 3               3       793.561          23.000  
R 3  23076948.078 2               2      2964.365          16.000  
R 9  19102887.325 6 102008294.704 6      2049.671          40.000  
R15  22783263.627 7 121746732.315 7     -4393.550          43.000  
R16  18863168.827 7 100763585.147 7     -2382.878          47.000  
R17  23430455.810 1               1     -3425.000          10.000  
R18  19718256.206 6 105257301.118 6     -2542.297          39.000  
R19  18725898.990 4 100170995.538 4       -75.375          28.000  
E11  24437501.993 4 128419991.620 4     -2291.229          28.000  
E25  23745834.762 7 124785241.877 7     -1869.629          43.000  
E30  25812907.791 4 135647734.773 4      2574.342          29.000  
J 2  37056817.099 6 194734882.017 6       744.479          39.000  
J 3  37314566.273 7 196089367.002 7      -554.307          44.000  
J 4  36641426.079 6 192551997.208 6       300.052          36.000  
> 2024 11 28 12 41 32.3970000  0 23                     
G 2  19908446.717 7 104619592.006 7     -1421.252          42.000  
G 3  21683938.281 6 113949832.361 6      3263.001          41.000  
G 7  22358032.113 5 117492071.736 5     -3026.709          31.000  
G 8  22120743.703 6 116245214.150 6     -2415.948          39.000  
G14  20074159.517 7 105490418.181 7      2174.030          42.000  
G17  21727792.476 6 114180326.973 6      1954.729          37.000  
G19  24352969.606 3               3      2780.278          19.000  
G21  20729341.378 7 108933430.704 7     -2696.489          44.000  
G22  22054415.740 5 115896777.167 5      2772.353          33.000  
G30  21585267.753 4 113431416.686 4     -1903.680          29.000  
R 2  23008407.527 4               4       791.037          24.000  
R 9  19102810.456 6 102007884.782 6      2049.546          40.000  
R15  22783428.060 7 121747611.058 7     -4393.936          43.000  
R16  18863258.137 7 100764061.723 7     -2382.925          47.000  
R17  23430584.418 1               1     -3425.000          10.000  
R18  19718351.362 6 105257809.542 6     -2542.164          40.000  
R19  18725903.126 4 100171010.685 4       -75.778          28.000  
E11  24437592.629 4 128420449.846 4     -2291.101          28.000  
E25  23745905.924 7 124785615.875 7     -1870.045          43.000  
E30  25812809.825 4 135647219.926 4      2574.082          29.000  
J 2  37056788.830 6 194734733.090 6       744.548          39.000  
J 3  37314587.388 7 196089477.859 7      -554.361          44.000  
J 4  36641414.841 6 192551937.254 6       299.883          37.000  
> 2024 11 28 12 41 32.5970000  0 23                     
G 2  19908500.726 6 104619876.179 6     -1421.021          41.000  
G 3  21683814.210 6 113949179.723 6      3263.127          41.000  
G 7  22358149.274 5 117492677.113 5     -3026.701          31.000  
G 8  22120835.718 6 116245697.359 6     -2416.058          39.000  
G14  20074076.733 7 105489983.391 7      2173.975          42.000  
G17  21727718.068 6 114179936.004 6      1954.662          37.000  
G19  24352862.636 3               3      2795.713          19.000  
G21  20729443.933 7 108933969.988 7     -2696.541          44.000  
G22  22054310.568 5 115896222.658 5      2773.001          34.000  
G30  21585342.771 4 113431797.375 4     -1903.440          29.000  
R 2  23008378.315 4               4       780.560          24.000  
R 9  19102733.693 6 102007474.896 6      2049.601          40.000  
R15  22783592.459 7 121748489.818 7     -4394.096          43.000  
R16  18863347.517 7 100764538.330 7     -2383.039          47.000  
R17  23430714.422 1               1     -3425.000          10.000  
R18  19718446.727 6 105258317.972 6     -2542.225          40.000  
R19  18725904.435 4 100171025.866 4       -75.905          28.000  
E11  24437681.346 4 128420908.142 4     -2291.498          28.000  
E25  23745976.911 7 124785989.853 7     -1869.915          43.000  
E30  25812713.727 4 135646705.136 4      2573.865          29.000  
J 2  37056760.665 6 194734584.153 6       744.713          39.000  
J 3  37314608.416 7 196089588.717 7      -554.218          44.000  
J 4  36641403.498 6 192551877.287 6       299.875          36.000  
> 2024 11 28 12 41 32.7970000  0 23                     
G 2  19908554.786 6 104620160.364 6     -1421.033          41.000  
G 3  21683689.965 6 113948527.110 6      3263.353          41.000  
G 7  22358260.153 5 117493282.450 5     -3027.193          31.000  
G 8  22120927.751 6 116246180.545 6     -2415.557          38.000  
G14  20073994.019 7 105489548.630 7      2173.761          42.000  
G17  21727643.765 6 114179545.027 6      1955.243          37.000  
G19  24352754.602 3               3      2795.713          19.000  
G21  20729546.575 7 108934509.265 7     -2696.255          44.000  
G22  22054206.163 5 115895668.236 5      2772.026          34.000  
G30  21585415.539 4 113432178.081 4     -1903.111          29.000  
R 2  23008348.859 4               4       788.391          24.000  
R 9  19102656.982 6 102007065.029 6      2049.615          40.000  
R15  22783756.980 7 121749368.568 7     -4393.676          43.000  
R16  18863436.705 7 100765014.957 7     -2382.998          47.000  
R17  23430843.467 1               1     -3425.000          11.000  
R18  19718541.953 6 105258826.405 6     -2542.052          41.000  
R19  18725908.518 4 100171041.028 4       -75.722          28.000  
E11  24437764.479 4 128421366.405 4     -2291.416          28.000  
E25  23746048.108 7 124786363.846 7     -1869.640          43.000  
E30  25812617.367 4 135646190.300 4      2574.326          29.000  
J 2  37056732.379 6 194734435.239 6       744.667          39.000  
J 3  37314629.530 7 196089699.573 7      -553.929          44.000  
J 4  36641392.138 6 192551817.326 6       299.924          36.000  
> 2024 11 28 12 41 32.9970000  0 23                     
G 2  19908608.777 6 104620444.571 6     -1421.112          41.000  
G 3  21683565.719 6 113947874.513 6      3263.007          41.000  
G 7  22358373.963 5 117493887.855 5     -3027.229          31.000  
G 8  22121019.836 6 116246663.773 6     -2415.619          36.000  
G14  20073911.357 6 105489113.866 6      2173.779          40.000  
G17  21727569.358 6 114179154.073 6      1954.741          37.000  
G19  24352646.428 3               3      2792.479          19.000  
G21  20729649.183 7 108935048.589 7     -2696.788          44.000  
G22  22054099.943 5 115895113.733 5      2772.186          34.000  
G30  21585486.771 4 113432558.821 4     -1903.509          29.000  
R 2  23008319.211 4               4       785.180          25.000  
R 9  19102580.166 6 102006655.201 6      2049.292          41.000  
R15  22783921.448 7 121750247.331 7     -4393.607          43.000  
R16  18863525.998 8 100765491.643 8     -2383.414          48.000  
R17  23430971.918 2               2     -3423.729          12.000  
R18  19718637.179 7 105259334.842 7     -2542.274          44.000  
R19  18725913.160 4 100171056.271 4       -76.260          28.000  
E11  24437854.417 4 128421824.629 4     -2291.044          28.000  
E25  23746119.270 7 124786737.880 7     -1870.154          43.000  
E30  25812519.384 4 135645675.538 4      2573.633          29.000  
J 2  37056704.127 6 194734286.333 6       744.329          40.000  
J 3  37314650.506 7 196089810.444 7      -554.202          44.000  
J 4  36641380.795 6 192551757.347 6       299.970          37.000  
> 2024 11 28 12 41 33.1970000  0 23                     
G 2  19908662.751 6 104620728.825 6     -1421.246          40.000  
G 3  21683441.578 6 113947221.905 6      3263.073          41.000  
G 7  22358489.361 5 117494493.244 5     -3026.992          31.000  
G 8  22121111.798 6 116247147.033 6     -2415.638          36.000  
G14  20073828.521 6 105488679.120 6      2173.773          40.000  
G17  21727495.020 6 114178763.161 6      1954.626          37.000  
G19  24352538.568 3               3      2790.407          19.000  
G21  20729751.982 7 108935587.915 7     -2696.712          44.000  
G22  22053995.574 5 115894559.269 5      2772.803          34.000  
G30  21585560.620 4 113432939.700 4     -1904.634          29.000  
R 2  23008289.738 4               4       787.320          25.000  
R 9  19102503.472 6 102006245.428 6      2048.734          40.000  
R15  22784085.707 7 121751126.111 7     -4393.847          43.000  
R16  18863615.256 8 100765968.364 8     -2383.688          48.000  
R17  23431100.439 2               2     -3423.729          12.000  
R18  19718732.544 7 105259843.283 7     -2542.230          45.000  
R19  18725916.824 4 100171071.526 4       -76.349          28.000  
E11  24437942.157 4 128422282.996 4     -2291.927          28.000  
E25  23746190.572 7 124787111.909 7     -1870.034          43.000  
E30  25812418.783 4 135645160.667 4      2574.519          28.000  
J 2  37056675.753 6 194734137.435 6       744.344          40.000  
J 3  37314671.446 7 196089921.317 7      -554.371          44.000  
J 4  36641369.383 6 192551697.412 6       299.440          37.000  
> 2024 11 28 12 41 33.3970000  0 23                     
G 2  19908716.812 6 104621013.045 6     -1420.514          41.000  
G 3  21683317.246 7 113946569.316 7      3263.102          42.000  
G 7  22358605.929 5 117495098.556 5     -3025.827          31.000  
G 8  22121203.813 5 116247630.258 5     -2416.092          35.000  
G14  20073745.737 6 105488244.400 6      2173.578          38.000  
G17  21727420.560 6 114178372.161 6      1954.772          37.000  
G19  24352431.040 3               3      2790.407          19.000  
G21  20729854.694 7 108936127.217 7     -2696.341          44.000  
G22  22053887.173 5 115894004.800 5      2771.907          33.000  
G30  21585631.415 4 113433320.422 4     -1903.569          29.000  
R 2  23008260.317 4               4       789.042          25.000  
R 9  19102426.901 6 102005835.635 6      2048.816          38.000  
R15  22784250.070 7 121752004.848 7     -4393.567          43.000  
R16  18863704.566 8 100766445.080 8     -2383.603          48.000  
R17  23431229.867 2               2     -3423.729          12.000  
R18  19718827.753 7 105260351.714 7     -2541.985          45.000  
R19  18725920.890 4 100171086.741 4       -76.369          28.000  
E11  24438029.932 4 128422741.231 4     -2291.023          28.000  
E25  23746261.839 7 124787485.937 7     -1869.777          42.000  
E30  25812318.095 4 135644645.872 4      2574.091          28.000  
J 2  37056647.413 6 194733988.481 6       744.845          40.000  
J 3  37314692.543 7 196090032.158 7      -553.965          43.000  
J 4  36641357.988 6 192551637.396 6       300.188          36.000  
> 2024 11 28 12 41 33.5970000  0 23                     
G 2  19908770.890 6 104621297.329 6     -1421.399          41.000  
G 3  21683193.122 7 113945916.760 7      3262.741          42.000  
G 7  22358721.048 5 117495703.992 5     -3026.858          31.000  
G 8  22121295.846 5 116248113.434 5     -2415.633          35.000  
G14  20073662.971 6 105487809.711 6      2173.376          39.000  
G17  21727346.239 6 114177981.223 6      1955.017          37.000  
G19  24352323.547 3               3      2787.652          19.000  
G21  20729957.319 7 108936666.575 7     -2696.796          43.000  
G22  22053784.060 5 115893450.336 5      2772.767          33.000  
G30  21585703.781 4 113433701.223 4     -1903.918          29.000  
R 2  23008231.698 4               4       791.036          25.000  
R 9  19102350.067 6 102005425.895 6      2048.364          38.000  
R15  22784414.591 7 121752883.623 7     -4393.707          43.000  
R16  18863793.806 8 100766921.863 8     -2384.124          48.000  
R17  23431359.121 2               2     -3423.729          13.000  
R18  19718922.996 7 105260860.192 7     -2542.314          45.000  
R19  18725922.862 4 100171102.035 4       -76.702          29.000  
E11  24438116.816 4 128423199.496 4     -2291.234          28.000  
E25  23746333.088 7 124787860.019 7     -1870.432          42.000  
E30  25812218.821 4 135644131.095 4      2574.045          28.000  
J 2  37056619.057 6 194733839.577 6       744.282          40.000  
J 3  37314713.693 7 196090143.032 7      -554.271          43.000  
J 4  36641346.593 6 192551577.451 6       300.017          36.000  
> 2024 11 28 12 41 33.7970000  0 23                     
G 2  19908824.968 6 104621581.583 6     -1421.527          41.000  
G 3  21683068.929 7 113945264.178 7      3262.850          42.000  
G 7  22358834.684 5 117496309.365 5     -3027.007          31.000  
G 8  22121387.826 6 116248596.677 6     -2416.193          36.000  
G14  20073580.344 6 105487375.022 6      2173.474          40.000  
G17  21727271.988 6 114177590.268 6      1954.636          37.000  
G19  24352216.525 3               3      2787.652          19.000  
G21  20730060.013 7 108937205.921 7     -2696.883          44.000  
G22  22053677.718 5 115892895.914 5      2772.042          33.000  
G30  21585774.996 4 113434082.019 4     -1904.024          29.000  
R 2  23008202.539 4               4       786.672          24.000  
R 9  19102273.374 6 102005016.188 6      2048.402          38.000  
R15  22784578.990 7 121753762.383 7     -4393.933          42.000  
R16  18863883.187 7 100767398.649 7     -2384.321          47.000  
R17  23431487.415 2               2     -3423.729          14.000  
R18  19719018.204 7 105261368.641 7     -2542.293          42.000  
R19  18725927.207 4 100171117.302 4       -75.641          29.000  
E11  24438204.259 4 128423657.853 4     -2291.579          28.000  
E25  23746404.389 7 124788234.075 7     -1870.475          42.000  
E30  25812129.040 4 135643616.358 4      2573.396          28.000  
J 2  37056590.805 6 194733690.633 6       744.654          40.000  
J 3  37314734.773 7 196090253.885 7      -554.405          43.000  
J 4  36641335.233 6 192551517.518 6       299.551          37.000  
> 2024 11 28 12 41 33.9970000  0 23                     
G 2  19908879.099 6 104621865.889 6     -1421.564          41.000  
G 3  21682944.736 7 113944611.648 7      3262.668          42.000  
G 7  22358949.140 5 117496914.790 5     -3027.179          32.000  
G 8  22121479.789 6 116249079.917 6     -2416.560          39.000  
G14  20073497.804 7 105486940.342 7      2173.615          42.000  
G17  21727197.650 5 114177199.449 5      1954.590          35.000  
G19  24352109.363 3               3      2791.282          19.000  
G21  20730162.743 7 108937745.292 7     -2696.886          44.000  
G22  22053573.819 5 115892341.549 5      2771.237          33.000  
G30  21585851.306 4 113434462.895 4     -1904.032          29.000  
R 2  23008173.711 4               4       788.047          24.000  
R 9  19102196.697 6 102004606.485 6      2048.662          39.000  
R15  22784743.615 7 121754641.181 7     -4394.189          42.000  
R16  18863972.584 7 100767875.485 7     -2384.052          47.000  
R17  23431617.279 2               2     -3424.334          15.000  
R18  19719113.587 6 105261877.090 6     -2542.052          39.000  
R19  18725929.755 4 100171132.649 4       -77.100          29.000  
E11  24438292.208 4 128424116.104 4     -2291.317          28.000  
E25  23746475.551 7 124788608.172 7     -1870.328          42.000  
E30  25812029.957 4 135643101.510 4      2574.607          29.000  
J 2  37056562.553 6 194733541.728 6       744.701          40.000  
J 3  37314755.853 7 196090364.755 7      -554.447          43.000  
J 4  36641323.803 6 192551457.557 6       299.633          37.000  
> 2024 11 28 12 41 34.1970000  0 23                     
G 2  19908933.159 7 104622150.227 7     -1421.722          43.000  
G 3  21682820.665 6 113943959.122 6      3262.345          41.000  
G 7  22359063.439 5 117497520.193 5     -3027.343          32.000  
G 8  22121571.681 6 116249563.185 6     -2416.453          39.000  
G14  20073415.143 7 105486505.706 7      2172.888          42.000  
G17  21727123.330 6 114176808.471 6      1954.701          39.000  
G19  24352002.655 3               3      2791.282          19.000  
G21  20730265.420 7 108938284.669 7     -2697.021          44.000  
G22  22053467.390 5 115891787.065 5      2772.207          33.000  
G30  21585926.167 4 113434843.774 4     -1905.275          28.000  
R 2  23008145.111 4               4       786.005          24.000  
R 9  19102119.969 6 102004196.842 6      2047.615          39.000  
R15  22784908.013 6 121755519.992 6     -4393.841          41.000  
R16  18864061.894 7 100768352.366 7     -2384.701          47.000  
R17  23431745.119 2               2     -3424.334          15.000  
R18  19719208.988 6 105262385.568 6     -2543.122          38.000  
R19  18725933.315 5 100171147.967 5       -76.211          30.000  
E11  24438383.194 4 128424574.407 4     -2291.551          29.000  
E25  23746546.609 7 124788982.272 7     -1870.524          42.000  
E30  25811927.315 4 135642586.601 4      2574.452          29.000  
J 2  37056534.371 6 194733392.806 6       744.496          40.000  
J 3  37314776.915 7 196090475.636 7      -554.739          44.000  
J 4  36641312.390 6 192551397.578 6       300.264          36.000  
> 2024 11 28 12 41 34.3970000  0 23                     
G 2  19908987.308 7 104622434.568 7     -1421.790          44.000  
G 3  21682696.541 6 113943306.593 6      3262.267          41.000  
G 7  22359179.221 5 117498125.676 5     -3027.228          32.000  
G 8  22121663.627 6 116250046.410 6     -2416.119          37.000  
G14  20073332.464 6 105486071.057 6      2173.401          40.000  
G17  21727049.010 6 114176417.557 6      1954.521          39.000  
G19  24351896.959 3               3      2791.013          19.000  
G21  20730367.922 7 108938824.035 7     -2696.952          45.000  
G22  22053362.375 5 115891232.630 5      2772.277          34.000  
G30  21585997.800 4 113435224.557 4     -1903.635          28.000  
R 2  23008115.759 4               4       785.914          24.000  
R 9  19102043.258 6 102003787.197 6      2048.223          37.000  
R15  22785072.447 7 121756398.749 7     -4394.116          42.000  
R16  18864151.065 7 100768829.248 7     -2384.625          47.000  
R17  23431873.902 2               2     -3424.334          15.000  
R18  19719304.144 6 105262894.017 6     -2542.440          38.000  
R19  18725937.293 4 100171163.330 4       -76.538          29.000  
E11  24438471.527 4 128425032.759 4     -2292.330          29.000  
E25  23746617.736 7 124789356.347 7     -1870.308          43.000  
E30  25811831.653 5 135642071.924 5      2573.133          30.000  
J 2  37056506.084 6 194733243.884 6       744.343          40.000  
J 3  37314798.047 7 196090586.504 7      -554.403          44.000  
J 4  36641301.030 6 192551337.639 6       299.792          36.000  
> 2024 11 28 12 41 34.5970000  0 23                     
G 2  19909041.508 7 104622718.922 7     -1421.686          44.000  
G 3  21682572.453 6 113942654.085 6      3262.616          41.000  
G 7  22359294.410 5 117498731.115 5     -3026.694          32.000  
G 8  22121755.572 6 116250529.669 6     -2416.410          37.000  
G14  20073249.784 6 105485636.446 6      2173.309          40.000  
G17  21726974.741 6 114176026.661 6      1954.543          40.000  
G19  24351789.413 3               3      2791.013          18.000  
G21  20730470.530 7 108939363.416 7     -2696.785          45.000  
G22  22053254.253 5 115890678.238 5      2772.261          34.000  
G30  21586071.649 4 113435605.478 4     -1904.609          28.000  
R 2  23008086.460 4               4       785.530          24.000  
R 9  19101966.634 6 102003377.620 6      2047.749          37.000  
R15  22785236.845 7 121757277.559 7     -4393.902          42.000  
R16  18864240.270 7 100769306.175 7     -2384.494          47.000  
R17  23432001.865 2               2     -3424.334          15.000  
R18  19719399.300 6 105263402.527 6     -2542.479          38.000  
R19  18725939.440 4 100171178.736 4       -77.178          29.000  
E11  24438555.497 5 128425491.133 5     -2291.287          30.000  
E25  23746688.863 7 124789730.492 7     -1870.683          43.000  
E30  25811729.185 5 135641557.125 5      2573.532          30.000  
J 2  37056477.728 6 194733094.975 6       744.486          40.000  
J 3  37314819.336 7 196090697.385 7      -554.377          44.000  
J 4  36641289.548 6 192551277.662 6       300.274          36.000  
> 2024 11 28 12 41 34.7970000  0 23                     
G 2  19909095.551 7 104623003.308 7     -1421.924          44.000  
G 3  21682448.364 6 113942001.580 6      3262.443          41.000  
G 7  22359410.192 4               4     -3026.558          27.000  
G 8  22121847.343 6 116251012.962 6     -2416.708          37.000  
G14  20073167.053 6 105485201.869 6      2172.888          40.000  
G17  21726900.438 6 114175635.769 6      1955.013          40.000  
G19  24351683.159 3               3      2791.013          18.000  
G21  20730573.172 7 108939902.826 7     -2696.872          45.000  
G22  22053150.250 5 115890123.888 5      2771.995          34.000  
G30  21586144.661 4 113435986.433 4     -1905.110          28.000  
R 2  23008058.365 4               4       784.574          24.000  
R 9  19101890.010 6 102002968.090 6      2047.465          37.000  
R15  22785401.226 7 121758156.371 7     -4394.067          42.000  
R16  18864329.563 7 100769783.156 7     -2384.989          47.000  
R17  23432131.694 2               2     -3424.334          15.000  
R18  19719494.368 5 105263911.078 5     -2543.330          35.000  
R19  18725941.673 4 100171194.167 4       -77.160          29.000  
E11  24438639.084 5 128425949.491 5     -2291.719          30.000  
E25  23746760.095 7 124790104.650 7     -1870.918          43.000  
E30  25811631.674 4 135641042.401 4      2573.300          29.000  
J 2  37056449.423 6 194732946.083 6       744.659          39.000  
J 3  37314840.381 7 196090808.268 7      -554.476          44.000  
J 4  36641278.170 6 192551217.718 6       299.039          36.000  
> 2024 11 28 12 41 34.9970000  0 23                     
G 2  19909149.629 7 104623287.652 7     -1421.771          45.000  
G 3  21682324.224 6 113941349.043 6      3262.755          41.000  
G 7  22359525.730 4               4     -3027.595          28.000  
G 8  22121939.358 6 116251496.173 6     -2416.272          37.000  
G14  20073084.321 6 105484767.267 6      2172.736          40.000  
G17  21726826.153 6 114175244.852 6      1954.624          40.000  
G19  24351575.247 3               3      2794.880          19.000  
G21  20730675.744 7 108940442.224 7     -2696.989          45.000  
G22  22053045.235 5 115889569.456 5      2771.502          34.000  
G30  21586212.612 4 113436367.330 4     -1904.432          27.000  
R 2  23008030.009 4               4       786.676          24.000  
R 9  19101813.246 6 102002558.590 6      2047.025          37.000  
R15  22785565.695 7 121759035.134 7     -4393.829          42.000  
R16  18864418.943 7 100770260.115 7     -2385.023          47.000  
R17  23432259.953 2               2     -3424.334          16.000  
R18  19719589.594 5 105264419.629 5     -2542.497          35.000  
R19  18725946.734 4 100171209.546 4       -76.895          29.000  
E11  24438725.864 5 128426407.821 5     -2292.245          30.000  
E25  23746831.414 7 124790478.770 7     -1870.665          43.000  
E30  25811535.366 4 135640527.553 4      2573.945          29.000  
J 2  37056421.154 6 194732797.166 6       744.386          39.000  
J 3  37314861.409 7 196090919.106 7      -554.188          44.000  
J 4  36641266.793 6 192551157.703 6       300.216          36.000  
> 2024 11 28 12 41 35.1970000  0 23                     
G 2  19909203.760 7 104623571.999 7     -1421.429          44.000  
G 3  21682200.100 6 113940696.536 6      3262.777          41.000  
G 7  22359638.999 4 117500705.44034     -3026.609          28.000  
G 8  22122031.390 6 116251979.453 6     -2416.762          36.000  
G14  20073001.625 6 105484332.697 6      2172.888          40.000  
G17  21726751.780 6 114174853.930 6      1954.463          40.000  
G19  24351467.265 3               3      2794.880          19.000  
G21  20730778.386 7 108940981.617 7     -2697.023          45.000  
G22  22052939.731 5 115889015.022 5      2772.286          35.000  
G30  21586284.054 4 113436748.211 4     -1904.463          27.000  
R 2  23008001.600 4               4       785.917          24.000  
R 9  19101736.500 6 102002149.058 6      2047.485          39.000  
R15  22785730.023 7 121759913.926 7     -4393.896          42.000  
R16  18864508.271 7 100770737.100 7     -2384.924          47.000  
R17  23432388.614 2               2     -3424.334          16.000  
R18  19719684.733 6 105264928.128 6     -2542.702          36.000  
R19  18725946.647 4 100171225.061 4       -78.182          29.000  
E11  24438815.418 5 128426866.129 5     -2291.704          31.000  
E25  23746902.558 7 124790852.902 7     -1870.542          43.000  
E30  25811438.273 3 135640012.853 3      2573.214          21.000  
J 2  37056392.815 6 194732648.219 6       744.698          39.000  
J 3  37314882.419 7 196091029.952 7      -554.023          44.000  
J 4  36641255.433 6 192551097.781 6       300.203          36.000  
> 2024 11 28 12 41 35.3970000  0 23                     
G 2  19909257.908 7 104623856.402 7     -1422.101          44.000  
G 3  21682076.047 7 113940044.058 7      3262.077          42.000  
G 7  22359756.474 4 117501310.77924     -3026.056          28.000  
G 8  22122123.283 6 116252462.661 6     -2416.355          36.000  
G14  20072918.946 7 105483898.135 7      2172.687          42.000  
G17  21726677.302 6 114174463.026 6      1954.330          39.000  
G19  24351360.557 3               3      2794.880          18.000  
G21  20730881.028 7 108941521.020 7     -2697.130          46.000  
G22  22052833.616 5 115888460.640 5      2772.011          35.000  
G30  21586359.072 4 113437129.147 4     -1904.449          27.000  
R 2  23007972.755 4               4       786.153          25.000  
R 9  19101659.789 6 102001739.574 6      2046.950          39.000  
R15  22785894.457 7 121760792.723 7     -4394.018          42.000  
R16  18864597.703 7 100771214.131 7     -2385.400          47.000  
R17  23432517.222 2               2     -3424.334          16.000  
R18  19719779.924 5 105265436.770 5     -2543.774          35.000  
R19  18725950.154 5 100171240.419 5       -77.091          30.000  
E11  24438902.128 5 128427324.491 5     -2292.662          30.000  
E25  23746973.825 7 124791227.043 7     -1870.904          43.000  
E30  25811341.721 3 135639498.079 3      2573.869          21.000  
J 2  37056364.458 6 194732499.277 6       744.803          39.000  
J 3  37314903.569 7 196091140.802 7      -554.424          43.000  
J 4  36641243.916 6 192551037.784 6       299.878          36.000  
> 2024 11 28 12 41 35.5970000  0 22                     
G 2  19909312.074 7 104624140.796 7     -1422.174          43.000  
G 3  21681951.853 6 113939391.536 6      3262.658          41.000  
G 7  22359869.237 4 117501916.30224     -3027.847          27.000  
G 8  22122215.315 6 116252945.900 6     -2416.018          36.000  
G14  20072836.127 7 105483463.595 7      2172.998          42.000  
G17  21726602.982 6 114174072.099 6      1954.797          39.000  
G19  24351252.103 3               3      2794.880          18.000  
G21  20730983.514 7 108942060.401 7     -2696.811          46.000  
G22  22052728.548 5 115887906.221 5      2772.353          35.000  
G30  21586434.387 4 113437510.141 4     -1904.984          27.000  
R 2  23007943.386 4               4       784.982          25.000  
R 9  19101583.165 6 102001330.097 6      2047.721          39.000  
R15  22786058.908 6 121761671.535 6     -4393.689          41.000  
R16  18864687.135 7 100771691.177 7     -2385.275          47.000  
R18  19719875.150 5 105265945.255 5     -2543.021          35.000  
R19  18725953.854 5 100171255.919 5       -77.897          30.000  
E11  24438987.530 5 128427782.796 5     -2291.342          30.000  
E25  23747045.022 7 124791601.178 7     -1870.477          42.000  
E30  25811247.088 3 135638983.336 3      2573.728          21.000  
J 2  37056336.136 6 194732350.340 6       744.913          39.000  
J 3  37314924.631 7 196091251.638 7      -554.014          44.000  
J 4  36641232.521 6 192550977.802 6       299.907          36.000  
> 2024 11 28 12 41 35.7970000  0 22                     
G 2  19909366.274 7 104624425.201 7     -1421.942          43.000  
G 3  21681827.713 6 113938739.082 6      3262.325          41.000  
G 7  22359983.711 4 117502521.78924     -3027.874          27.000  
G 8  22122307.330 6 116253429.143 6     -2415.928          37.000  
G14  20072753.448 7 105483029.048 7      2172.632          42.000  
G17  21726528.592 6 114173681.204 6      1954.552          39.000  
G19  24351144.662 3               3      2794.135          19.000  
G21  20731086.121 7 108942599.857 7     -2697.286          45.000  
G22  22052623.184 5 115887351.836 5      2772.132          35.000  
G30  21586508.202 4 113437891.145 4     -1905.150          27.000  
R 2  23007915.099 4               4       785.713          25.000  
R 9  19101506.402 6 102000920.702 6      2046.861          39.000  
R15  22786223.341 6 121762550.340 6     -4394.042          41.000  
R16  18864776.446 8 100772168.252 8     -2385.499          48.000  
R18  19719970.341 6 105266453.776 6     -2542.442          38.000  
R19  18725957.675 5 100171271.353 5       -77.415          30.000  
E11  24439073.228 5 128428241.207 5     -2292.842          30.000  
E25  23747116.289 7 124791975.355 7     -1870.968          43.000  
E30  25811151.985 3 135638468.535 3      2573.904          22.000  
J 2  37056307.797 6 194732201.402 6       744.760          39.000  
J 3  37314945.781 7 196091362.478 7      -554.244          44.000  
J 4  36641221.161 6 192550917.798 6       299.760          36.000  
> 2024 11 28 12 41 35.9970000  0 22                     
G 2  19909420.352 7 104624709.661 7     -1422.614          43.000  
G 3  21681703.607 6 113938086.664 6      3262.025          40.000  
G 7  22360100.889 4 117503127.17724     -3027.067          27.000  
G 8  22122399.398 6 116253912.433 6     -2416.299          37.000  
G14  20072670.734 7 105482594.529 7      2172.076          42.000  
G17  21726454.114 6 114173290.319 6      1954.188          39.000  
G19  24351037.710 3               3      2794.135          18.000  
G21  20731188.798 7 108943139.305 7     -2697.614          46.000  
G22  22052518.046 5 115886797.502 5      2771.453          35.000  
G30  21586581.527 4 113438272.111 4     -1905.426          27.000  
R 2  23007885.294 4               4       785.798          25.000  
R 9  19101429.743 6 102000511.329 6      2046.770          39.000  
R15  22786387.722 7 121763429.152 7     -4394.250          42.000  
R16  18864865.773 8 100772645.382 8     -2385.968          48.000  
R18  19720065.723 6 105266962.388 6     -2543.331          38.000  
R19  18725957.064 5 100171286.920 5       -77.639          30.000  
E11  24439160.409 5 128428699.506 5     -2291.538          31.000  
E25  23747187.625 7 124792349.532 7     -1871.206          43.000  
E30  25811048.976 3 135637953.785 3      2573.579          23.000  
J 2  37056279.371 6 194732052.477 6       744.357          39.000  
J 3  37314967.035 7 196091473.336 7      -554.466          44.000  
J 4  36641209.696 6 192550857.832 6       299.612          36.000  
> 2024 11 28 12 41 36.1970000  0 22                     
G 2  19909474.448 7 104624994.149 7     -1422.693          43.000  
G 3  21681579.413 6 113937434.265 6      3261.571          40.000  
G 7  22360217.369 4 117503732.68224     -3027.585          27.000  
G 8  22122491.308 6 116254395.719 6     -2416.718          37.000  
G14  20072588.002 7 105482160.045 7      2172.296          42.000  
G17  21726379.741 6 114172899.444 6      1954.323          39.000  
G19  24350930.356 3               3      2794.135          18.000  
G21  20731291.370 7 108943678.771 7     -2697.706          46.000  
G22  22052411.984 5 115886243.158 5      2771.887          35.000  
G30  21586655.569 4 113438653.197 4     -1905.126          27.000  
R 2  23007857.199 4               4       786.328          25.000  
R 9  19101353.136 6 102000101.988 6      2046.580          39.000  
R15  22786552.243 7 121764307.987 7     -4394.312          42.000  
R16  18864955.153 8 100773122.541 8     -2386.183          48.000  
R18  19720161.002 6 105267470.979 6     -2543.253          37.000  
R19  18725959.769 5 100171302.472 5       -78.266          30.000  
E11  24439252.633 5 128429157.930 5     -2291.784          31.000  
E25  23747258.839 7 124792723.744 7     -1871.232          43.000  
E30  25810952.511 4 135637439.056 4      2573.479          24.000  
J 2  37056250.892 6 194731912.56536       744.241          39.000  
J 3  37314987.993 7 196091585.20937      -554.670          44.000  
J 4  36641198.231 6 192550797.862 6       299.709          36.000  
> 2024 11 28 12 41 36.3970000  0 22                     
G 2  19909528.526 7 104625278.666 7     -1422.723          43.000  
G 3  21681455.273 6 113936781.855 6      3261.887          41.000  
G 7  22360334.076 4 117504338.30424     -3027.959          27.000  
G 8  22122583.428 6 116254879.057 6     -2417.114          37.000  
G14  20072505.358 7 105481725.611 7      2172.137          42.000  
G17  21726305.211 6 114172508.606 6      1954.400          39.000  
G19  24350823.247 3               3      2794.135          18.000  
G21  20731394.152 7 108944218.263 7     -2697.569          46.000  
G22  22052305.572 5 115885688.830 5      2771.598          34.000  
G30  21586729.784 4 113439034.260 4     -1905.750          27.000  
R 2  23007829.000 4               4       784.775          25.000  
R 9  19101276.582 6 101999692.706 6      2046.056          39.000  
R15  22786716.729 7 121765186.848 7     -4394.324          42.000  
R16  18865044.429 8 100773599.758 8     -2386.157          48.000  
R18  19720256.437 6 105267979.615 6     -2543.416          37.000  
R19  18725963.818 5 100171318.070 5       -78.440          30.000  
E11  24439336.307 5 128429616.371 5     -2292.842          31.000  
E25  23747330.054 7 124793097.998 7     -1871.367          43.000  
E30  25810850.602 4 135636924.325 4      2573.401          25.000  
J 2  37056222.588 6 194731763.67026       744.466          39.000  
J 3  37315009.195 7 196091696.09227      -554.443          44.000  
J 4  36641186.923 6 192550737.916 6       299.556          37.000  
> 2024 11 28 12 41 36.5970000  0 22                     
G 2  19909582.639 7 104625563.145 7     -1422.369          43.000  
G 3  21681331.044 6 113936129.423 6      3262.150          41.000  
G 7  22360449.527 4               4     -3029.621          26.000  
G 8  22122675.443 6 116255362.293 6     -2416.136          38.000  
G14  20072422.784 7 105481291.150 7      2172.400          42.000  
G17  21726230.908 6 114172117.739 6      1954.056          39.000  
G19  24350716.486 3               3      2795.187          18.000  
G21  20731496.690 7 108944757.728 7     -2697.218          46.000  
G22  22052201.185 5 115885134.482 5      2772.265          34.000  
G30  21586800.981 4 113439415.332 4     -1906.134          27.000  
R 2  23007800.312 4               4       784.663          25.000  
R 9  19101199.941 6 101999283.391 6      2046.512          39.000  
R15  22786881.232 7 121766065.672 7     -4393.945          42.000  
R16  18865133.809 8 100774076.964 8     -2386.158          48.000  
R18  19720351.767 6 105268488.213 6     -2543.345          37.000  
R19  18725968.965 5 100171333.694 5       -78.448          30.000  
E11  24439422.372 5 128430074.725 5     -2292.198          31.000  
E25  23747401.390 7 124793472.224 7     -1871.116          43.000  
E30  25810756.493 4 135636409.624 4      2573.405          25.000  
J 2  37056194.266 6 194731614.74226       744.622          39.000  
J 3  37315030.205 7 196091806.94227      -554.074          44.000  
J 4  36641175.493 6 192550677.925 6       300.082          37.000  
> 2024 11 28 12 41 36.7970000  0 22                     
G 2  19909636.770 7 104625847.662 7     -1422.723          43.000  
G 3  21681206.973 6 113935477.027 6      3261.998          41.000  
G 7  22360566.269 4               4     -3027.874          26.000  
G 8  22122767.266 6 116255845.598 6     -2416.098          38.000  
G14  20072340.052 7 105480856.712 7      2172.235          42.000  
G17  21726156.501 6 114171726.878 6      1954.479          39.000  
G19  24350609.709 3               3      2795.187          18.000  
G21  20731599.349 7 108945297.226 7     -2697.362          45.000  
G22  22052094.285 5 115884580.134 5      2772.312          34.000  
G30  21586874.464 4               4     -1906.954          26.000  
R 2  23007771.571 4               4       785.194          26.000  
R 9  19101123.230 6 101998874.148 6      2046.088          39.000  
R15  22787045.665 7 121766944.529 7     -4394.202          42.000  
R16  18865223.136 8 100774554.215 8     -2386.235          48.000  
R18  19720447.081 6 105268996.818 6     -2542.738          37.000  
R19  18725969.210 5 100171349.204 5       -77.680          30.000  
E11  24439509.605 5 128430533.110 5     -2291.375          32.000  
E25  23747472.430 7 124793846.476 7     -1871.197          43.000  
E30  25810655.770 4 135635894.735 4      2574.529          25.000  
J 2  37056165.892 6 194731465.82526       744.784          39.000  
J 3  37315051.337 7 196091917.82227      -554.451          44.000  
J 4  36641164.151 6 192550617.980 6       299.980          37.000  
> 2024 11 28 12 41 36.9970000  0 22                     
G 2  19909690.848 7 104626132.170 7     -1422.620          43.000  
G 3  21681082.833 6 113934824.634 6      3261.958          41.000  
G 7  22360684.023 4               4     -3029.282          25.000  
G 8  22122859.281 6 116256328.858 6     -2416.012          38.000  
G14  20072257.338 7 105480422.280 7      2172.162          42.000  
G17  21726082.215 6 114171336.037 6      1954.151          40.000  
G19  24350503.611 3               3      2795.187          18.000  
G21  20731701.869 7 108945836.717 7     -2697.290          45.000  
G22  22051988.397 5 115884025.808 5      2771.997          33.000  
G30  21586946.673 4               4     -1905.130          26.000  
R 2  23007743.075 4               4       785.794          26.000  
R 9  19101046.641 6 101998464.906 6      2046.028          39.000  
R15  22787210.029 7 121767823.390 7     -4394.519          42.000  
R16  18865312.604 8 100775031.483 8     -2386.322          48.000  
R18  19720542.376 6 105269505.422 6     -2542.858          37.000  
R19  18725974.392 5 100171364.919 5       -78.649          30.000  
E11  24439595.338 5 128430991.524 5     -2291.577          31.000  
E25  23747543.592 7 124794220.724 7     -1871.276          42.000  
E30  25810554.192 4 135635380.186 4      2572.656          25.000  
J 2  37056137.553 6 194731316.90826       744.774          39.000  
J 3  37315072.330 7 196092028.66627      -554.156          44.000  
J 4  36641152.826 6 192550558.005 6       299.840          37.000  
> 2024 11 28 12 41 37.1970000  0 22                     
G 2  19909744.926 7 104626416.702 7     -1422.546          43.000  
G 3  21680958.674 6 113934172.241 6      3261.730          41.000  
G 7  22360801.445 4               4     -3025.971          25.000  
G 8  22122951.278 6 116256812.168 6     -2416.860          38.000  
G14  20072174.694 7 105479987.866 7      2171.979          42.000  
G17  21726007.930 6 114170945.146 6      1954.229          40.000  
G19  24350396.746 3               3      2793.097          18.000  
G21  20731804.442 7 108946376.226 7     -2697.739          45.000  
G22  22051882.230 5 115883471.456 5      2771.728          33.000  
G30  21587019.092 4               4     -1903.985          26.000  
R 2  23007714.038 4               4       785.119          26.000  
R 9  19100969.982 6 101998055.693 6      2045.844          39.000  
R15  22787374.532 7 121768702.205 7     -4394.256          42.000  
R16  18865402.158 8 100775508.783 8     -2386.559          48.000  
R18  19720637.654 5 105270014.030 5     -2542.925          34.000  
R19  18725978.162 5 100171380.473 5       -77.922          30.000  
E11  24439688.243 5 128431449.874 5     -2291.616          31.000  
E25  23747614.806 7 124794594.966 7     -1871.317          42.000  
E30  25810454.046 4               4      2576.655          25.000  
J 2  37056109.231 6 194731167.97826       744.636          39.000  
J 3  37315093.287 7 196092139.51627      -554.156          43.000  
J 4  36641141.326 6 192550498.000 6       299.993          37.000  
> 2024 11 28 12 41 37.3970000  0 22                     
G 2  19909798.952 7 104626701.221 7     -1422.754          43.000  
G 3  21680834.621 6 113933519.806 6      3262.352          41.000  
G 7  22360916.076 4               4     -3027.304          25.000  
G 8  22123043.206 6 116257295.392 6     -2416.475          38.000  
G14  20072091.980 7 105479553.418 7      2172.021          42.000  
G17  21725933.469 6 114170554.245 6      1954.682          40.000  
G19  24350290.945 3               3      2791.798          19.000  
G21  20731907.014 7 108946915.688 7     -2697.449          45.000  
G22  22051777.634 5 115882917.107 5      2771.263          33.000  
G30  21587091.737 4               4     -1904.607          26.000  
R 2  23007685.123 4               4       785.120          26.000  
R 9  19100893.288 6 101997646.464 6      2046.060          39.000  
R15  22787538.948 7 121769581.030 7     -4394.159          42.000  
R16  18865491.625 8 100775986.066 8     -2386.549          48.000  
R18  19720733.055 5 105270522.575 5     -2542.756          34.000  
R19  18725984.095 4 100171396.115 4       -78.325          29.000  
E11  24439770.538 5 128431908.307 5     -2291.911          31.000  
E25  23747686.143 7 124794969.177 7     -1870.956          42.000  
E30  25810358.017 4               4      2571.509          25.000  
J 2  37056080.840 6 194731019.02026       744.980          39.000  
J 3  37315114.385 7 196092250.32827      -554.053          44.000  
J 4  36641129.879 6 192550438.016 6       300.193          37.000  
> 2024 11 28 12 41 37.5970000  0 22                     
G 2  19909853.100 7 104626985.749 7     -1422.870          43.000  
G 3  21680710.515 6 113932867.395 6      3262.232          41.000  
G 7  22361029.624 4               4     -3027.814          26.000  
G 8  22123135.238 6 116257778.623 6     -2415.960          37.000  
G14  20072009.283 7 105479118.990 7      2172.302          42.000  
G17  21725858.940 6 114170163.357 6      1954.692          40.000  
G19  24350183.609 3               3      2790.511          19.000  
G21  20732009.656 7 108947455.155 7     -2697.336          45.000  
G22  22051671.257 5 115882362.712 5      2772.477          33.000  
G30  21587164.330 4               4     -1905.707          26.000  
R 2  23007655.929 4               4       785.352          26.000  
R 9  19100816.682 6 101997237.282 6      2046.040          39.000  
R15  22787703.346 7 121770459.858 7     -4394.092          42.000  
R16  18865581.023 8 100776463.378 8     -2386.549          48.000  
R18  19720828.455 5 105271031.157 5     -2542.708          33.000  
R19  18725986.328 4 100171411.682 4       -77.772          29.000  
E11  24439857.842 5 128432366.682 5     -2292.449          31.000  
E25  23747757.357 7 124795343.421 7     -1871.314          42.000  
E30  25810262.599 4               4      2575.610          24.000  
J 2  37056052.448 6 194730870.04626       744.880          39.000  
J 3  37315135.360 7 196092361.16027      -554.219          44.000  
J 4  36641118.379 6 192550378.031 6       299.805          37.000  
> 2024 11 28 12 41 37.7970000  0 22                     
G 2  19909907.318 7 104627270.286 7     -1422.821          43.000  
G 3  21680586.461 6 113932214.984 6      3261.785          41.000  
G 7  22361147.588 4               4     -3027.757          26.000  
G 8  22123227.341 6 116258261.899 6     -2416.721          37.000  
G14  20071926.639 7 105478684.608 7      2171.631          42.000  
G17  21725784.514 6 114169772.469 6      1954.432          40.000  
G19  24350076.360 3               3      2786.938          19.000  
G21  20732112.246 7 108947994.665 7     -2697.693          45.000  
G22  22051566.224 5 115881808.383 5      2772.117          33.000  
G30  21587237.568 4               4     -1905.429          26.000  
R 2  23007626.612 4               4       783.939          26.000  
R 9  19100740.128 6 101996828.120 6      2045.651          39.000  
R15  22787867.867 7 121771338.676 7     -4394.153          42.000  
R16  18865670.455 8 100776940.736 8     -2386.991          48.000  
R18  19720923.698 5 105271539.767 5     -2543.912          34.000  
R19  18725989.400 4 100171427.398 4       -78.795          29.000  
E11  24439949.647 5 128432825.000 5     -2291.445          31.000  
E25  23747828.694 7 124795717.676 7     -1871.324          42.000  
E30  25810168.996 4               4      2572.330          24.000  
J 2  37056024.144 6 194730721.09026       744.812          39.000  
J 3  37315156.405 7 196092471.96927      -554.203          44.000  
J 4  36641106.862 6 192550318.014 6       300.122          37.000  
> 2024 11 28 12 41 37.9970000  0 22                     
G 2  19909961.675 7 104627554.860 7     -1422.986          43.000  
G 3  21680462.250 6 113931562.596 6      3261.817          41.000  
G 7  22361262.184 4               4     -3026.139          26.000  
G 8  22123319.338 6 116258745.151 6     -2416.611          37.000  
G14  20071843.943 7 105478250.209 7      2171.857          42.000  
G17  21725710.107 6 114169381.581 6      1954.200          40.000  
G19  24349969.129 3               3      2789.432          19.000  
G21  20732214.993 7 108948534.161 7     -2697.682          45.000  
G22  22051461.121 5 115881254.017 5      2771.350          33.000  
G30  21587309.725 4               4     -1906.345          26.000  
R 2  23007597.034 4               4       784.264          26.000  
R 9  19100663.504 6 101996418.992 6      2045.424          38.000  
R15  22788032.335 6 121772217.516 6     -4394.287          41.000  
R16  18865759.870 8 100777418.116 8     -2387.228          48.000  
R18  19721018.924 5 105272048.345 5     -2543.594          34.000  
R19  18725994.338 4 100171443.086 4       -78.563          29.000  
E11  24440034.770 5 128433283.392 5     -2292.100          31.000  
E25  23747899.821 7 124796091.939 7     -1871.350          42.000  
E30  25810070.368 3               3      2576.878          23.000  
J 2  37055995.787 6 194730572.12326       744.806          39.000  
J 3  37315177.485 7 196092582.78427      -554.146          44.000  
J 4  36641095.467 6 192550258.007 6       300.073          37.000  
> 2024 11 28 12 41 38.1970000  0 22                     
G 2  19910015.823 7 104627839.420 7     -1422.925          43.000  
G 3  21680337.918 7 113930910.207 7      3262.099          42.000  
G 7  22361383.026 4               4     -3027.817          26.000  
G 8  22123411.475 6 116259228.393 6     -2416.082          37.000  
G14  20071761.211 7 105477815.827 7      2171.844          42.000  
G17  21725635.751 6 114168990.687 6      1954.427          40.000  
G19  24349862.490 3               3      2789.432          19.000  
G21  20732317.495 7 108949073.656 7     -2697.550          45.000  
G22  22051355.303 5 115880699.666 5      2771.750          33.000  
G30  21587382.859 4               4     -1906.458          26.000  
R 2  23007568.904 4               4       784.216          26.000  
R 9  19100586.758 6 101996009.880 6      2045.566          38.000  
R15  22788196.786 6 121773096.340 6     -4394.299          41.000  
R16  18865849.215 8 100777895.502 8     -2387.031          48.000  
R18  19721114.220 5 105272556.990 5     -2543.362          35.000  
R19  18725998.805 4 100171458.735 4       -78.232          29.000  
E11  24440124.272 5 128433741.734 5     -2291.145          31.000  
E25  23747970.773 7 124796466.200 7     -1871.152          42.000  
E30  25809972.105 3               3      2576.878          23.000  
J 2  37055967.344 6 194730423.16826       744.582          39.000  
J 3  37315198.512 7 196092693.59327      -554.023          44.000  
J 4  36641084.002 6 192550197.947 6       300.671          37.000  
> 2024 11 28 12 41 38.3970000  0 22                     
G 2  19910069.919 7 104628123.980 7     -1422.626          43.000  
G 3  21680213.777 7 113930257.822 7      3262.210          42.000  
G 7  22361500.868 4               4     -3027.165          26.000  
G 8  22123503.455 6 116259711.674 6     -2415.767          37.000  
G14  20071678.532 7 105477381.449 7      2171.985          42.000  
G17  21725561.413 6 114168599.814 6      1954.243          40.000  
G19  24349756.707 3               3      2791.358          19.000  
G21  20732420.138 7 108949613.149 7     -2697.142          45.000  
G22  22051249.433 5 115880145.291 5      2771.792          33.000  
G30  21587455.190 4               4     -1905.161          26.000  
R 2  23007539.780 4               4       784.027          26.000  
R 9  19100510.151 6 101995600.792 6      2045.861          38.000  
R15  22788361.202 6 121773975.147 6     -4393.567          41.000  
R16  18865938.787 8 100778372.920 8     -2386.960          48.000  
R18  19721209.585 5 105273065.608 5     -2542.702          35.000  
R19  18726004.197 4 100171474.435 4       -78.567          29.000  
E11  24440210.563 5 128434200.164 5     -2291.535          32.000  
E25  23748041.970 7 124796840.471 7     -1871.029          43.000  
E30  25809876.356 3               3      2576.878          22.000  
J 2  37055938.987 6 194730274.17626       745.159          39.000  
J 3  37315219.644 7 196092804.38827      -553.712          44.000  
J 4  36641072.520 6 192550137.925 6       300.631          37.000  
> 2024 11 28 12 41 38.5970000  0 22                     
G 2  19910124.015 7 104628408.565 7     -1422.986          43.000  
G 3  21680089.636 7 113929605.427 7      3262.018          42.000  
G 7  22361613.631 4               4     -3027.623          26.000  
G 8  22123595.505 6 116260194.893 6     -2415.856          37.000  
G14  20071596.027 7 105476947.077 7      2171.814          42.000  
G17  21725487.058 6 114168208.891 6      1954.907          40.000  
G19  24349649.772 3               3      2791.358          19.000  
G21  20732522.728 7 108950152.643 7     -2697.336          45.000  
G22  22051144.435 5 115879590.962 5      2772.139          33.000  
G30  21587528.184 4               4     -1906.661          25.000  
R 2  23007510.935 4               4       784.155          26.000  
R 9  19100433.440 6 101995191.740 6      2045.303          38.000  
R15  22788525.688 6 121774853.941 6     -4393.835          41.000  
R16  18866028.150 8 100778850.348 8     -2387.212          48.000  
R18  19721305.003 5 105273574.185 5     -2542.889          35.000  
R19  18726006.798 4 100171490.147 4       -78.535          29.000  
E11  24440297.465 5 128434658.564 5     -2291.922          32.000  
E25  23748113.464 7 124797214.732 7     -1871.198          43.000  
E30  25809776.942 3               3      2577.917          22.000  
J 2  37055910.613 6 194730125.17826       745.234          39.000  
J 3  37315240.881 7 196092915.16527      -553.864          44.000  
J 4  36641061.072 6 192550077.875 6       300.301          37.000  
> 2024 11 28 12 41 38.7970000  0 22                     
G 2  19910178.128 7 104628693.169 7     -1423.083          43.000  
G 3  21679965.513 7 113928953.078 7      3261.619          42.000  
G 7  22361728.261 4               4     -3027.081          26.000  
G 8  22123687.381 6 116260678.177 6     -2416.557          37.000  
G14  20071513.366 7 105476512.731 7      2171.600          42.000  
G17  21725412.772 6 114167818.020 6      1954.040          40.000  
G19  24349543.116 3               3      2790.200          19.000  
G21  20732625.370 7 108950692.160 7     -2697.507          45.000  
G22  22051039.193 5 115879036.569 5      2772.169          33.000  
G30  21587600.690 4               4     -1904.934          25.000  
R 2  23007482.316 4               4       783.941          26.000  
R 9  19100356.781 6 101994782.706 6      2045.350          38.000  
R15  22788689.999 6 121775732.759 6     -4394.098          41.000  
R16  18866117.582 8 100779327.815 8     -2387.400          48.000  
R18  19721400.386 5 105274082.788 5     -2542.684          35.000  
R19  18726005.244 4 100171505.900 4       -78.929          29.000  
E11  24440381.575 5 128435116.987 5     -2292.566          32.000  
E25  23748184.713 7 124797589.026 7     -1871.499          43.000  
E30  25809680.390 3               3      2577.917          21.000  
J 2  37055882.256 6 194729976.19626       744.936          39.000  
J 3  37315261.961 7 196093025.95227      -553.975          44.000  
J 4  36641049.695 6 192550017.820 6       299.927          37.000  
> 2024 11 28 12 41 38.9970000  0 22                     
G 2  19910232.398 7 104628977.785 7     -1423.016          43.000  
G 3  21679841.389 7 113928300.735 7      3261.776          42.000  
G 7  22361843.084 4               4     -3027.168          26.000  
G 8  22123779.500 6 116261161.437 6     -2416.461          38.000  
G14  20071430.704 7 105476078.410 7      2171.729          42.000  
G17  21725338.469 6 114167427.142 6      1954.437          40.000  
G19  24349435.710 3               3      2790.200          19.000  
G21  20732728.082 7 108951231.710 7     -2697.704          44.000  
G22  22050934.073 5 115878482.264 5      2771.745          34.000  
G30  21587674.487 4               4     -1906.894          25.000  
R 2  23007453.052 4               4       784.039          26.000  
R 9  19100280.192 6 101994373.703 6      2045.032          38.000  
R15  22788854.450 6 121776611.563 6     -4393.695          41.000  
R16  18866207.015 8 100779805.330 8     -2387.585          48.000  
R18  19721495.716 5 105274591.406 5     -2542.411          35.000  
R19  18726009.083 4 100171521.630 4       -78.768          29.000  
E11  24440471.043 5 128435575.397 5     -2292.059          32.000  
E25  23748255.980 7 124797963.318 7     -1871.569          43.000  
E30  25809581.221 3               3      2577.917          20.000  
J 2  37055853.952 6 194729827.20426       744.880          40.000  
J 3  37315283.006 7 196093136.74527      -553.905          44.000  
J 4  36641038.317 6 192549957.775 6       300.177          37.000  
> 2024 11 28 12 41 39.1970000  0 22                     
G 2  19910286.563 7 104629262.413 7     -1423.151          43.000  
G 3  21679717.196 7 113927648.401 7      3261.666          42.000  
G 7  22361957.313 4               4     -3028.140          26.000  
G 8  22123871.568 6 116261644.687 6     -2416.288          38.000  
G14  20071348.129 7 105475644.090 7      2171.436          42.000  
G17  21725264.201 6 114167036.262 6      1954.465          39.000  
G19  24349328.740 3               3      2790.200          18.000  
G21  20732830.671 7 108951771.248 7     -2697.759          44.000  
G22  22050828.551 5 115877927.955 5      2771.266          34.000  
G30  21587747.778 4               4     -1906.834          25.000  
R 2  23007423.404 4               4       785.039          26.000  
R 9  19100203.690 6 101993964.763 6      2044.580          38.000  
R15  22789019.040 6 121777490.386 6     -4394.080          41.000  
R16  18866296.360 8 100780282.845 8     -2387.805          48.000  
R18  19721590.873 5 105275100.051 5     -2543.415          35.000  
R19  18726010.061 4 100171537.438 4       -79.156          29.000  
E11  24440558.555 5 128436033.784 5     -2292.492          32.000  
E25  23748327.089 7 124798337.627 7     -1871.625          43.000  
E30  25809484.459 3               3      2577.917          20.000  
J 2  37055825.665 6 194729678.21026       744.777          40.000  
J 3  37315304.034 7 196093247.53127      -554.000          44.000  
J 4  36641026.870 6 192549897.731 6       300.585          37.000  
> 2024 11 28 12 41 39.3970000  0 22                     
G 2  19910340.799 7 104629547.064 7     -1423.224          43.000  
G 3  21679593.107 7 113926996.068 7      3261.569          42.000  
G 7  22362073.235 4               4     -3027.673          26.000  
G 8  22123963.356 6 116262127.953 6     -2416.061          38.000  
G14  20071265.468 7 105475209.784 7      2171.436          42.000  
G17  21725189.671 6 114166645.372 6      1954.563          39.000  
G19  24349222.573 3               3      2790.200          18.000  
G21  20732933.331 7 108952310.793 7     -2697.768          44.000  
G22  22050723.099 5 115877373.604 5      2771.838          34.000  
G30  21587820.720 4               4     -1907.994          24.000  
R 2  23007395.589 4               4       783.032          26.000  
R 9  19100127.189 6 101993555.825 6      2044.701          38.000  
R15  22789183.613 6 121778369.206 6     -4394.183          41.000  
R16  18866385.635 8 100780760.405 8     -2387.877          48.000  
R18  19721686.011 5 105275608.694 5     -2542.942          35.000  
R19  18726011.701 4 100171553.189 4       -78.633          29.000  
E11  24440642.997 5 128436492.192 5     -2292.179          32.000  
E25  23748398.374 7 124798711.945 7     -1871.595          43.000  
E30  25809385.778 3               3      2577.917          19.000  
J 2  37055797.291 6 194729529.23526       744.784          40.000  
J 3  37315324.922 7 196093358.31827      -553.963          44.000  
J 4  36641015.353 6 192549837.692 6       299.943          37.000  
> 2024 11 28 12 41 39.5970000  0 22                     
G 2  19910395.017 7 104629831.720 7     -1423.431          43.000  
G 3  21679468.932 7 113926343.731 7      3261.526          42.000  
G 7  22362187.289 4 117514089.22134     -3027.758          26.000  
G 8  22124055.336 6 116262611.225 6     -2416.555          38.000  
G14  20071182.824 7 105474775.490 7      2171.722          42.000  
G17  21725115.368 6 114166254.490 6      1954.541          39.000  
G19  24349115.412 3               3      2790.200          18.000  
G21  20733035.869 7 108952850.335 7     -2697.703          44.000  
G22  22050617.560 5 115876819.313 5      2771.336          34.000  
G30  21587894.377 4               4     -1905.928          24.000  
R 2  23007366.970 4               4       783.432          26.000  
R 9  19100050.600 6 101993146.932 6      2043.971          38.000  
R15  22789348.029 7 121779248.012 7     -4394.031          42.000  
R16  18866475.120 8 100781237.983 8     -2387.922          48.000  
R18  19721781.394 5 105276117.326 5     -2543.287          34.000  
R19  18726013.080 4 100171568.991 4       -78.768          29.000  
E11  24440729.533 5 128436950.593 5     -2291.917          32.000  
E25  23748469.553 7 124799086.283 7     -1871.760          43.000  
E30  25809287.970 3               3      2577.917          18.000  
J 2  37055768.969 6 194729380.23426       744.752          40.000  
J 3  37315345.949 7 196093469.09527      -553.769          44.000  
J 4  36641003.940 6 192549777.617 6       300.146          37.000  
> 2024 11 28 12 41 39.7970000  0 22                     
G 2  19910449.269 7 104630116.357 7     -1423.114          43.000  
G 3  21679344.686 7 113925691.381 7      3261.639          42.000  
G 7  22362302.059 4 117514694.68824     -3027.299          27.000  
G 8  22124147.316 6 116263094.448 6     -2416.486          38.000  
G14  20071100.022 7 105474341.201 7      2171.503          42.000  
G17  21725040.891 6 114165863.594 6      1954.764          39.000  
G19  24349008.477 3               3      2790.200          18.000  
G21  20733138.528 7 108953389.851 7     -2697.490          45.000  
G22  22050512.091 5 115876264.965 5      2771.296          34.000  
G30  21587967.162 4               4     -1903.708          24.000  
R 2  23007337.776 4               4       783.112          27.000  
R 9  19099973.958 6 101992738.008 6      2044.363          38.000  
R15  22789512.498 7 121780126.816 7     -4394.049          42.000  
R16  18866564.570 8 100781715.568 8     -2387.955          48.000  
R18  19721876.637 5 105276625.961 5     -2543.233          34.000  
R19  18726016.657 4 100171584.859 4       -79.286          29.000  
E11  24440820.082 5 128437408.991 5     -2291.606          33.000  
E25  23748540.942 7 124799460.585 7     -1871.548          43.000  
E30  25809189.446 3               3      2577.917          18.000  
J 2  37055740.595 6 194729231.21826       744.928          40.000  
J 3  37315366.977 7 196093579.85627      -553.653          44.000  
J 4  36640992.545 6 192549717.536 6       300.250          37.000  
> 2024 11 28 12 41 39.9970000  0 22                     
G 2  19910503.435 7 104630401.032 7     -1423.199          43.000  
G 3  21679220.633 7 113925039.061 7      3261.696          42.000  
G 7  22362413.479 4 117515300.19924     -3027.354          27.000  
G 8  22124239.436 6 116263577.686 6     -2416.017          37.000  
G14  20071017.553 7 105473906.938 7      2171.344          42.000  
G17  21724966.448 6 114165472.724 6      1954.409          39.000  
G19  24348902.519 2               2      2790.200          17.000  
G21  20733241.170 7 108953929.411 7     -2697.522          45.000  
G22  22050406.762 5 115875710.619 5      2771.883          34.000  
G30  21588039.650 4               4     -1902.671          24.000  
R 2  23007309.228 4               4       782.965          27.000  
R 9  19099897.491 6 101992329.151 6      2044.204          37.000  
R15  22789677.036 7 121781005.624 7     -4393.951          42.000  
R16  18866654.089 8 100782193.199 8     -2388.114          48.000  
R18  19721972.003 5 105277134.621 5     -2542.896          34.000  
R19  18726020.269 4 100171600.657 4       -79.082          29.000  
E11  24440912.498 5 128437867.416 5     -2292.692          33.000  
E25  23748612.174 7 124799834.923 7     -1871.673          43.000  
E30  25809089.055 2               2      2577.917          16.000  
J 2  37055712.256 6 194729082.20226       745.397          40.000  
J 3  37315388.004 7 196093690.62827      -553.719          44.000  
J 4  36640981.150 6 192549657.450 6       300.283          36.000  
> 2024 11 28 12 41 40.1970000  0 22                     
G 2  19910557.513 7 104630685.732 7     -1423.438          43.000  
G 3  21679096.562 7 113924386.743 7      3261.627          42.000  
G 7  22362528.668 4 117515905.71124     -3027.626          27.000  
G 8  22124331.364 6 116264060.945 6     -2416.398          37.000  
G14  20070934.996 7 105473472.677 7      2171.399          43.000  
G17  21724892.023 6 114165081.838 6      1954.128          39.000  
G19  24348796.404 2               2      2790.200          17.000  
G21  20733343.882 7 108954468.977 7     -2697.666          45.000  
G22  22050301.363 5 115875156.318 5      2771.122          34.000  
G30  21588112.784 4               4     -1906.425          24.000  
R 2  23007281.080 4 122771174.28834       783.075          27.000  
R 9  19099820.885 6 101991920.326 6      2044.082          38.000  
R15  22789841.469 7 121781884.448 7     -4394.031          42.000  
R16  18866743.452 8 100782670.865 8     -2388.413          48.000  
R18  19722067.194 5 105277643.277 5     -2543.949          30.000  
R19  18726023.323 4 100171616.556 4       -79.489          29.000  
E11  24441002.803 5 128438325.810 5     -2292.362          33.000  
E25  23748683.510 7 124800209.279 7     -1871.636          42.000  
E30  25808990.583 2               2      2577.917          15.000  
J 2  37055683.952 6 194728933.20426       745.252          40.000  
J 3  37315409.101 7 196093801.40027      -553.795          44.000  
J 4  36640969.703 6 192549597.411 6       300.239          36.000  
> 2024 11 28 12 41 40.3970000  0 22                     
G 2  19910611.696 7 104630970.455 7     -1423.651          43.000  
G 3  21678972.508 7 113923734.455 7      3261.465          42.000  
G 7  22362642.199 4 117516511.29024     -3028.031          28.000  
G 8  22124423.379 6 116264544.218 6     -2416.149          37.000  
G14  20070852.369 7 105473038.459 7      2170.874          43.000  
G17  21724817.580 6 114164690.985 6      1954.598          39.000  
G19  24348689.417 2               2      2790.200          17.000  
G21  20733446.577 7 108955008.561 7     -2697.837          45.000  
G22  22050195.806 5 115874602.083 5      2770.623          34.000  
G30  21588185.098 4               4     -1908.311          24.000  
R 2  23007251.869 4 122771017.68924       782.886          27.000  
R 9  19099744.313 6 101991511.513 6      2044.098          38.000  
R15  22790005.920 7 121782763.297 7     -4394.171          42.000  
R16  18866833.024 8 100783148.567 8     -2388.678          49.000  
R18  19722162.716 5 105278151.952 5     -2542.977          30.000  
R19  18726023.567 4 100171632.410 4       -79.505          29.000  
E11  24441089.147 5 128438784.259 5     -2292.151          33.000  
E25  23748754.899 7 124800583.654 7     -1871.913          42.000  
E30  25808892.408 2               2      2577.917          15.000  
J 2  37055655.595 6 194728784.22726       744.750          40.000  
J 3  37315430.216 7 196093912.19427      -553.967          44.000  
J 4  36640958.308 6 192549537.349 6       300.274          36.000  
> 2024 11 28 12 41 40.5970000  0 22                     
G 2  19910665.984 7 104631255.162 7     -1423.615          43.000  
G 3  21678848.437 7 113923082.173 7      3261.531          42.000  
G 7  22362753.130 4 117517116.80124     -3027.394          27.000  
G 8  22124515.411 6 116265027.505 6     -2416.281          37.000  
G14  20070769.742 7 105472604.237 7      2171.204          42.000  
G17  21724743.138 6 114164300.116 6      1954.785          39.000  
G19  24348583.581 2               2      2790.200          17.000  
G21  20733549.394 7 108955548.137 7     -2697.594          45.000  
G22  22050090.302 5 115874047.738 5      2771.136          34.000  
G30  21588258.615 4               4     -1908.153          24.000  
R 2  23007222.046 4 122770861.13124       782.550          27.000  
R 9  19099667.672 6 101991102.753 6      2044.143          38.000  
R15  22790170.336 6 121783642.109 6     -4393.658          41.000  
R16  18866922.404 8 100783626.282 8     -2388.546          49.000  
R18  19722258.134 5 105278660.561 5     -2542.049          31.000  
R19  18726026.324 4 100171648.380 4       -80.076          29.000  
E11  24441173.885 5 128439242.679 5     -2291.872          33.000  
E25  23748825.991 7 124800958.021 7     -1871.806          42.000  
E30  25808793.780 2               2      2577.917          15.000  
J 2  37055627.186 6 194728635.21626       745.080          40.000  
J 3  37315451.226 7 196094022.95627      -553.660          44.000  
J 4  36640946.843 6 192549477.285 6       300.297          36.000  
> 2024 11 28 12 41 40.7970000  0 22                     
G 2  19910720.219 7 104631539.910 7     -1423.303          43.000  
G 3  21678724.418 7 113922429.890 7      3261.592          42.000  
G 7  22362868.685 4 117517722.39324     -3027.801          28.000  
G 8  22124607.391 6 116265510.775 6     -2416.500          37.000  
G14  20070687.255 6 105472170.036 6      2171.307          41.000  
G17  21724668.713 6 114163909.266 6      1954.305          39.000  
G19  24348476.385 2               2      2790.200          16.000  
G21  20733652.088 7 108956087.746 7     -2697.745          45.000  
G22  22049984.833 6 115873493.452 6      2771.847          36.000  
G30  21588330.074 4               4     -1908.068          24.000  
R 2  23007193.533 4 122770704.60724       782.599          27.000  
R 9  19099591.118 6 101990693.995 6      2044.363          37.000  
R15  22790334.944 6 121784520.981 6     -4394.110          41.000  
R16  18867011.941 8 100784104.048 8     -2388.747          49.000  
R18  19722353.552 5 105279169.288 5     -2543.813          31.000  
R19  18726029.727 4 100171664.261 4       -79.801          29.000  
E11  24441259.984 5 128439701.100 5     -2291.808          33.000  
E25  23748897.205 7 124801332.401 7     -1871.800          42.000  
E30  25808694.313 2               2      2577.917          15.000  
J 2  37055598.882 6 194728486.24026       744.989          40.000  
J 3  37315472.341 7 196094133.73427      -553.626          44.000  
J 4  36640935.326 6 192549417.206 6       300.444          36.000  
> 2024 11 28 12 41 40.9970000  0 21                     
G 2  19910774.489 7 104631824.667 7     -1423.706          44.000  
G 3  21678600.295 6 113921777.629 6      3261.479          41.000  
G 7  22362982.513 4 117518327.85424     -3027.139          28.000  
G 8  22124699.301 6 116265994.049 6     -2416.480          37.000  
G14  20070604.454 6 105471735.847 6      2170.819          41.000  
G17  21724594.340 6 114163518.435 6      1954.200          39.000  
G21  20733754.713 7 108956627.345 7     -2698.180          45.000  
G22  22049879.381 6 115872939.186 6      2771.715          36.000  
G30  21588401.882 4               4     -1906.766          25.000  
R 2  23007165.752 4 122770548.05424       782.452          27.000  
R 9  19099514.599 6 101990285.302 6      2042.880          37.000  
R15  22790499.482 6 121785399.815 6     -4394.177          41.000  
R16  18867101.460 8 100784581.817 8     -2388.913          48.000  
R18  19722448.725 5 105279677.962 5     -2543.378          32.000  
R19  18726032.606 4 100171680.182 4       -79.656          29.000  
E11  24441346.398 5 128440159.553 5     -2292.443          33.000  
E25  23748968.402 7 124801706.812 7     -1872.102          42.000  
E30  25808595.650 2               2      2568.100          16.000  
J 2  37055570.508 6 194728337.21626       745.003          40.000  
J 3  37315493.403 7 196094244.50727      -553.852          44.000  
J 4  36640923.896 6 192549357.127 6       300.431          36.000  
> 2024 11 28 12 41 41.1970000  0 21                     
G 2  19910828.777 7 104632109.424 7     -1423.901          44.000  
G 3  21678476.206 6 113921125.347 6      3261.477          41.000  
G 7  22363098.854 4 117518933.34324     -3027.400          28.000  
G 8  22124791.229 6 116266477.310 6     -2416.151          37.000  
G14  20070521.914 6 105471301.648 6      2170.972          41.000  
G17  21724519.915 6 114163127.548 6      1954.317          39.000  
G21  20733857.250 7 108957166.923 7     -2697.811          45.000  
G22  22049774.017 6 115872384.881 6      2772.137          36.000  
G30  21588473.218 4               4     -1905.526          25.000  
R 2  23007136.750 4 122770391.60124       781.708          26.000  
R 9  19099438.080 6 101989876.590 6      2043.536          37.000  
R15  22790663.933 6 121786278.642 6     -4393.976          41.000  
R16  18867190.945 8 100785059.605 8     -2389.090          48.000  
R18  19722543.969 5 105280186.605 5     -2543.073          32.000  
R19  18726033.200 4 100171696.167 4       -80.099          29.000  
E11  24441435.778 5 128440618.020 5     -2293.432          32.000  
E25  23749039.460 7 124802081.188 7     -1871.828          42.000  
E30  25808496.515 2               2      2578.709          17.000  
J 2  37055542.152 6 194728188.20126       745.092          40.000  
J 3  37315514.466 7 196094355.25527      -553.674          44.000  
J 4  36640912.554 6 192549297.051 6       300.254          36.000  
> 2024 11 28 12 41 41.3970000  0 20                     
G 2  19910882.994 7 104632394.154 7     -1423.291          44.000  
G 3  21678352.100 6 113920473.068 6      3261.724          41.000  
G 7  22363213.415 4 117519538.89524     -3027.511          28.000  
G 8  22124883.209 6 116266960.562 6     -2415.884          37.000  
G14  20070439.479 6 105470867.441 6      2171.533          41.000  
G17  21724445.646 6 114162736.662 6      1954.480          40.000  
G21  20733960.015 7 108957706.499 7     -2697.543          45.000  
G22  22049668.443 5 115871830.546 5      2772.598          35.000  
G30  21588545.305 4               4     -1906.581          24.000  
R 2  23007107.957 4               4       784.231          26.000  
R 9  19099361.456 6 101989467.902 6      2043.500          37.000  
R15  22790828.366 6 121787157.439 6     -4393.683          41.000  
R16  18867280.552 8 100785537.404 8     -2388.835          48.000  
R18  19722639.177 5 105280695.290 5     -2543.161          32.000  
R19  18726036.585 4 100171712.065 4       -79.355          29.000  
E11  24441521.999 5 128441076.341 5     -2290.746          32.000  
E25  23749110.674 7 124802455.569 7     -1871.707          43.000  
J 2  37055513.935 6 194728039.15426       745.225          40.000  
J 3  37315535.633 7 196094465.98927      -553.393          44.000  
J 4  36640901.193 6 192549236.927 6       300.351          36.000  
> 2024 11 28 12 41 41.5970000  0 20                     
G 2  19910937.317 7 104632678.946 7     -1424.121          44.000  
G 3  21678227.925 6 113919820.809 6      3261.106          41.000  
G 7  22363329.755 4 117520144.38624     -3027.510          28.000  
G 8  22124975.067 6 116267443.806 6     -2416.428          37.000  
G14  20070356.905 6 105470433.296 6      2170.325          41.000  
G17  21724371.221 6 114162345.791 6      1954.193          40.000  
G21  20734062.552 7 108958246.116 7     -2698.435          45.000  
G22  22049562.991 5 115871276.302 5      2771.345          35.000  
G30  21588616.223 3               3     -1904.385          23.000  
R 2  23007079.740 4               4       780.306          26.000  
R 9  19099284.814 6 101989059.242 6      2043.202          37.000  
R15  22790992.800 6 121788036.298 6     -4394.647          41.000  
R16  18867369.984 8 100786015.261 8     -2389.646          48.000  
R18  19722734.368 5 105281204.023 5     -2544.226          32.000  
R19  18726039.848 4 100171728.045 4       -80.093          29.000  
E11  24441609.565 5 128441534.791 5     -2292.501          32.000  
E25  23749181.888 7 124802829.973 7     -1872.276          43.000  
J 2  37055485.595 6 194727890.12326       745.029          40.000  
J 3  37315556.695 7 196094576.74027      -554.154          44.000  
J 4  36640889.886 6 192549176.825 6       300.375          36.000  
> 2024 11 28 12 41 41.7970000  0 21                     
G 2  19910991.448 7 104632963.720 7     -1423.969          44.000  
G 3  21678103.644 6 113919168.538 6      3261.101          41.000  
G 7  22363444.787 4 117520750.00024     -3028.389          28.000  
G 8  22125067.117 6 116267927.059 6     -2416.438          37.000  
G14  20070274.243 6 105469999.144 6      2170.361          41.000  
G17  21724296.883 6 114161954.912 6      1954.166          40.000  
G21  20734165.107 7 108958785.704 7     -2697.907          45.000  
G22  22049457.575 5 115870722.018 5      2771.345          35.000  
G30  21588687.943 3               3     -1911.882          23.000  
R 2  23007050.877 4               4       781.038          26.000  
R 9  19099208.347 6 101988650.599 6      2042.971          37.000  
R15  22791157.320 6 121788915.115 6     -4394.165          41.000  
R16  18867459.504 8 100786493.123 8     -2389.457          48.000  
R18  19722829.663 5 105281712.711 5     -2543.939          32.000  
R19  18726043.687 4 100171744.048 4       -80.257          29.000  
E11  24441695.873 5 128441993.214 5     -2291.577          32.000  
E25  23749253.138 7 124803204.379 7     -1872.121          43.000  
E30  25808201.851 2               2      2573.000          17.000  
J 2  37055457.274 6 194727741.07926       745.073          40.000  
J 3  37315577.740 7 196094687.46727      -553.650          44.000  
J 4  36640878.421 5 192549116.743 5       300.354          35.000  
> 2024 11 28 12 41 41.9970000  0 21                     
G 2  19911045.631 7 104633248.565 7     -1424.371          44.000  
G 3  21677979.660 6 113918516.313 6      3261.150          41.000  
G 7  22363560.953 4 117521355.49824     -3027.369          28.000  
G 8  22125159.062 6 116268410.338 6     -2416.299          37.000  
G14  20070191.634 6 105469565.028 6      2170.337          41.000  
G17  21724222.476 6 114161564.096 6      1953.997          40.000  
G21  20734267.767 7 108959325.354 7     -2698.468          45.000  
G22  22049352.106 5 115870167.766 5      2771.119          35.000  
G30  21588759.925 3               3     -1915.174          23.000  
R 2  23007021.543 4               4       781.427          25.000  
R 9  19099131.846 6 101988242.072 6      2042.407          37.000  
R15  22791321.806 6 121789793.995 6     -4394.287          41.000  
R16  18867549.058 8 100786971.075 8     -2389.860          48.000  
R18  19722924.959 5 105282221.458 5     -2544.660          32.000  
R19  18726047.439 4 100171760.086 4       -80.270          29.000  
E11  24441783.630 5 128442451.743 5     -2292.758          32.000  
E25  23749324.439 7 124803578.836 7     -1872.451          43.000  
E30  25808102.053 3               3      2573.036          18.000  
J 2  37055428.812 6 194727592.09826       744.663          40.000  
J 3  37315598.890 7 196094798.24727      -553.933          44.000  
J 4  36640867.131 5 192549056.644 5       300.231          35.000  
> 2024 11 28 12 41 42.1970000  0 21                     
G 2  19911099.744 7 104633533.437 7     -1424.408          44.000  
G 3  21677855.467 6 113917864.121 6      3260.803          41.000  
G 7  22363675.322 4 117521961.18924     -3028.398          28.000  
G 8  22125250.885 6 116268893.669 6     -2416.696          37.000  
G14  20070108.955 6 105469130.960 6      2170.239          41.000  
G17  21724148.068 6 114161173.293 6      1953.608          40.000  
G21  20734370.461 7 108959865.017 7     -2698.419          44.000  
G22  22049246.497 5 115869613.555 5      2770.825          35.000  
G30  21588831.593 3               3     -1915.174          23.000  
R 2  23006991.703 4               4       780.902          25.000  
R 9  19099055.222 6 101987833.524 6      2042.496          37.000  
R15  22791486.187 6 121790672.878 6     -4394.409          41.000  
R16  18867638.718 8 100787449.044 8     -2390.077          48.000  
R18  19723020.900 5 105282730.301 5     -2544.665          31.000  
R19  18726049.830 4 100171776.166 4       -80.261          29.000  
E11  24441871.021 5 128442910.251 5     -2292.868          32.000  
E25  23749395.706 7 124803953.329 7     -1872.503          43.000  
E30  25808001.138 3               3      2574.050          19.000  
J 2  37055400.491 6 194727443.14726       744.429          39.000  
J 3  37315619.918 7 196094909.05027      -554.198          44.000  
J 4  36640855.683 5 192548996.613 5       300.359          35.000  
> 2024 11 28 12 41 42.3970000  0 21                     
G 2  19911153.857 7 104633818.266 7     -1423.920          43.000  
G 3  21677731.274 6 113917211.892 6      3260.943          41.000  
G 7  22363789.132 4 117522566.73624     -3027.765          28.000  
G 8  22125342.865 6 116269376.931 6     -2416.257          37.000  
G14  20070026.363 6 105468696.855 6      2170.575          41.000  
G17  21724073.817 6 114160782.397 6      1954.698          40.000  
G21  20734473.226 7 108960404.662 7     -2698.008          44.000  
G22  22049140.993 5 115869059.272 5      2772.103          35.000  
G30  21588902.755 3               3     -1908.670          23.000  
R 2  23006961.392 4               4       781.989          26.000  
R 9  19098978.825 6 101987425.036 6      2042.061          37.000  
R15  22791650.673 6 121791551.719 6     -4393.683          41.000  
R16  18867728.325 8 100787927.006 8     -2389.712          48.000  
R18  19723116.754 5 105283238.914 5     -2542.864          31.000  
R19  18726052.866 4 100171792.229 4       -80.300          29.000  
E11  24441959.825 5 128443368.695 5     -2292.513          32.000  
E25  23749466.972 7 124804327.764 7     -1872.052          43.000  
E30  25807903.277 3               3      2575.215          20.000  
J 2  37055372.152 6 194727294.07726       745.375          39.000  
J 3  37315640.945 7 196095019.76727      -553.560          44.000  
J 4  36640844.236 5 192548936.539 5       299.976          35.000  
> 2024 11 28 12 41 42.5970000  0 21                     
G 2  19911208.109 7 104634103.099 7     -1423.840          42.000  
G 3  21677607.273 6 113916559.683 6      3261.359          41.000  
G 7  22363903.099 4 117523172.27924     -3027.468          28.000  
G 8  22125434.741 6 116269860.262 6     -2416.609          37.000  
G14  20069943.876 6 105468262.791 6      2170.569          41.000  
G17  21723999.479 6 114160391.606 6      1953.970          40.000  
G21  20734575.903 7 108960944.312 7     -2698.344          44.000  
G22  22049035.471 5 115868505.053 5      2770.869          35.000  
G30  21588975.697 3               3     -1904.558          23.000  
R 2  23006931.640 4               4       781.604          26.000  
R 9  19098902.375 6 101987016.474 6      2042.469          37.000  
R15  22791815.194 6 121792430.590 6     -4394.049          41.000  
R16  18867817.862 8 100788405.009 8     -2389.989          48.000  
R18  19723211.108 5 105283747.715 5     -2544.155          31.000  
R19  18726054.105 4 100171808.324 4       -80.643          29.000  
E11  24442046.518 5 128443827.171 5     -2292.695          32.000  
E25  23749538.239 7 124804702.232 7     -1872.246          43.000  
E30  25807805.574 3               3      2572.115          20.000  
J 2  37055343.795 6 194727145.06726       745.167          39.000  
J 3  37315661.920 7 196095130.50927      -553.463          44.000  
J 4  36640832.806 5 192548876.424 5       300.533          35.000  
> 2024 11 28 12 41 42.7970000  0 21                     
G 2  19911262.188 7 104634388.020 7     -1425.098          42.000  
G 3  21677483.114 7 113915907.530 7      3260.516          42.000  
G 7  22364018.376 4 117523777.82124     -3027.792          28.000  
G 8  22125526.703 6 116270343.581 6     -2417.070          37.000  
G14  20069861.301 6 105467828.751 6      2169.861          41.000  
G17  21723925.211 6 114160000.779 6      1953.514          40.000  
G21  20734678.423 7 108961484.003 7     -2698.648          44.000  
G22  22048930.212 5 115867950.833 5      2770.912          34.000  
G30  21589047.994 3               3     -1903.652          23.000  
R 2  23006902.236 4               4       781.635          26.000  
R 9  19098826.031 6 101986608.039 6      2041.861          38.000  
R15  22791979.679 6 121793309.512 6     -4394.922          40.000  
R16  18867907.311 8 100788883.072 8     -2390.711          48.000  
R18  19723308.689 5 105284256.555 5     -2544.721          31.000  
R19  18726057.647 4 100171824.484 4       -81.575          29.000  
E11  24442135.497 5 128444285.651 5     -2292.874          32.000  
E25  23749609.488 7 124805076.742 7     -1873.074          43.000  
E30  25807708.236 3               3      2572.115          19.000  
J 2  37055315.421 6 194726996.08926       744.340          39.000  
J 3  37315683.018 7 196095241.30927      -554.366          44.000  
J 4  36640821.376 5 192548816.396 5       299.559          35.000  
> 2024 11 28 12 41 42.9970000  0 22                     
G 2  19911316.545 7 104634672.889 7     -1424.469          42.000  
G 3  21677359.026 7 113915255.356 7      3260.543          42.000  
G 7  22364132.500 4 117524383.46924     -3028.386          29.000  
G 8  22125618.666 6 116270826.859 6     -2416.479          37.000  
G14  20069778.727 6 105467394.708 6      2170.111          41.000  
G17  21723850.734 6 114159609.932 6      1953.869          40.000  
G19  24347305.998 2               2      2793.609          17.000  
G21  20734781.030 7 108962023.693 7     -2698.862          44.000  
G22  22048824.725 5 115867396.589 5      2770.848          34.000  
G30  21589121.407 3               3     -1905.163          23.000  
R 2  23006873.025 4               4       780.475          26.000  
R 9  19098749.529 6 101986199.622 6      2041.756          38.000  
R15  22792144.148 6 121794188.335 6     -4394.653          40.000  
R16  18867996.709 8 100789361.128 8     -2390.460          48.000  
R18  19723405.625 5 105284765.330 5     -2544.483          31.000  
R19  18726060.544 4 100171840.578 4       -80.603          29.000  
E11  24442221.369 5 128444744.142 5     -2292.558          32.000  
E25  23749680.825 7 124805451.225 7     -1872.546          43.000  
E30  25807610.341 3               3      2572.115          19.000  
J 2  37055287.186 6 194726847.05626       745.013          39.000  
J 3  37315704.115 7 196095352.04027      -553.945          44.000  
J 4  36640809.964 5 192548756.272 5       300.419          35.000  
> 2024 11 28 12 41 43.1970000  0 22                     
G 2  19911370.641 7 104634957.809 7     -1424.615          43.000  
G 3  21677234.902 7 113914603.186 7      3260.735          42.000  
G 7  22364244.565 4 117524989.02024     -3027.895          29.000  
G 8  22125710.664 6 116271310.186 6     -2416.573          37.000  
G14  20069696.187 7 105466960.710 7      2170.068          42.000  
G17  21723776.413 6 114159219.125 6      1954.145          40.000  
G19  24347200.198 3               3      2793.609          18.000  
G21  20734883.550 7 108962563.375 7     -2698.268          44.000  
G22  22048719.326 5 115866842.360 5      2770.963          34.000  
G30  21589194.069 3               3     -1904.866          23.000  
R 2  23006843.638 4               4       781.006          26.000  
R 9  19098672.957 6 101985791.231 6      2041.751          38.000  
R15  22792308.598 6 121795067.249 6     -4394.434          40.000  
R16  18868086.298 8 100789839.249 8     -2390.646          48.000  
R18  19723499.316 5 105285274.096 5     -2544.359          31.000  
R19  18726059.811 4 100171856.754 4       -81.223          29.000  
E11  24442309.283 5 128445202.664 5     -2293.238          32.000  
E25  23749752.022 7 124805825.757 7     -1872.698          43.000  
E30  25807511.834 3               3      2572.115          19.000  
J 2  37055258.795 6 194726698.035 6       745.140          39.000  
J 3  37315725.160 7 196095462.809 7      -553.709          44.000  
J 4  36640798.499 5 192548696.190 5       300.533          35.000  
> 2024 11 28 12 41 43.3970000  0 22                     
G 2  19911424.859 7 104635242.742 7     -1424.481          42.000  
G 3  21677110.779 7 113913951.034 7      3260.894          42.000  
G 7  22364362.860 5 117525594.67025     -3028.738          30.000  
G 8  22125802.818 6 116271793.476 6     -2416.183          37.000  
G14  20069613.595 7 105466526.709 7      2170.142          42.000  
G17  21723702.075 6 114158828.327 6      1954.201          40.000  
G19  24347093.978 3               3      2786.846          18.000  
G21  20734986.297 7 108963103.100 7     -2698.501          44.000  
G22  22048613.769 5 115866288.195 5      2771.056          34.000  
G30  21589266.523 3               3     -1903.696          23.000  
R 2  23006813.537 4               4       780.707          26.000  
R 9  19098596.456 6 101985382.880 6      2041.836          38.000  
R15  22792472.945 6 121795946.140 6     -4394.202          40.000  
R16  18868175.766 8 100790317.396 8     -2390.763          48.000  
R18  19723593.669 5 105285782.803 5     -2543.741          31.000  
R19  18726062.638 5 100171872.967 5       -81.142          30.000  
E11  24442396.273 5 128445661.159 5     -2292.280          32.000  
E25  23749823.149 7 124806200.274 7     -1872.627          43.000  
E30  25807413.677 3               3      2571.888          19.000  
J 2  37055230.456 6 194726549.027 6       745.124          40.000  
J 3  37315746.292 7 196095573.571 7      -553.728          44.000  
J 4  36640787.104 5 192548636.156 5       299.633          35.000  
> 2024 11 28 12 41 43.5970000  0 22                     
G 2  19911479.146 7 104635527.653 7     -1424.188          42.000  
G 3  21676986.778 7 113913298.889 7      3260.724          42.000  
G 7  22364477.334 4 117526200.20124     -3027.111          29.000  
G 8  22125894.851 5 116272276.767 5     -2416.188          34.000  
G14  20069531.038 7 105466092.714 7      2170.001          42.000  
G17  21723627.720 6 114158437.498 6      1954.147          40.000  
G19  24346987.689 3               3      2786.846          18.000  
G21  20735088.904 7 108963642.798 7     -2698.392          44.000  
G22  22048508.300 5 115865733.944 5      2771.491          34.000  
G30  21589338.906 3               3     -1903.696          22.000  
R 2  23006783.016 4               4       780.391          25.000  
R 9  19098520.006 6 101984974.477 6      2042.489          38.000  
R15  22792637.326 6 121796825.015 6     -4393.878          40.000  
R16  18868265.163 8 100790795.532 8     -2390.638          48.000  
R18  19723687.551 5 105286291.627 5     -2543.815          30.000  
R19  18726064.732 5 100171889.126 5       -80.839          30.000  
E11  24442484.326 5 128446119.730 5     -2292.309          32.000  
E25  23749894.503 7 124806574.794 7     -1872.327          43.000  
E30  25807314.926 3               3      2571.888          19.000  
J 2  37055202.152 6 194726399.996 6       745.474          40.000  
J 3  37315767.477 7 196095684.303 7      -553.421          44.000  
J 4  36640775.622 6 192548575.990 6       301.116          36.000  
> 2024 11 28 12 41 43.7970000  0 22                     
G 2  19911533.259 7 104635812.516 7     -1424.121          43.000  
G 3  21676862.620 7 113912646.618 7      3261.469          42.000  
G 7  22364592.994 4 117526805.74524     -3028.021          29.000  
G 8  22125986.901 5 116272759.939 5     -2415.349          34.000  
G14  20069448.499 7 105465658.646 7      2170.392          42.000  
G17  21723553.452 6 114158046.588 6      1954.791          40.000  
G19  24346881.225 3               3      2794.488          18.000  
G21  20735191.581 7 108964182.438 7     -2698.017          45.000  
G22  22048402.639 5 115865179.606 5      2772.939          34.000  
G30  21589410.784 3               3     -1903.696          21.000  
R 2  23006752.601 4               4       783.409          25.000  
R 9  19098443.539 6 101984566.092 6      2042.455          38.000  
R15  22792801.742 6 121797703.821 6     -4393.713          40.000  
R16  18868354.648 8 100791273.621 8     -2390.385          48.000  
R18  19723780.788 5 105286800.347 5     -2543.285          30.000  
R19  18726067.769 4 100171905.254 4       -80.505          29.000  
E11  24442571.089 5 128446578.122 5     -2291.889          32.000  
E25  23749965.735 7 124806949.252 7     -1872.351          43.000  
E30  25807215.756 3               3      2571.888          20.000  
J 2  37055173.795 6 194726250.878 6       745.767          40.000  
J 3  37315788.399 7 196095794.975 7      -553.301          44.000  
J 4  36640764.052 6 192548515.852 6       300.767          36.000  
> 2024 11 28 12 41 43.9970000  0 22                     
G 2  19911587.512 7 104636097.364 7     -1424.103          43.000  
G 3  21676738.566 7 113911994.379 7      3261.320          42.000  
G 7  22364706.089 4 117527411.18424     -3027.090          29.000  
G 8  22126079.090 5 116273243.114 5     -2416.106          33.000  
G14  20069365.820 7 105465224.555 7      2170.734          42.000  
G17  21723479.096 6 114157655.655 6      1954.737          40.000  
G19  24346774.517 3               3      2794.488          18.000  
G21  20735294.328 7 108964722.039 7     -2697.693          45.000  
G22  22048297.362 5 115864625.317 5      2772.063          34.000  
G30  21589482.626 3               3     -1908.444          21.000  
R 2  23006723.145 4               4       781.364          25.000  
R 9  19098367.038 6 101984157.704 6      2041.830          38.000  
R15  22792966.280 6 121798582.616 6     -4393.896          40.000  
R16  18868444.115 8 100791751.717 8     -2390.447          48.000  
R18  19723875.752 4 105287308.998 4     -2542.699          24.000  
R19  18726067.995 4 100171921.299 4       -80.193          29.000  
E11  24442657.886 5 128447036.507 5     -2291.524          32.000  
E25  23750036.879 7 124807323.672 7     -1871.962          43.000  
E30  25807117.913 3               3      2569.123          20.000  
J 2  37055145.543 6 194726101.747 6       745.797          40.000  
J 3  37315809.514 7 196095905.612 7      -553.079          44.000  
J 4  36640752.657 6 192548455.624 6       301.717          36.000  
> 2024 11 28 12 41 44.1970000  0 22                     
G 2  19911641.695 7 104636382.209 7     -1424.512          43.000  
G 3  21676614.530 7 113911342.115 7      3261.169          42.000  
G 7  22364824.558 4 117528016.64724     -3027.389          29.000  
G 8  22126171.175 5 116273726.328 5     -2416.351          33.000  
G14  20069283.228 6 105464790.482 6      2170.172          41.000  
G17  21723404.793 6 114157264.744 6      1954.215          40.000  
G19  24346667.949 3               3      2794.488          18.000  
G21  20735396.988 7 108965261.631 7     -2698.067          44.000  
G22  22048191.841 5 115864071.041 5      2771.413          34.000  
G30  21589554.905 3               3     -1908.444          21.000  
R 2  23006693.532 4               4       780.669          24.000  
R 9  19098290.431 6 101983749.294 6      2041.806          38.000  
R15  22793130.800 6 121799461.361 6     -4393.957          40.000  
R16  18868533.600 8 100792229.819 8     -2390.779          48.000  
R18  19723970.349 4 105287817.759 4     -2544.081          24.000  
R19  18726073.335 4 100171937.459 4       -80.542          29.000  
E11  24442744.806 5 128447494.914 5     -2292.242          33.000  
E25  23750108.006 7 124807698.086 7     -1872.142          43.000  
E30  25807019.738 3               3      2569.123          20.000  
J 2  37055117.186 6 194725952.603 6       745.809          40.000  
J 3  37315830.542 7 196096016.227 7      -553.302          44.000  
J 4  36640741.210 6 192548395.402 6       301.351          36.000  
> 2024 11 28 12 41 44.3970000  0 22                     
G 2  19911695.983 7 104636667.067 7     -1424.322          43.000  
G 3  21676490.476 7 113910689.890 7      3261.084          42.000  
G 7  22364935.454 4 117528622.19724     -3027.984          29.000  
G 8  22126263.277 5 116274209.508 5     -2416.614          32.000  
G14  20069200.741 6 105464356.429 6      2170.026          41.000  
G17  21723330.438 6 114156873.794 6      1954.421          40.000  
G19  24346561.014 2               2      2794.488          17.000  
G21  20735499.630 7 108965801.225 7     -2698.008          45.000  
G22  22048086.529 5 115863516.676 5      2772.040          33.000  
G30  21589627.917 3               3     -1902.733          22.000  
R 2  23006663.657 4               4       787.179          24.000  
R 9  19098213.912 6 101983340.924 6      2042.128          37.000  
R15  22793295.112 6 121800340.115 6     -4393.786          40.000  
R16  18868623.050 8 100792707.951 8     -2390.729          48.000  
R18  19724065.366 4 105288326.416 4     -2542.917          25.000  
R19  18726077.610 4 100171953.573 4       -80.771          29.000  
E11  24442831.865 5 128447953.263 5     -2292.163          32.000  
E25  23750179.273 7 124808072.517 7     -1872.104          43.000  
E30  25806920.848 3               3      2579.347          20.000  
J 2  37055088.795 6 194725803.445 6       745.794          40.000  
J 3  37315851.622 7 196096126.826 7      -553.068          44.000  
J 4  36640729.762 6 192548335.192 6       300.767          36.000  
> 2024 11 28 12 41 44.5970000  0 22                     
G 2  19911750.253 7 104636952.001 7     -1424.628          44.000  
G 3  21676366.353 7 113910037.703 7      3260.729          42.000  
G 7  22365053.331 4 117529227.66824     -3027.311          29.000  
G 8  22126356.915 5 116274692.776 5     -2416.276          32.000  
G14  20069118.131 6 105463922.428 6      2170.093          41.000  
G17  21723256.065 6 114156482.930 6      1954.330          40.000  
G19  24346455.684 3               3      2794.488          18.000  
G21  20735602.272 7 108966340.905 7     -2698.336          45.000  
G22  22047981.007 5 115862962.470 5      2770.783          33.000  
G30  21589699.183 3               3     -1903.972          22.000  
R 2  23006633.520 3               3       770.055          23.000  
R 9  19098137.358 5 101982932.655 5      2041.051          35.000  
R15  22793459.493 6 121801218.930 6     -4393.890          40.000  
R16  18868712.569 8 100793186.170 8     -2391.151          48.000  
R18  19724160.836 4 105288835.137 4     -2543.724          26.000  
R19  18726081.170 4 100171969.748 4       -80.928          29.000  
E11  24442919.134 5 128448411.752 5     -2292.254          32.000  
E25  23750250.540 7 124808447.026 7     -1872.546          43.000  
E30  25806822.097 3               3      2579.448          20.000  
J 2  37055060.473 6 194725654.339 6       745.474          40.000  
J 3  37315872.736 7 196096237.491 7      -553.233          44.000  
J 4  36640718.350 6 192548275.017 6       300.512          36.000  
> 2024 11 28 12 41 44.7970000  0 22                     
G 2  19911804.471 7 104637236.925 7     -1424.615          44.000  
G 3  21676242.386 7 113909385.517 7      3261.111          42.000  
G 7  22365172.132 4 117529833.21424     -3027.985          29.000  
G 8  22126450.954 5 116275175.978 5     -2415.638          32.000  
G14  20069035.627 6 105463488.441 6      2169.855          41.000  
G17  21723181.727 6 114156092.045 6      1954.316          40.000  
G19  24346350.180 3               3      2795.355          18.000  
G21  20735704.827 7 108966880.576 7     -2698.177          45.000  
G22  22047875.416 5 115862408.162 5      2771.197          33.000  
G30  21589771.462 3               3     -1910.715          23.000  
R 2  23006604.221 3               3       758.877          23.000  
R 9  19098060.874 5 101982524.406 5      2040.867          35.000  
R15  22793623.891 6 121802097.734 6     -4393.976          40.000  
R16  18868802.106 8 100793664.409 8     -2391.245          48.000  
R18  19724258.505 4 105289343.883 4     -2544.035          27.000  
R19  18726085.533 4 100171985.987 4       -81.320          29.000  
E11  24443006.489 5 128448870.201 5     -2292.438          32.000  
E25  23750321.859 7 124808821.509 7     -1872.363          43.000  
E30  25806722.945 3               3      2574.833          20.000  
J 2  37055031.890 6 194725505.224 6       745.505          40.000  
J 3  37315893.834 7 196096348.151 7      -553.228          44.000  
J 4  36640707.007 5 192548214.780 5       301.274          35.000  
> 2024 11 28 12 41 44.9970000  0 23                     
G 2  19911858.654 7 104637521.937 7     -1425.348          44.000  
G 3  21676118.158 7 113908733.419 7      3260.502          42.000  
G 7  22365290.531 4 117530438.84724     -3028.268          29.000  
G 8  22126548.204 5 116275659.263 5     -2416.312          31.000  
G14  20068953.209 7 105463054.521 7      2169.305          42.000  
G17  21723107.285 6 114155701.229 6      1954.110          40.000  
G19  24346245.287 3               3      2793.402          19.000  
G21  20735807.609 7 108967420.313 7     -2698.734          44.000  
G22  22047769.877 5 115861853.968 5      2770.836          32.000  
G30  21589843.636 3               3     -1908.140          23.000  
R 2  23006575.324 3               3       760.936          23.000  
R 3  23069836.015 3               3      2961.000          18.000  
R 9  19097984.476 5 101982116.233 5      2040.776          35.000  
R15  22793788.220 6 121802976.614 6     -4394.677          40.000  
R16  18868891.521 8 100794142.720 8     -2391.752          48.000  
R18  19724355.650 5 105289852.738 5     -2544.318          32.000  
R19  18726092.216 4 100172002.271 4       -81.770          29.000  
E11  24443093.688 5 128449328.717 5     -2292.813          33.000  
E25  23750393.247 7 124809196.087 7     -1873.076          43.000  
E30  25806624.351 3               3      2574.833          20.000  
J 2  37055003.463 6 194725356.159 6       745.229          40.000  
J 3  37315914.879 7 196096458.859 7      -553.884          44.000  
J 4  36640695.473 6 192548154.651 6       300.524          36.000  
> 2024 11 28 12 41 45.1970000  0 23                     
G 2  19911912.924 7 104637806.972 7     -1425.220          44.000  
G 3  21675994.035 7 113908081.323 7      3260.529          42.000  
G 7  22365403.277 4 117531044.54224     -3027.907          29.000  
G 8  22126643.727 5 116276142.537 5     -2417.012          31.000  
G14  20068870.670 7 105462620.596 7      2169.586          42.000  
G17  21723032.824 6 114155310.406 6      1953.781          40.000  
G19  24346139.643 3               3      2789.615          19.000  
G21  20735910.286 7 108967960.055 7     -2698.712          44.000  
G22  22047664.303 5 115861299.767 5      2771.516          32.000  
G30  21589916.386 3               3     -1908.967          23.000  
R 2  23006546.810 3               3       776.067          23.000  
R 3  23069725.939 3               3      2961.000          18.000  
R 9  19097908.097 6 101981708.081 6      2040.603          36.000  
R15  22793952.741 7 121803855.480 7     -4394.495          42.000  
R16  18868980.971 8 100794621.062 8     -2391.655          48.000  
R18  19724448.922 4 105290361.613 4     -2544.612          28.000  
R19  18726096.160 4 100172018.591 4       -81.703          29.000  
E11  24443180.852 5 128449787.224 5     -2292.269          33.000  
E25  23750464.409 7 124809570.667 7     -1872.961          43.000  
E30  25806526.263 3               3      2572.626          20.000  
J 2  37054975.072 6 194725207.125 6       745.095          40.000  
J 3  37315935.993 7 196096569.561 7      -553.509          44.000  
J 4  36640684.043 6 192548094.478 6       300.365          36.000  
> 2024 11 28 12 41 45.3970000  0 23                     
G 2  19911967.072 7 104638092.009 7     -1425.183          44.000  
G 3  21675869.964 7 113907429.221 7      3260.263          42.000  
G 7  22365509.985 5 117531650.12125     -3027.739          34.000  
G 8  22126736.196 5 116276625.798 5     -2417.037          31.000  
G14  20068788.200 6 105462186.713 6      2169.287          41.000  
G17  21722958.539 6 114154919.547 6      1954.104          40.000  
G19  24346034.139 3               3      2789.615          19.000  
G21  20736013.033 7 108968499.815 7     -2698.939          44.000  
G22  22047558.642 5 115860745.517 5      2771.032          32.000  
G30  21589990.393 4               4     -1908.364          24.000  
R 2  23006517.145 3               3       779.925          23.000  
R 3  23069615.304 3               3      2953.630          18.000  
R 9  19097831.630 6 101981299.974 6      2040.511          36.000  
R15  22794117.139 7 121804734.351 7     -4394.409          42.000  
R16  18869070.368 8 100795099.428 8     -2391.987          48.000  
R18  19724543.484 4 105290870.055 4     -2540.978          27.000  
R19  18726100.278 4 100172034.934 4       -81.916          29.000  
E11  24443268.103 5 128450245.805 5     -2292.977          33.000  
E25  23750535.938 7 124809945.263 7     -1873.020          42.000  
E30  25806428.577 3               3      2576.550          21.000  
J 2  37054946.645 6 194725058.043 6       744.990          40.000  
J 3  37315957.091 7 196096680.267 7      -553.628          44.000  
J 4  36640672.526 6 192548034.282 6       300.780          36.000  
> 2024 11 28 12 41 45.5970000  0 23                     
G 2  19912021.429 7 104638377.072 7     -1425.635          43.000  
G 3  21675745.806 6 113906777.137 6      3260.141          41.000  
G 7  22365622.173 5 117532255.76525     -3028.741          34.000  
G 8  22126828.978 5 116277109.119 5     -2416.476          30.000  
G14  20068705.468 6 105461752.837 6      2169.202          41.000  
G17  21722884.131 6 114154528.762 6      1953.967          40.000  
G19  24345928.845 3               3      2782.722          19.000  
G21  20736115.692 7 108969039.604 7     -2699.064          44.000  
G22  22047453.225 5 115860191.359 5      2770.595          33.000  
G30  21590062.497 4               4     -1909.113          24.000  
R 2  23006487.287 3               3       775.396          23.000  
R 3  23069505.368 3               3      2958.570          19.000  
R 9  19097755.233 6 101980891.901 6      2039.881          36.000  
R15  22794281.607 7 121805613.240 7     -4394.659          42.000  
R16  18869159.818 8 100795577.843 8     -2392.340          48.000  
R18  19724635.726 4 105291378.941 4     -2544.721          27.000  
R19  18726104.344 4 100172051.286 4       -82.008          29.000  
E11  24443355.389 5 128450704.349 5     -2293.365          33.000  
E25  23750607.397 7 124810319.863 7     -1873.164          42.000  
E30  25806330.472 3               3      2570.389          22.000  
J 2  37054918.359 6 194724908.996 6       745.062          39.000  
J 3  37315978.223 7 196096790.980 7      -553.820          44.000  
J 4  36640661.096 6 192547974.139 6       300.992          36.000  
> 2024 11 28 12 41 45.7970000  0 23                     
G 2  19912075.769 7 104638662.136 7     -1425.250          43.000  
G 3  21675621.543 7 113906125.072 7      3260.103          42.000  
G 7  22365739.299 5 117532861.38725     -3027.866          34.000  
G 8  22126920.417 5 116277592.442 5     -2417.126          30.000  
G14  20068622.912 6 105461319.006 6      2168.884          41.000  
G17  21722809.828 6 114154137.987 6      1953.812          40.000  
G19  24345823.253 3               3      2782.722          19.000  
G21  20736218.422 7 108969579.393 7     -2698.769          44.000  
G22  22047347.669 5 115859637.175 5      2771.092          34.000  
G30  21590134.811 4               4     -1908.990          25.000  
R 2  23006457.151 3               3       778.839          23.000  
R 3  23069395.309 3               3      2972.594          19.000  
R 9  19097678.801 6 101980483.873 6      2040.298          36.000  
R15  22794446.006 6 121806492.132 6     -4394.543          41.000  
R16  18869249.460 8 100796056.296 8     -2392.403          48.000  
R18  19724729.329 5 105291887.766 5     -2544.499          32.000  
R19  18726104.205 4 100172067.703 4       -82.056          29.000  
E11  24443442.710 5 128451162.846 5     -2292.529          33.000  
E25  23750678.768 7 124810694.487 7     -1872.892          42.000  
E30  25806232.262 3               3      2576.838          22.000  
J 2  37054889.932 6 194724759.946 6       745.228          39.000  
J 3  37315999.355 7 196096901.694 7      -553.581          44.000  
J 4  36640649.788 6 192547914.024 6       300.723          36.000  
> 2024 11 28 12 41 45.9970000  0 23                     
G 2  19912130.162 7 104638947.232 7     -1425.647          43.000  
G 3  21675497.524 7 113905473.006 7      3260.193          42.000  
G 7  22365854.470 5 117533467.05225     -3028.580          34.000  
G 8  22127016.027 5 116278075.799 5     -2417.129          30.000  
G14  20068540.215 6 105460885.182 6      2168.829          41.000  
G17  21722735.577 6 114153747.210 6      1953.726          40.000  
G19  24345718.290 3               3      2795.912          20.000  
G21  20736321.256 7 108970119.185 7     -2699.156          44.000  
G22  22047242.357 5 115859083.049 5      2770.716          34.000  
G30  21590206.705 4               4     -1908.817          25.000  
R 2  23006426.892 3               3       778.839          23.000  
R 3  23069284.972 3               3      2962.798          20.000  
R 9  19097602.299 6 101980075.855 6      2039.806          37.000  
R15  22794610.352 6 121807371.049 6     -4394.879          41.000  
R16  18869339.067 8 100796534.768 8     -2392.628          48.000  
R18  19724819.756 5 105292396.620 5     -2544.695          32.000  
R19  18726108.724 4 100172084.050 4       -81.878          29.000  
E11  24443530.013 5 128451621.393 5     -2292.621          33.000  
E25  23750750.174 7 124811069.134 7     -1873.416          42.000  
E30  25806134.209 3               3      2577.214          22.000  
J 2  37054861.593 6 194724610.915 6       744.917          39.000  
J 3  37316020.418 7 196097012.426 7      -553.818          44.000  
J 4  36640638.219 6 192547853.846 6       301.012          36.000  
> 2024 11 28 12 41 46.1970000  0 23                     
G 2  19912184.379 7 104639232.343 7     -1425.433          43.000  
G 3  21675373.383 7 113904820.974 7      3260.073          42.000  
G 7  22365966.274 5 117534072.69325     -3029.006          33.000  
G 8  22127108.897 5 116278559.020 5     -2415.946          30.000  
G14  20068457.588 6 105460451.374 6      2169.214          41.000  
G17  21722661.222 6 114153356.436 6      1953.949          40.000  
G19  24345614.950 3               3      2790.293          20.000  
G21  20736423.811 7 108970658.976 7     -2698.955          44.000  
G22  22047136.853 5 115858528.897 5      2770.829          34.000  
G30  21590280.834 4               4     -1908.939          25.000  
R 2  23006397.349 3               3       776.451          23.000  
R 3  23069173.988 3               3      2958.954          20.000  
R 9  19097525.763 6 101979667.898 6      2039.553          37.000  
R15  22794774.873 7 121808249.953 7     -4394.391          42.000  
R16  18869428.656 8 100797013.280 8     -2392.579          48.000  
R18  19724912.434 5 105292905.501 5     -2543.909          32.000  
R19  18726112.895 4 100172100.516 4       -82.392          29.000  
E11  24443617.177 5 128452080.029 5     -2293.664          32.000  
E25  23750821.371 7 124811443.768 7     -1873.130          43.000  
E30  25806036.226 3               3      2566.984          22.000  
J 2  37054833.219 6 194724461.859 6       745.281          39.000  
J 3  37316041.410 7 196097123.151 7      -553.771          44.000  
J 4  36640626.632 6 192547793.775 6       300.330          36.000  
> 2024 11 28 12 41 46.3970000  0 23                     
G 2  19912238.684 7 104639517.513 7     -1425.787          43.000  
G 3  21675249.242 7 113904168.977 7      3259.951          42.000  
G 7  22366078.479 5 117534678.38225     -3028.169          33.000  
G 8  22127200.511 4 116279042.347 4     -2416.717          29.000  
G14  20068375.066 6 105460017.645 6      2168.811          41.000  
G17  21722586.762 6 114152965.682 6      1953.774          40.000  
G19  24345510.755 3               3      2794.032          21.000  
G21  20736526.453 7 108971198.817 7     -2699.272          44.000  
G22  22047031.401 5 115857974.812 5      2770.412          34.000  
G30  21590354.090 4               4     -1910.115          25.000  
R 2  23006367.300 3               3       774.645          23.000  
R 3  23069063.947 3               3      2957.267          20.000  
R 9  19097449.453 6 101979259.958 6      2039.858          37.000  
R15  22794939.323 7 121809128.919 7     -4394.610          42.000  
R16  18869518.158 8 100797491.855 8     -2393.000          48.000  
R18  19725004.728 5 105293414.497 5     -2545.693          32.000  
R19  18726115.303 4 100172116.960 4       -82.302          29.000  
E11  24443704.428 5 128452538.546 5     -2292.283          32.000  
E25  23750892.743 7 124811818.476 7     -1873.596          43.000  
E30  25805937.912 3               3      2570.096          22.000  
J 2  37054804.775 6 194724312.871 6       745.123          39.000  
J 3  37316062.525 7 196097233.908 7      -553.647          44.000  
J 4  36640615.167 6 192547733.668 6       300.624          36.000  
> 2024 11 28 12 41 46.5970000  0 23                     
G 2  19912292.920 7 104639802.613 7     -1425.775          44.000  
G 3  21675125.154 7 113903516.954 7      3259.948          42.000  
G 7  22366195.308 5 117535284.03925     -3028.489          32.000  
G 8  22127295.580 4 116279525.783 4     -2417.567          29.000  
G14  20068292.474 6 105459583.834 6      2168.719          41.000  
G17  21722512.424 6 114152574.863 6      1953.909          40.000  
G19  24345405.024 3               3      2794.120          21.000  
G21  20736629.025 7 108971738.617 7     -2699.214          44.000  
G22  22046925.897 5 115857420.634 5      2770.475          34.000  
G30  21590427.102 4               4     -1908.554          25.000  
R 2  23006337.722 3               3       780.888          23.000  
R 3  23068954.185 3               3      2957.267          20.000  
R 9  19097372.951 6 101978852.020 6      2039.086          37.000  
R15  22795103.844 7 121810007.830 7     -4394.763          42.000  
R16  18869607.748 8 100797970.412 8     -2393.178          48.000  
R18  19725098.628 5 105293923.436 5     -2544.164          31.000  
R19  18726119.857 5 100172133.408 5       -82.060          30.000  
E11  24443791.819 5 128452997.145 5     -2292.864          32.000  
E25  23750963.992 7 124812193.127 7     -1873.507          43.000  
E30  25805839.929 3               3      2581.564          22.000  
J 2  37054776.523 6 194724163.795 6       745.375          39.000  
J 3  37316083.605 7 196097344.609 7      -553.629          44.000  
J 4  36640603.807 6 192547673.517 6       301.005          36.000  
> 2024 11 28 12 41 46.7970000  0 23                     
G 2  19912347.207 7 104640087.684 7     -1425.415          44.000  
G 3  21675001.135 7 113902864.862 7      3260.265          42.000  
G 7  22366313.306 5 117535889.58225     -3027.130          32.000  
G 8  22127390.055 4 116280009.127 4     -2416.626          28.000  
G14  20068210.039 7 105459149.993 7      2169.318          42.000  
G17  21722437.947 6 114152183.991 6      1954.545          41.000  
G19  24345300.305 3               3      2783.652          21.000  
G21  20736731.615 7 108972278.355 7     -2698.283          44.000  
G22  22046820.480 5 115856866.447 5      2770.954          34.000  
G30  21590499.468 4               4     -1908.451          25.000  
R 2  23006308.231 3               3       775.107          23.000  
R 3  23068844.511 3               3      2960.716          20.000  
R 9  19097296.502 6 101978444.019 6      2040.138          39.000  
R15  22795268.312 6 121810886.637 6     -4393.774          40.000  
R16  18869697.233 8 100798448.921 8     -2392.606          48.000  
R18  19725196.018 5 105294432.279 5     -2543.933          31.000  
R19  18726122.370 4 100172149.806 4       -81.970          29.000  
E11  24443879.297 5 128453455.608 5     -2292.619          33.000  
E25  23751035.154 7 124812567.728 7     -1872.719          43.000  
E30  25805742.382 3               3      2567.160          22.000  
J 2  37054748.219 6 194724014.658 6       745.783          39.000  
J 3  37316104.650 7 196097455.240 7      -553.077          44.000  
J 4  36640592.290 6 192547613.320 6       301.392          36.000  
> 2024 11 28 12 41 46.9970000  0 23                     
G 2  19912401.495 7 104640372.795 7     -1425.671          43.000  
G 3  21674877.029 7 113902212.809 7      3260.387          42.000  
G 7  22366431.427 5 117536495.15425     -3027.872          32.000  
G 8  22127480.238 4 116280492.350 4     -2415.710          29.000  
G14  20068127.413 7 105458716.205 7      2168.976          43.000  
G17  21722363.661 6 114151793.207 6      1953.754          41.000  
G19  24345195.569 3               3      2797.836          21.000  
G21  20736834.345 7 108972818.143 7     -2698.886          43.000  
G22  22046715.081 5 115856312.268 5      2770.919          33.000  
G30  21590571.014 4 113459214.34734     -1909.534          25.000  
R 2  23006278.269 3               3       779.036          23.000  
R 3  23068733.772 3               3      2965.033          21.000  
R 9  19097220.087 6 101978036.123 6      2039.324          39.000  
R15  22795432.606 6 121811765.554 6     -4394.458          40.000  
R16  18869786.839 8 100798927.479 8     -2392.847          48.000  
R18  19725294.036 5 105294941.152 5     -2544.219          31.000  
R19  18726124.133 4 100172166.311 4       -82.587          29.000  
E11  24443966.565 5 128453914.147 5     -2292.565          33.000  
E25  23751106.490 7 124812942.367 7     -1873.376          43.000  
E30  25805643.998 3               3      2573.561          22.000  
J 2  37054719.862 6 194723865.566 6       745.709          39.000  
J 3  37316125.730 7 196097565.893 7      -553.211          44.000  
J 4  36640580.912 6 192547553.129 6       301.354          36.000  
> 2024 11 28 12 41 47.1970000  0 24                     
G 2  19912455.765 7 104640657.886 7     -1425.250          43.000  
G 3  21674752.993 7 113901560.739 7      3260.540          42.000  
G 7  22366546.895 5 117537100.69425     -3026.373          31.000  
G 8  22127566.233 4 116280975.634 4     -2416.574          29.000  
G14  20068044.803 7 105458282.394 7      2169.025          43.000  
G17  21722289.323 6 114151402.355 6      1954.435          41.000  
G19  24345089.542 3               3      2793.993          21.000  
G21  20736936.952 7 108973357.923 7     -2699.034          43.000  
G22  22046609.560 5 115855758.062 5      2770.934          33.000  
G30  21590643.641 4 113459596.13724     -1908.836          25.000  
R 2  23006248.848 4               4       778.283          24.000  
R 3  23068623.556 3               3      2960.248          22.000  
R 9  19097143.638 6 101977628.211 6      2039.244          40.000  
R15  22795597.005 6 121812644.390 6     -4394.506          40.000  
R16  18869876.481 8 100799406.047 8     -2392.843          48.000  
R17  23440044.024 2               2     -3422.282          17.000  
R18  19725391.565 5 105295449.970 5     -2543.969          32.000  
R19  18726126.209 4 100172182.709 4       -81.897          29.000  
E11  24444053.974 5 128454372.646 5     -2292.439          32.000  
E25  23751177.774 7 124813316.973 7     -1872.930          43.000  
E30  25805545.736 3               3      2572.443          22.000  
J 2  37054691.401 6 194723716.448 6       745.542          39.000  
J 3  37316146.722 7 196097676.532 7      -553.188          44.000  
J 4  36640569.569 5 192547492.960 5       300.658          35.000  
> 2024 11 28 12 41 47.3970000  0 24                     
G 2  19912510.192 7 104640943.038 7     -1425.726          43.000  
G 3  21674628.887 7 113900908.705 7      3260.223          42.000  
G 7  22366662.468 5 117537706.30425     -3028.138          31.000  
G 8  22127655.892 5 116281458.889 5     -2416.358          30.000  
G14  20067962.229 7 105457848.626 7      2168.872          43.000  
G17  21722215.003 6 114151011.571 6      1953.974          41.000  
G19  24344984.683 3               3      2793.993          21.000  
G21  20737039.490 7 108973897.720 7     -2698.975          43.000  
G22  22046504.021 5 115855203.892 5      2770.879          33.000  
G30  21590717.107 4 113459977.98324     -1909.751          25.000  
R 2  23006219.811 4               4       777.985          25.000  
R 3  23068512.555 3               3      2955.370          22.000  
R 9  19097067.258 6 101977220.332 6      2039.332          40.000  
R15  22795761.299 6 121813523.248 6     -4394.104          40.000  
R16  18869966.123 8 100799884.685 8     -2393.241          48.000  
R17  23440173.330 3               3     -3432.793          18.000  
R18  19725489.356 5 105295958.832 5     -2544.293          35.000  
R19  18726130.624 4 100172199.248 4       -82.868          29.000  
E11  24444141.120 5 128454831.184 5     -2292.277          32.000  
E25  23751248.971 7 124813691.642 7     -1873.206          43.000  
E30  25805448.032 3               3      2571.986          22.000  
J 2  37054662.975 6 194723567.343 6       745.323          39.000  
J 3  37316167.785 7 196097787.198 7      -553.246          44.000  
J 4  36640558.192 5 192547432.717 5       301.403          35.000  
> 2024 11 28 12 41 47.5970000  0 24                     
G 2  19912564.497 7 104641228.210 7     -1426.013          43.000  
G 3  21674504.798 7 113900256.705 7      3259.792          42.000  
G 7  22366777.098 5 117538312.01525     -3028.268          30.000  
G 8  22127745.830 5 116281942.232 5     -2417.801          30.000  
G14  20067879.619 7 105457414.879 7      2168.378          43.000  
G17  21722140.595 6 114150620.763 6      1953.689          41.000  
G19  24344879.807 3               3      2800.009          21.000  
G21  20737142.201 7 108974437.529 7     -2699.269          43.000  
G22  22046398.517 5 115854649.726 5      2771.104          33.000  
G30  21590790.066 4 113460359.81724     -1909.301          26.000  
R 2  23006190.616 4               4       778.973          25.000  
R 3  23068402.444 3               3      2964.238          22.000  
R 9  19096990.809 6 101976812.499 6      2039.201          40.000  
R15  22795925.714 6 121814402.154 6     -4394.531          40.000  
R16  18870055.747 8 100800363.350 8     -2393.484          48.000  
R17  23440302.898 3               3     -3424.775          18.000  
R18  19725587.775 5 105296467.733 5     -2544.348          34.000  
R19  18726135.650 4 100172215.757 4       -82.443          29.000  
E11  24444228.319 5 128455289.728 5     -2292.312          32.000  
E25  23751320.308 7 124814066.323 7     -1873.602          43.000  
E30  25805349.316 3               3      2568.332          22.000  
J 2  37054634.636 6 194723418.223 6       745.604          38.000  
J 3  37316188.830 7 196097897.875 7      -553.558          44.000  
J 4  36640546.745 5 192547372.546 5       300.831          35.000  
> 2024 11 28 12 41 47.7970000  0 24                     
G 2  19912618.855 7 104641513.446 7     -1426.300          44.000  
G 3  21674380.797 7 113899604.720 7      3259.922          42.000  
G 7  22366890.681 5 117538917.76025     -3028.875          30.000  
G 8  22127838.613 5 116282425.476 5     -2415.465          30.000  
G14  20067796.993 7 105456981.156 7      2168.451          43.000  
G17  21722066.274 6 114150229.972 6      1954.094          41.000  
G19  24344773.762 3               3      2793.711          21.000  
G21  20737244.896 7 108974977.409 7     -2699.218          44.000  
G22  22046293.100 5 115854095.600 5      2770.320          33.000  
G30  21590863.270 4 113460741.74424     -1910.045          26.000  
R 2  23006161.021 4               4       776.868          25.000  
R 3  23068292.298 3               3      2960.848          22.000  
R 9  19096914.464 6 101976404.740 6      2038.557          40.000  
R15  22796090.200 6 121815281.079 6     -4394.812          40.000  
R16  18870145.284 8 100800842.092 8     -2393.639          48.000  
R17  23440431.332 3               3     -3424.775          18.000  
R18  19725682.303 5 105296976.763 5     -2545.420          31.000  
R19  18726138.878 4 100172232.316 4       -82.862          29.000  
E11  24444315.674 5 128455748.344 5     -2292.863          32.000  
E25  23751391.470 7 124814441.047 7     -1873.523          43.000  
E30  25805251.298 3               3      2578.998          22.000  
J 2  37054606.296 6 194723269.187 6       745.119          38.000  
J 3  37316209.892 7 196098008.582 7      -553.354          44.000  
J 4  36640535.280 5 192547312.423 5       300.489          35.000  
> 2024 11 28 12 41 47.9970000  0 24                     
G 2  19912673.195 7 104641798.719 7     -1426.172          44.000  
G 3  21674256.831 7 113898952.811 7      3259.736          42.000  
G 7  22367002.834 4 117539523.47224     -3028.360          29.000  
G 8  22127931.239 5 116282908.849 5     -2417.528          30.000  
G14  20067714.471 7 105456547.519 7      2168.207          42.000  
G17  21721991.954 6 114149839.272 6      1953.732          40.000  
G19  24344669.044 3               3      2792.746          21.000  
G21  20737347.730 7 108975517.327 7     -2699.313          44.000  
G22  22046187.701 5 115853541.461 5      2770.691          33.000  
G30  21590935.706 4 113461123.70424     -1909.312          26.000  
R 2  23006133.048 4               4       777.326          25.000  
R 3  23068182.100 3               3      2951.719          22.000  
R 9  19096838.050 6 101975997.020 6      2038.770          39.000  
R15  22796254.634 6 121816160.052 6     -4394.445          41.000  
R16  18870234.787 8 100801320.868 8     -2393.937          48.000  
R17  23440560.743 3               3     -3424.775          18.000  
R18  19725775.365 4               4     -2545.530          26.000  
R19  18726142.403 4 100172248.970 4       -83.646          29.000  
E11  24444402.978 5 128456207.009 5     -2293.111          32.000  
E25  23751462.719 7 124814815.826 7     -1873.855          43.000  
E30  25805153.525 3               3      2573.757          22.000  
J 2  37054577.957 6 194723120.181 6       745.114          39.000  
J 3  37316230.919 7 196098119.327 7      -553.605          44.000  
J 4  36640523.850 5 192547252.313 5       300.819          35.000  
> 2024 11 28 12 41 48.1970000  0 24                     
G 2  19912727.395 7 104642083.989 7     -1426.440          43.000  
G 3  21674132.812 7 113898300.896 7      3259.310          42.000  
G 7  22367116.627 4 117540129.278 4     -3030.213          29.000  
G 8  22128028.332 5 116283392.243 5     -2416.306          30.000  
G14  20067631.826 7 105456113.917 7      2167.621          42.000  
G17  21721917.633 6 114149448.565 6      1953.230          40.000  
G19  24344564.691 3               3      2794.882          21.000  
G21  20737450.477 7 108976057.229 7     -2699.709          44.000  
G22  22046082.301 5 115852987.460 5      2770.197          32.000  
G30  21591008.316 4 113461505.64724     -1909.761          26.000  
R 2  23006103.330 4               4       777.191          25.000  
R 3  23068071.745 3               3      2951.719          21.000  
R 9  19096761.775 6 101975589.367 6      2038.108          38.000  
R15  22796419.015 6 121817039.028 6     -4395.147          41.000  
R16  18870324.341 8 100801799.688 8     -2394.167          48.000  
R17  23440689.281 3               3     -3421.813          19.000  
R18  19725868.252 6               6     -2544.593          37.000  
R19  18726147.254 4 100172265.592 4       -83.087          29.000  
E11  24444490.334 5 128456665.624 5     -2292.808          32.000  
E25  23751534.108 7 124815190.590 7     -1874.062          43.000  
E30  25805055.629 3               3      2575.120          22.000  
J 2  37054549.548 6 194722972.14736       744.656          39.000  
J 3  37316251.947 7 196098227.02937      -553.866          43.000  
J 4  36640512.263 6 192547192.206 6       300.160          36.000  
> 2024 11 28 12 41 48.3970000  0 24                     
G 2  19912781.648 6 104642369.313 6     -1426.666          41.000  
G 3  21674008.881 7 113897649.022 7      3259.305          43.000  
G 7  22367231.763 4 117540735.006 4     -3029.185          29.000  
G 8  22128121.621 4 116283875.608 4     -2417.056          29.000  
G14  20067549.304 7 105455680.322 7      2167.987          42.000  
G17  21721843.418 6 114149057.864 6      1953.197          40.000  
G19  24344460.374 3               3      2797.261          21.000  
G21  20737553.189 7 108976597.203 7     -2699.918          44.000  
G22  22045976.710 5 115852433.509 5      2769.848          32.000  
G30  21591079.775 4 113461887.58524     -1909.977          27.000  
R 2  23006073.857 4               4       776.807          25.000  
R 3  23067961.599 3               3      2951.719          21.000  
R 9  19096685.465 6 101975181.776 6      2038.078          38.000  
R15  22796583.466 6 121817918.024 6     -4395.190          41.000  
R16  18870413.948 8 100802278.586 8     -2394.636          48.000  
R17  23440817.331 3               3     -3421.813          19.000  
R18  19725963.147 6 105298457.90436     -2545.259          37.000  
R19  18726151.076 4 100172282.326 4       -83.800          29.000  
E11  24444577.550 5 128457124.338 5     -2293.537          32.000  
E25  23751605.514 7 124815565.423 7     -1874.129          43.000  
E30  25804957.140 3               3      2575.120          21.000  
J 2  37054521.087 6 194722823.13626       744.925          39.000  
J 3  37316273.062 7 196098337.80527      -554.075          44.000  
J 4  36640500.711 6 192547132.143 6       300.384          36.000  
> 2024 11 28 12 41 48.5970000  0 24                     
G 2  19912835.813 6 104642654.590 6     -1426.495          41.000  
G 3  21673884.897 7 113896997.098 7      3259.417          43.000  
G 7  22367349.797 4 117541340.629 4     -3028.214          29.000  
G 8  22128210.931 4 116284358.943 4     -2416.428          29.000  
G14  20067466.730 7 105455246.713 7      2167.932          42.000  
G17  21721769.062 6 114148667.157 6      1953.403          40.000  
G19  24344355.463 3               3      2792.823          22.000  
G21  20737656.128 7 108977137.124 7     -2699.872          44.000  
G22  22045871.293 5 115851879.440 5      2770.615          32.000  
G30  21591153.310 5 113462269.61525     -1910.128          31.000  
R 2  23006045.221 4               4       777.216          25.000  
R 3  23067851.017 3               3      2955.883          21.000  
R 9  19096609.068 6 101974774.174 6      2037.568          38.000  
R15  22796747.986 6 121818797.007 6     -4395.312          41.000  
R16  18870503.415 7 100802757.463 7     -2394.775          47.000  
R17  23440944.979 3               3     -3421.813          18.000  
R18  19726057.954 6 105298966.88026     -2545.237          37.000  
R19  18726152.280 4 100172298.955 4       -83.091          29.000  
E11  24444664.714 5 128457582.917 5     -2292.676          32.000  
E25  23751676.763 7 124815940.203 7     -1873.953          43.000  
E30  25804861.041 3               3      2575.120          21.000  
J 2  37054492.695 6 194722674.12526       744.548          39.000  
J 3  37316294.142 7 196098448.54127      -553.832          44.000  
J 4  36640489.298 6 192547072.017 6       300.836          36.000  
> 2024 11 28 12 41 48.7970000  0 24                     
G 2  19912890.258 6 104642939.949 6     -1426.801          41.000  
G 3  21673760.965 7 113896345.249 7      3259.145          43.000  
G 7  22367468.214 4 117541946.260 4     -3028.043          28.000  
G 8  22128303.417 4 116284842.347 4     -2417.196          29.000  
G14  20067384.138 7 105454813.161 7      2167.676          42.000  
G17  21721694.846 6 114148276.475 6      1953.116          41.000  
G19  24344251.757 3               3      2788.923          22.000  
G21  20737758.979 7 108977677.083 7     -2699.750          44.000  
G22  22045765.597 5 115851325.494 5      2769.564          32.000  
G30  21591223.233 5 113462651.61125     -1909.955          31.000  
R 2  23006015.381 4               4       779.701          24.000  
R 3  23067741.273 3               3      2958.031          21.000  
R 9  19096532.636 6 101974366.628 6      2037.564          38.000  
R15  22796912.297 6 121819676.046 6     -4395.312          39.000  
R16  18870592.882 7 100803236.419 7     -2394.904          46.000  
R17  23441072.697 3               3     -3421.813          18.000  
R18  19726151.557 6 105299475.94326     -2545.332          37.000  
R19  18726157.707 4 100172315.724 4       -84.114          29.000  
E11  24444751.284 5 128458041.644 5     -2293.789          31.000  
E25  23751748.065 7 124816315.079 7     -1874.286          43.000  
E30  25804764.437 3               3      2575.120          20.000  
J 2  37054464.391 6 194722525.13326       745.062          39.000  
J 3  37316315.344 7 196098559.32227      -553.945          44.000  
J 4  36640477.834 6 192547011.940 6       300.425          36.000  
> 2024 11 28 12 41 48.9970000  0 24                     
G 2  19912944.528 6 104643225.351 6     -1427.429          41.000  
G 3  21673636.807 7 113895693.446 7      3258.486          43.000  
G 7  22367586.631 4 117542552.063 4     -3029.380          28.000  
G 8  22128394.158 4 116285325.833 4     -2417.390          29.000  
G14  20067301.546 7 105454379.660 7      2167.114          42.000  
G17  21721620.561 6 114147885.792 6      1953.020          41.000  
G19  24344145.834 3               3      2799.120          22.000  
G21  20737861.814 7 108978217.104 7     -2700.456          44.000  
G22  22045660.180 5 115850771.519 5      2769.303          32.000  
G30  21591297.728 5 113463033.76825     -1911.042          31.000  
R 2  23005986.623 4               4       774.523          24.000  
R 3  23067631.494 3               3      2950.132          22.000  
R 9  19096456.361 6 101973959.112 6      2037.274          38.000  
R15  22797076.853 6 121820555.098 6     -4395.862          39.000  
R16  18870682.542 7 100803715.435 7     -2395.415          46.000  
R17  23441201.427 3               3     -3421.813          18.000  
R18  19726248.772 6 105299985.00926     -2545.436          37.000  
R19  18726162.296 5 100172332.549 5       -84.033          30.000  
E11  24444842.060 5 128458500.400 5     -2293.879          31.000  
E25  23751819.419 7 124816689.969 7     -1874.708          43.000  
E30  25804667.344 3               3      2577.066          21.000  
J 2  37054435.965 6 194722376.16626       744.665          39.000  
J 3  37316336.423 7 196098670.12127      -554.099          43.000  
J 4  36640466.369 5 192546951.886 5       300.024          33.000  
> 2024 11 28 12 41 49.1970000  0 24                     
G 2  19912998.676 6 104643510.776 6     -1427.216          41.000  
G 3  21673512.754 7 113895041.646 7      3259.064          43.000  
G 7  22367704.385 4 117543158.021 4     -3030.321          27.000  
G 8  22128486.714 4 116285809.328 4     -2417.425          29.000  
G14  20067219.164 7 105453946.185 7      2167.328          42.000  
G17  21721546.171 6 114147495.178 6      1952.975          40.000  
G19  24344040.173 3               3      2795.883          22.000  
G21  20737964.683 7 108978757.145 7     -2700.315          45.000  
G22  22045554.781 5 115850217.586 5      2769.452          32.000  
G30  21591366.831 5 113463415.90525     -1910.873          31.000  
R 2  23005957.412 4               4       775.197          25.000  
R 3  23067521.697 3               3      2956.167          22.000  
R 9  19096380.016 6 101973551.665 6      2037.282          38.000  
R15  22797241.217 6 121821434.159 6     -4395.453          38.000  
R16  18870772.096 7 100804194.484 7     -2395.403          46.000  
R17  23441329.686 3               3     -3429.900          18.000  
R18  19726343.317 5 105300494.05225     -2545.184          35.000  
R19  18726162.680 4 100172349.366 4       -84.416          29.000  
E11  24444925.280 5 128458959.215 5     -2294.455          31.000  
E25  23751890.598 7 124817064.880 7     -1874.742          43.000  
E30  25804569.448 3               3      2575.560          22.000  
J 2  37054407.608 6 194722227.21826       744.674          39.000  
J 3  37316357.521 7 196098780.93127      -554.134          43.000  
J 4  36640454.974 5 192546891.870 5       299.764          33.000  
> 2024 11 28 12 41 49.3970000  0 24                     
G 2  19913052.894 6 104643796.297 6     -1427.588          41.000  
G 3  21673388.630 7 113894389.907 7      3258.553          43.000  
G 7  22367820.883 4 117543763.916 4     -3029.459          27.000  
G 8  22128578.764 4 116286292.818 4     -2417.825          29.000  
G14  20067136.729 7 105453512.767 7      2167.157          42.000  
G17  21721471.920 6 114147104.607 6      1952.766          40.000  
G19  24343934.006 3               3      2797.672          22.000  
G21  20738067.464 7 108979297.239 7     -2700.636          45.000  
G22  22045449.225 5 115849663.641 5      2769.740          32.000  
G30  21591439.790 5 113463798.03325     -1910.967          31.000  
R 2  23005928.025 4               4       775.128          25.000  
R 3  23067410.364 3               3      2963.843          22.000  
R 9  19096303.654 6 101973144.286 6      2036.991          38.000  
R15  22797405.702 6 121822313.287 6     -4395.361          38.000  
R16  18870861.721 7 100804673.602 7     -2395.908          46.000  
R17  23441457.509 3               3     -3429.900          18.000  
R18  19726437.740 5 105301003.16425     -2545.946          35.000  
R19  18726166.554 4 100172366.242 4       -84.438          29.000  
E11  24445011.258 5 128459417.975 5     -2293.944          31.000  
E25  23751962.074 7 124817439.822 7     -1874.908          43.000  
E30  25804472.652 3               3      2571.508          23.000  
J 2  37054379.321 6 194722078.29226       744.468          39.000  
J 3  37316378.705 7 196098891.74827      -554.128          43.000  
J 4  36640443.561 5 192546831.833 5       300.144          34.000  
> 2024 11 28 12 41 49.5970000  0 24                     
G 2  19913107.077 6 104644081.786 6     -1427.417          41.000  
G 3  21673264.734 7 113893738.168 7      3258.763          43.000  
G 7  22367934.833 4 117544369.841 4     -3029.927          27.000  
G 8  22128669.435 4 116286776.354 4     -2417.688          29.000  
G14  20067054.277 7 105453079.354 7      2166.907          42.000  
G17  21721397.652 6 114146714.017 6      1953.138          40.000  
G19  24343827.106 3               3      2797.672          22.000  
G21  20738170.403 7 108979837.320 7     -2700.345          45.000  
G22  22045343.808 5 115849109.684 5      2770.172          33.000  
G30  21591514.023 5 113464180.18225     -1910.031          30.000  
R 2  23005898.831 4               4       775.875          25.000  
R 3  23067300.411 3               3      2957.718          22.000  
R 9  19096227.240 6 101972736.925 6      2037.060          38.000  
R15  22797570.275 6 121823192.381 6     -4395.385          38.000  
R16  18870951.275 7 100805152.714 7     -2395.672          46.000  
R17  23441586.048 3               3     -3421.792          19.000  
R18  19726533.542 5 105301512.30325     -2545.387          34.000  
R19  18726169.032 5 100172383.085 5       -84.151          30.000  
E11  24445098.613 5 128459876.683 5     -2293.446          31.000  
E25  23752033.551 7 124817814.761 7     -1874.753          43.000  
E30  25804376.344 4               4      2573.411          29.000  
J 2  37054351.017 6 194721929.34526       744.864          39.000  
J 3  37316399.733 7 196099002.57027      -553.852          43.000  
J 4  36640432.079 6 192546771.822 6       300.567          36.000  
> 2024 11 28 12 41 49.7970000  0 24                     
G 2  19913161.260 7 104644367.179 7     -1427.100          42.000  
G 3  21673140.645 7 113893086.332 7      3258.925          43.000  
G 7  22368049.934 4 117544975.646 4     -3028.989          27.000  
G 8  22128759.147 5 116287259.763 5     -2417.286          30.000  
G14  20066972.016 7 105452645.860 7      2167.377          43.000  
G17  21721323.436 6 114146323.318 6      1953.222          40.000  
G19  24343721.933 3               3      2791.047          22.000  
G21  20738273.255 7 108980377.323 7     -2700.164          45.000  
G22  22045238.513 5 115848555.716 5      2769.420          34.000  
G30  21591587.977 5 113464562.30325     -1910.038          31.000  
R 2  23005870.300 4               4       773.627          25.000  
R 3  23067190.352 3               3      2955.962          22.000  
R 9  19096150.912 6 101972329.512 6      2036.932          38.000  
R15  22797734.779 6 121824071.396 6     -4394.946          38.000  
R16  18871040.934 7 100805631.779 7     -2395.415          46.000  
R17  23441714.359 3               3     -3421.792          19.000  
R18  19726627.564 5 105302021.37025     -2544.865          31.000  
R19  18726169.992 5 100172399.922 5       -83.842          30.000  
E11  24445185.847 5 128460335.378 5     -2292.706          32.000  
E25  23752104.660 7 124818189.648 7     -1874.531          43.000  
E30  25804278.448 5 135602408.53215      2573.373          30.000  
J 2  37054322.556 6 194721780.31426       745.156          39.000  
J 3  37316420.848 7 196099113.31527      -553.836          43.000  
J 4  36640420.597 6 192546711.726 6       299.467          36.000  
> 2024 11 28 12 41 49.9970000  0 24                     
G 2  19913215.425 7 104644652.520 7     -1426.245          42.000  
G 3  21673016.714 7 113892434.425 7      3260.004          43.000  
G 7  22368165.996 4 117545581.340 4     -3028.682          27.000  
G 8  22128846.206 5 116287743.115 5     -2416.870          30.000  
G14  20066889.512 7 105452212.310 7      2168.195          43.000  
G17  21721249.150 6 114145932.578 6      1954.181          40.000  
G19  24343616.918 3               3      2798.847          22.000  
G21  20738376.141 7 108980917.249 7     -2699.343          45.000  
G22  22045133.166 5 115848001.584 5      2771.351          34.000  
G30  21591658.790 5 113464944.35325     -1909.459          31.000  
R 2  23005840.635 4               4       775.302          24.000  
R 3  23067080.084 3               3      2963.196          23.000  
R 9  19096074.637 6 101971922.026 6      2038.015          38.000  
R15  22797899.352 6 121824950.349 6     -4394.134          38.000  
R16  18871130.646 7 100806110.805 7     -2394.789          47.000  
R17  23441841.833 3               3     -3424.485          19.000  
R18  19726720.992 5 105302530.43425     -2546.005          30.000  
R19  18726170.777 4 100172416.707 4       -83.794          29.000  
E11  24445272.470 5 128460794.025 5     -2292.933          32.000  
E25  23752175.805 7 124818564.465 7     -1873.673          43.000  
E30  25804182.385 5 135601893.777 5      2574.785          31.000  
J 2  37054294.269 6 194721631.23526       745.765          39.000  
J 3  37316441.893 7 196099223.98627      -552.948          43.000  
J 4  36640409.167 6 192546651.494 6       301.088          36.000  
> 2024 11 28 12 41 50.1970000  0 24                     
G 2  19913269.678 7 104644937.869 7     -1426.849          42.000  
G 3  21672892.765 7 113891782.536 7      3259.145          43.000  
G 7  22368282.057 4 117546187.042 4     -3028.597          27.000  
G 8  22128938.657 5 116288226.455 5     -2416.635          31.000  
G14  20066807.059 7 105451778.764 7      2167.487          43.000  
G17  21721174.865 6 114145541.820 6      1953.592          38.000  
G19  24343512.688 3               3      2797.532          22.000  
G21  20738478.993 7 108981457.184 7     -2699.814          45.000  
G22  22045027.645 5 115847447.532 5      2770.444          34.000  
G30  21591732.884 5 113465326.39925     -1909.453          30.000  
R 2  23005812.226 4               4       775.623          24.000  
R 3  23066969.851 3               3      2960.576          23.000  
R 9  19095998.240 6 101971514.543 6      2037.095          38.000  
R15  22798063.733 6 121825829.286 6     -4394.684          39.000  
R16  18871220.305 7 100806589.852 7     -2395.547          47.000  
R17  23441970.720 3               3     -3424.485          19.000  
R18  19726817.474 5 105303039.37325     -2544.829          30.000  
R19  18726172.400 4 100172433.397 4       -83.192          29.000  
E11  24445365.410 5 128461252.674 5     -2293.786          32.000  
E25  23752247.351 7 124818939.264 7     -1874.232          43.000  
E30  25804083.181 5 135601379.045 5      2573.966          31.000  
J 2  37054265.860 6 194721482.12126       745.180          39.000  
J 3  37316463.007 7 196099334.64327      -553.448          43.000  
J 4  36640397.824 6 192546591.250 6       301.002          36.000  
> 2024 11 28 12 41 50.3970000  0 24                     
G 2  19913323.879 7 104645223.263 7     -1426.740          42.000  
G 3  21672768.607 7 113891130.664 7      3259.664          43.000  
G 7  22368396.967 4               4     -3064.739          26.000  
G 8  22129031.039 5 116288709.764 5     -2416.393          31.000  
G14  20066724.572 7 105451345.221 7      2167.853          42.000  
G17  21721100.527 6 114145151.041 6      1954.168          38.000  
G19  24343409.138 3               3      2793.060          23.000  
G21  20738581.844 7 108981997.127 7     -2699.609          44.000  
G22  22044922.350 5 115846893.475 5      2769.963          34.000  
G30  21591803.505 5 113465708.55725     -1910.769          30.000  
R 2  23005783.381 4               4       775.721          24.000  
R 3  23066860.037 3               3      2957.249          23.000  
R 9  19095921.826 6 101971107.107 6      2036.837          37.000  
R15  22798227.974 6 121826708.194 6     -4394.421          39.000  
R16  18871309.842 7 100807068.921 7     -2395.336          47.000  
R17  23442098.822 3               3     -3418.783          19.000  
R18  19726912.369 5 105303548.30025     -2545.407          34.000  
R19  18726173.307 4 100172450.280 4       -84.161          29.000  
E11  24445449.241 5 128461711.334 5     -2293.497          32.000  
E25  23752318.792 7 124819314.098 7     -1874.130          44.000  
E30  25803980.329 5 135600864.375 5      2573.574          31.000  
J 2  37054237.521 6 194721333.01226       745.701          39.000  
J 3  37316484.052 7 196099445.28927      -553.284          44.000  
J 4  36640386.569 6 192546531.056 6       301.014          36.000  
> 2024 11 28 12 41 50.5970000  0 24                     
G 2  19913378.166 6 104645508.629 6     -1426.721          41.000  
G 3  21672644.780 7 113890478.797 7      3259.399          43.000  
G 7  22368511.824 2               2     -3033.489          12.000  
G 8  22129122.792 5 116289193.147 5     -2416.613          31.000  
G14  20066642.033 7 105450911.732 7      2167.285          42.000  
G17  21721026.311 6 114144760.343 6      1953.256          38.000  
G19  24343305.711 3               3      2794.531          23.000  
G21  20738684.661 7 108982537.069 7     -2699.773          44.000  
G22  22044817.108 5 115846339.416 5      2770.159          34.000  
G30  21591875.784 5 113466090.67925     -1910.770          30.000  
R 2  23005754.134 3               3       777.193          23.000  
R 3  23066750.694 3               3      2964.883          23.000  
R 9  19095845.499 6 101970699.706 6      2036.900          37.000  
R15  22798392.460 6 121827587.135 6     -4394.629          39.000  
R16  18871399.484 7 100807548.029 7     -2395.698          47.000  
R17  23442226.418 3               3     -3418.783          18.000  
R18  19727008.397 6 105304057.31126     -2545.081          37.000  
R19  18726177.670 4 100172467.069 4       -84.123          29.000  
E11  24445538.237 5 128462169.948 5     -2293.123          32.000  
E25  23752390.250 7 124819688.943 7     -1874.311          44.000  
E30  25803890.094 5 135600349.674 5      2573.246          31.000  
J 2  37054208.885 6 194721183.91326       745.444          39.000  
J 3  37316505.185 7 196099555.93127      -553.155          44.000  
J 4  36640375.000 6 192546470.906 6       300.745          36.000  
> 2024 11 28 12 41 50.7970000  0 23                     
G 2  19913432.367 6 104645794.007 6     -1427.399          41.000  
G 3  21672520.796 7 113889826.975 7      3258.967          43.000  
G 8  22129212.050 5 116289676.562 5     -2416.824          30.000  
G14  20066559.650 7 105450478.244 7      2167.523          42.000  
G17  21720951.851 6 114144369.628 6      1953.351          38.000  
G19  24343200.887 3               3      2784.944          23.000  
G21  20738787.548 7 108983077.052 7     -2699.923          44.000  
G22  22044711.674 5 115845785.310 5      2770.169          30.000  
G30  21591949.930 5 113466472.74525     -1909.318          30.000  
R 2  23005724.591 3               3       777.658          23.000  
R 3  23066639.780 3               3      2958.663          23.000  
R 9  19095769.206 6 101970292.384 6      2036.624          37.000  
R15  22798556.876 6 121828466.121 6     -4395.032          39.000  
R16  18871489.230 7 100808027.189 7     -2395.942          47.000  
R17  23442354.084 3               3     -3418.783          18.000  
R18  19727104.635 6 105304566.32726     -2545.105          37.000  
R19  18726182.434 4 100172483.977 4       -84.712          29.000  
E11  24445625.139 5 128462628.675 5     -2293.776          32.000  
E25  23752461.639 7 124820063.824 7     -1874.344          44.000  
E30  25803792.704 5 135599835.003 5      2573.664          31.000  
J 2  37054180.563 6 194721034.84626       745.267          39.000  
J 3  37316526.282 7 196099666.61427      -553.381          44.000  
J 4  36640363.517 6 192546410.708 6       300.645          36.000  
> 2024 11 28 12 41 50.9970000  0 23                     
G 2  19913486.776 7 104646079.517 7     -1427.161          42.000  
G 3  21672396.847 7 113889175.241 7      3259.000          43.000  
G 8  22129303.716 5 116290160.007 5     -2417.820          30.000  
G14  20066477.268 7 105450044.852 7      2166.931          42.000  
G17  21720877.670 6 114143978.931 6      1953.368          38.000  
G19  24343095.086 3               3      2798.264          23.000  
G21  20738890.382 7 108983617.117 7     -2700.215          44.000  
G22  22044606.275 5 115845231.314 5      2770.192          30.000  
G30  21592021.458 5 113466854.95525     -1910.271          30.000  
R 2  23005695.589 3               3       768.812          23.000  
R 3  23066529.233 3               3      2961.596          23.000  
R 9  19095692.862 6 101969885.155 6      2035.991          38.000  
R15  22798721.414 6 121829345.186 6     -4394.800          39.000  
R16  18871578.994 7 100808506.440 7     -2396.082          46.000  
R17  23442481.837 3               3     -3418.783          18.000  
R18  19727199.477 6 105305075.42326     -2544.984          37.000  
R19  18726184.196 4 100172500.871 4       -84.521          29.000  
E11  24445709.825 5 128463087.402 5     -2293.140          32.000  
E25  23752533.115 7 124820438.792 7     -1874.882          44.000  
E30  25803692.313 5 135599320.336 5      2573.564          31.000  
J 2  37054152.346 6 194720885.83426       745.235          40.000  
J 3  37316547.344 7 196099777.37427      -553.454          44.000  
J 4  36640351.983 5 192546350.567 5       300.925          33.000  
> 2024 11 28 12 41 51.1970000  0 23                     
G 2  19913541.151 7 104646365.047 7     -1427.655          43.000  
G 3  21672273.038 7 113888523.503 7      3258.858          43.000  
G 8  22129395.417 5 116290643.518 5     -2416.736          31.000  
G14  20066394.815 6 105449611.495 6      2166.760          41.000  
G17  21720803.472 6 114143588.348 6      1952.911          40.000  
G19  24342989.338 3               3      2786.021          23.000  
G21  20738993.164 7 108984157.205 7     -2700.971          44.000  
G22  22044500.963 5 115844677.380 5      2768.802          31.000  
G30  21592092.742 5 113467237.27425     -1911.166          30.000  
R 2  23005666.150 3               3       776.660          23.000  
R 3  23066418.703 3               3      2953.346          23.000  
R 9  19095616.622 6 101969477.943 6      2036.039          38.000  
R15  22798885.760 6 121830224.228 6     -4395.440          39.000  
R16  18871668.688 7 100808985.731 7     -2396.651          46.000  
R17  23442608.822 3               3     -3418.783          18.000  
R18  19727295.384 6 105305584.57726     -2546.152          38.000  
R19  18726188.175 4 100172517.897 4       -85.800          29.000  
E11  24445790.898 5 128463546.203 5     -2294.143          33.000  
E25  23752604.539 7 124820813.753 7     -1875.006          43.000  
E30  25803594.173 5 135598805.693 5      2573.439          31.000  
J 2  37054123.903 6 194720736.84926       744.814          40.000  
J 3  37316568.302 7 196099888.12127      -553.785          43.000  
J 4  36640340.378 5 192546290.428 5       301.055          33.000  
> 2024 11 28 12 41 51.3970000  0 24                     
G 2  19913595.491 7 104646650.665 7     -1428.381          42.000  
G 3  21672149.124 7 113887871.819 7      3258.278          42.000  
G 7  22368962.110 5               5     -3024.664          31.000  
G 8  22129487.292 5 116291127.019 5     -2417.215          32.000  
G14  20066312.555 6 105449178.191 6      2166.364          41.000  
G17  21720729.134 6 114143197.764 6      1952.718          39.000  
G19  24342883.625 3               3      2794.199          23.000  
G21  20739095.963 7 108984697.324 7     -2700.974          44.000  
G22  22044395.441 5 115844123.539 5      2768.294          31.000  
G30  21592161.252 5 113467619.58025     -1911.268          30.000  
R 2  23005636.938 4               4       776.074          24.000  
R 3  23066308.156 4               4      2963.086          24.000  
R 9  19095540.347 6 101969070.818 6      2035.438          38.000  
R15  22799050.281 6 121831103.308 6     -4395.343          39.000  
R16  18871758.365 7 100809465.098 7     -2397.124          46.000  
R17  23442736.157 3               3     -3427.766          18.000  
R18  19727390.679 6 105306093.71726     -2545.793          38.000  
R19  18726190.374 4 100172534.881 4       -84.751          29.000  
E11  24445880.139 5 128464004.989 5     -2294.496          32.000  
E25  23752675.719 7 124821188.798 7     -1875.391          43.000  
E30  25803492.403 5 135598291.206 5      2571.204          30.000  
J 2  37054095.494 6 194720587.88126       744.407          40.000  
J 3  37316589.487 7 196099998.91127      -554.010          43.000  
J 4  36640328.861 5 192546230.377 5       299.415          33.000  
> 2024 11 28 12 41 51.5970000  0 24                     
G 2  19913649.866 7 104646936.309 7     -1428.595          42.000  
G 3  21672025.472 7 113887220.193 7      3257.793          42.000  
G 7  22369081.137 5               5     -3024.664          32.000  
G 8  22129576.759 5 116291610.545 5     -2417.486          35.000  
G14  20066230.138 6 105448744.938 6      2166.150          41.000  
G17  21720654.971 6 114142807.208 6      1952.815          39.000  
G19  24342779.778 3               3      2784.381          23.000  
G21  20739198.971 7 108985237.512 7     -2700.960          44.000  
G22  22044289.885 5 115843569.691 5      2769.856          31.000  
G30  21592234.456 4 113468002.01524     -1911.471          29.000  
R 2  23005607.413 4               4       774.786          25.000  
R 3  23066198.517 4               4      2957.372          24.000  
R 9  19095463.984 6 101968663.730 6      2035.471          37.000  
R15  22799214.801 6 121831982.457 6     -4395.904          39.000  
R16  18871848.112 7 100809944.529 7     -2397.366          46.000  
R17  23442863.508 3               3     -3427.766          18.000  
R18  19727485.870 6 105306602.92826     -2546.686          37.000  
R19  18726195.766 5 100172552.069 5       -86.012          30.000  
E11  24445967.233 5 128464463.780 5     -2294.030          32.000  
E25  23752747.195 7 124821563.852 7     -1875.314          43.000  
E30  25803391.332 4 135597776.678 4      2572.411          29.000  
J 2  37054067.085 6 194720438.93126       744.733          39.000  
J 3  37316610.427 7 196100109.73427      -554.068          43.000  
J 4  36640317.501 5 192546170.384 5       299.096          33.000  
> 2024 11 28 12 41 51.7970000  0 24                     
G 2  19913704.276 7 104647221.989 7     -1428.571          42.000  
G 3  21671901.627 7 113886568.578 7      3257.968          42.000  
G 7  22369198.857 5               5     -3025.732          32.000  
G 8  22129666.960 6 116292094.131 6     -2418.027          36.000  
G14  20066147.808 6 105448311.731 6      2165.753          41.000  
G17  21720580.772 6 114142416.725 6      1952.508          40.000  
G19  24342676.334 3               3      2797.435          23.000  
G21  20739301.718 7 108985777.716 7     -2701.181          44.000  
G22  22044184.642 5 115843015.869 5      2769.610          32.000  
G30  21592307.712 4 113468384.38824     -1911.801          29.000  
R 2  23005578.899 4               4       774.042          25.000  
R 3  23066087.114 3               3      2955.608          23.000  
R 9  19095387.814 6 101968256.745 6      2034.910          37.000  
R15  22799379.322 6 121832861.672 6     -4396.209          39.000  
R16  18871937.910 7 100810424.019 7     -2397.577          46.000  
R17  23442991.628 3               3     -3427.766          18.000  
R18  19727582.230 6 105307112.16626     -2546.470          38.000  
R19  18726200.600 5 100172569.156 5       -85.452          30.000  
E11  24446057.451 5 128464922.666 5     -2294.215          32.000  
E25  23752818.514 7 124821938.975 7     -1875.637          43.000  
E30  25803299.578 4 135597262.166 4      2572.538          29.000  
J 2  37054038.780 6 194720290.04726       744.326          39.000  
J 3  37316631.437 7 196100220.60027      -554.427          43.000  
J 4  36640305.914 5 192546110.403 5       298.781          33.000  
> 2024 11 28 12 41 51.9970000  0 24                     
G 2  19913758.616 7 104647507.654 7     -1428.308          42.000  
G 3  21671777.888 7 113885916.957 7      3257.859          43.000  
G 7  22369317.536 5               5     -3035.986          31.000  
G 8  22129756.933 6 116292577.671 6     -2417.891          36.000  
G14  20066065.443 6 105447878.467 6      2166.382          41.000  
G17  21720506.522 6 114142026.158 6      1952.559          39.000  
G19  24342569.154 4               4      2791.001          24.000  
G21  20739404.483 7 108986317.905 7     -2700.943          44.000  
G22  22044079.313 5 115842462.070 5      2768.455          32.000  
G30  21592379.188 4 113468766.71424     -1911.260          29.000  
R 2  23005550.525 4               4       774.664          26.000  
R 3  23065976.131 3               3      2957.201          23.000  
R 9  19095311.592 6 101967849.750 6      2034.956          37.000  
R15  22799543.703 6 121833740.837 6     -4396.044          39.000  
R16  18872027.604 7 100810903.508 7     -2397.341          46.000  
R17  23443119.520 2               2     -3427.766          17.000  
R18  19727677.666 6 105307621.39126     -2546.040          38.000  
R19  18726205.084 5 100172586.333 5       -85.917          30.000  
E11  24446145.609 5 128465381.506 5     -2294.256          32.000  
E25  23752890.060 7 124822314.062 7     -1875.420          43.000  
E30  25803204.283 4 135596747.590 4      2573.231          29.000  
J 2  37054010.459 6 194720141.09926       744.688          39.000  
J 3  37316652.499 7 196100331.42627      -554.172          43.000  
J 4  36640294.449 5 192546050.324 5       300.714          33.000  
> 2024 11 28 12 41 52.1970000  0 24                     
G 2  19913812.869 6 104647793.406 6     -1428.857          41.000  
G 3  21671653.991 7 113885265.394 7      3257.876          43.000  
G 7  22369441.066 5               5     -3033.105          31.000  
G 8  22129849.035 6 116293061.277 6     -2418.130          36.000  
G14  20065983.165 6 105447445.328 6      2165.753          41.000  
G17  21720432.498 5 114141635.660 5      1952.246          35.000  
G19  24342462.533 4               4      2788.672          24.000  
G21  20739507.230 7 108986858.169 7     -2701.553          44.000  
G22  22043974.018 5 115841908.299 5      2768.727          33.000  
G30  21592450.716 4 113469149.17624     -1912.577          28.000  
R 2  23005520.842 4               4       773.377          26.000  
R 3  23065866.299 3               3      2945.585          23.000  
R 9  19095235.387 6 101967442.841 6      2034.414          38.000  
R15  22799708.206 6 121834620.042 6     -4395.667          39.000  
R16  18872117.403 7 100811383.091 7     -2397.880          46.000  
R17  23443247.535 2               2     -3427.766          17.000  
R18  19727773.572 6 105308130.69326     -2546.347          38.000  
R19  18726209.185 5 100172603.531 5       -86.490          30.000  
E11  24446233.279 5 128465840.429 5     -2294.208          32.000  
E25  23752961.448 7 124822689.237 7     -1875.977          44.000  
E30  25803105.480 4 135596233.111 4      2572.200          29.000  
J 2  37053982.189 6 194719992.21826       744.327          39.000  
J 3  37316673.632 7 196100442.31227      -554.200          43.000  
J 4  36640283.072 5 192545990.406 5       299.567          33.000  
> 2024 11 28 12 41 52.3970000  0 24                     
G 2  19913867.243 6 104648079.115 6     -1428.674          41.000  
G 3  21671530.077 7 113884613.799 7      3257.902          43.000  
G 7  22369554.701 5               5     -3029.668          31.000  
G 8  22129942.132 6 116293544.841 6     -2417.977          36.000  
G14  20065900.817 7 105447012.178 7      2165.546          42.000  
G17  21720358.212 6 114141245.134 6      1952.273          36.000  
G19  24342356.070 4               4      2795.802          24.000  
G21  20739609.959 7 108987398.374 7     -2701.117          44.000  
G22  22043868.759 5 115841354.490 5      2768.892          33.000  
G30  21592523.937 4 113469531.66224     -1912.881          28.000  
R 2  23005491.246 4               4       773.529          25.000  
R 3  23065755.892 3               3      2959.946          23.000  
R 9  19095159.182 6 101967035.931 6      2034.578          39.000  
R15  22799872.622 6 121835499.229 6     -4396.100          39.000  
R16  18872207.202 7 100811862.657 7     -2398.011          47.000  
R17  23443375.847 2               2     -3427.766          17.000  
R18  19727869.688 6 105308639.95926     -2546.239          38.000  
R19  18726211.541 5 100172620.704 5       -85.823          30.000  
E11  24446321.001 5 128466299.337 5     -2295.102          32.000  
E25  23753032.802 7 124823064.366 7     -1875.797          44.000  
E30  25803010.795 4 135595718.700 4      2571.963          29.000  
J 2  37053953.972 6 194719843.32226       744.703          40.000  
J 3  37316694.781 7 196100553.15827      -554.393          43.000  
J 4  36640271.520 5 192545930.315 5       300.267          33.000  
> 2024 11 28 12 41 52.5970000  0 24                     
G 2  19913921.653 6 104648364.823 6     -1428.497          41.000  
G 3  21671406.059 7 113883962.244 7      3257.957          43.000  
G 7  22369670.484 5 117553409.33035     -3030.271          30.000  
G 8  22130033.013 6 116294028.429 6     -2417.322          36.000  
G14  20065818.382 7 105446579.016 7      2166.071          42.000  
G17  21720283.979 6 114140854.602 6      1953.167          38.000  
G19  24342250.252 4               4      2791.863          25.000  
G21  20739712.723 7 108987938.618 7     -2700.895          44.000  
G22  22043763.394 5 115840800.632 5      2769.645          33.000  
G30  21592594.977 4 113469914.16324     -1912.320          29.000  
R 2  23005462.471 4               4       773.554          25.000  
R 3  23065644.751 3               3      2962.754          23.000  
R 9  19095082.837 6 101966629.024 6      2034.806          39.000  
R15  22800037.056 6 121836378.395 6     -4395.385          39.000  
R16  18872297.018 7 100812342.251 7     -2397.554          47.000  
R17  23443503.617 2               2     -3423.466          17.000  
R18  19727964.931 6 105309149.22826     -2546.110          38.000  
R19  18726211.244 5 100172637.950 5       -86.155          30.000  
E11  24446410.067 5 128466758.183 5     -2293.490          32.000  
E25  23753104.226 7 124823439.502 7     -1875.321          44.000  
E30  25802908.519 4 135595204.145 4      2572.514          29.000  
J 2  37053925.720 6 194719694.41326       744.881          39.000  
J 3  37316715.774 7 196100663.98927      -553.626          43.000  
J 4  36640260.003 5 192545870.291 5       300.779          34.000  
> 2024 11 28 12 41 52.7970000  0 24                     
G 2  19913976.238 6 104648650.518 6     -1428.192          41.000  
G 3  21671282.022 7 113883310.643 7      3258.014          43.000  
G 7  22369781.258 5 117554015.20225     -3029.484          30.000  
G 8  22130124.051 5 116294511.942 5     -2416.788          35.000  
G14  20065735.947 7 105446145.817 7      2166.333          42.000  
G17  21720209.868 6 114140464.066 6      1952.784          38.000  
G19  24342144.643 4               4      2787.654          25.000  
G21  20739815.453 7 108988478.809 7     -2700.831          44.000  
G22  22043658.117 5 115840246.890 5      2769.288          33.000  
G30  21592669.420 4 113470296.53224     -1911.333          29.000  
R 2  23005433.521 4               4       774.335          25.000  
R 3  23065532.738 3               3      2966.343          22.000  
R 9  19095006.614 6 101966222.122 6      2034.584          39.000  
R15  22800201.559 6 121837257.543 6     -4395.569          39.000  
R16  18872386.852 7 100812821.847 7     -2398.115          47.000  
R17  23443631.405 2               2     -3423.466          17.000  
R18  19728061.064 6 105309658.45926     -2545.950          37.000  
R19  18726214.263 5 100172655.156 5       -86.129          30.000  
E11  24446498.592 5 128467217.081 5     -2294.327          31.000  
E25  23753175.685 7 124823814.602 7     -1875.418          44.000  
E30  25802808.791 4 135594689.545 4      2573.419          29.000  
J 2  37053897.311 6 194719545.44126       745.365          39.000  
J 3  37316736.958 7 196100774.78427      -553.743          43.000  
J 4  36640248.468 5 192545810.269 5       300.219          34.000  
> 2024 11 28 12 41 52.9970000  0 24                     
G 2  19914030.700 6 104648936.191 6     -1428.558          41.000  
G 3  21671158.143 7 113882658.976 7      3258.276          43.000  
G 7  22369891.735 5 117554621.13925     -3030.298          30.000  
G 8  22130219.346 5 116294995.407 5     -2416.978          35.000  
G14  20065653.548 6 105445712.584 6      2166.077          41.000  
G17  21720135.460 6 114140073.453 6      1953.177          40.000  
G19  24342038.563 4               4      2792.545          25.000  
G21  20739918.322 7 108989018.968 7     -2700.907          44.000  
G22  22043552.735 5 115839692.969 5      2768.853          33.000  
G30  21592744.595 4 113470678.93924     -1912.110          29.000  
R 2  23005404.676 4               4       774.664          25.000  
R 3  23065422.069 3               3      2960.281          22.000  
R 9  19094930.409 6 101965815.163 6      2034.560          39.000  
R15  22800366.079 6 121838136.616 6     -4395.166          39.000  
R16  18872476.546 7 100813301.380 7     -2397.665          46.000  
R17  23443759.036 2               2     -3423.466          17.000  
R18  19728154.667 6 105310167.65526     -2546.072          37.000  
R19  18726217.683 5 100172672.270 5       -85.315          30.000  
E11  24446587.571 5 128467675.829 5     -2293.426          31.000  
E25  23753246.951 7 124824189.666 7     -1875.203          44.000  
E30  25802714.124 4 135594175.131 4      2571.774          29.000  
J 2  37053868.920 6 194719396.43126       745.152          39.000  
J 3  37316758.056 7 196100885.52627      -553.906          43.000  
J 4  36640236.916 5 192545750.190 5       300.049          35.000  
> 2024 11 28 12 41 53.1970000  0 24                     
G 2  19914085.162 6 104649221.826 6     -1428.357          41.000  
G 3  21671034.107 7 113882007.299 7      3258.370          43.000  
G 7  22370008.076 5 117555226.96525     -3029.844          30.000  
G 8  22130311.989 5 116295478.857 5     -2417.765          35.000  
G14  20065571.078 6 105445279.323 6      2166.364          41.000  
G17  21720061.279 6 114139682.807 6      1953.375          40.000  
G19  24341933.146 4               4      2794.348          25.000  
G21  20740021.086 7 108989559.066 7     -2700.372          44.000  
G22  22043447.388 5 115839139.015 5      2769.823          33.000  
G30  21592821.778 4 113471061.33924     -1911.641          29.000  
R 2  23005376.459 4               4       774.139          25.000  
R 3  23065311.208 3               3      2958.748          22.000  
R 9  19094854.099 6 101965408.194 6      2035.188          39.000  
R15  22800530.513 6 121839015.638 6     -4395.056          39.000  
R16  18872566.293 7 100813780.897 7     -2397.729          46.000  
R17  23443886.143 2               2     -3423.466          16.000  
R18  19728248.549 5 105310676.77225     -2545.538          35.000  
R19  18726219.446 5 100172689.455 5       -85.635          30.000  
E11  24446674.246 5 128468134.622 5     -2293.988          31.000  
E25  23753318.236 7 124824564.685 7     -1874.981          43.000  
E30  25802618.793 4 135593660.435 4      2573.683          28.000  
J 2  37053840.528 6 194719247.36726       745.505          39.000  
J 3  37316779.083 7 196100996.22027      -553.449          43.000  
J 4  36640225.538 5 192545689.983 5       301.146          34.000  
> 2024 11 28 12 41 53.3970000  0 24                     
G 2  19914139.484 6 104649507.505 6     -1428.412          41.000  
G 3  21670910.176 7 113881355.658 7      3258.106          43.000  
G 7  22370124.957 5 117555832.87225     -3029.833          30.000  
G 8  22130404.371 5 116295962.333 5     -2418.055          34.000  
G14  20065488.713 6 105444846.124 6      2165.820          41.000  
G17  21719986.976 6 114139292.250 6      1952.552          38.000  
G19  24341829.003 4               4      2792.858          25.000  
G21  20740123.885 7 108990099.231 7     -2700.895          44.000  
G22  22043341.989 5 115838585.175 5      2768.945          33.000  
G30  21592895.243 4 113471443.73124     -1912.122          29.000  
R 2  23005347.631 4               4       773.230          25.000  
R 3  23065199.945 3               3      2962.741          23.000  
R 9  19094777.859 6 101965001.310 6      2034.381          38.000  
R15  22800695.068 6 121839894.702 6     -4394.989          37.000  
R16  18872656.022 7 100814260.494 7     -2398.197          46.000  
R17  23444013.512 2               2     -3423.466          16.000  
R18  19728341.472 5 105311185.97025     -2545.915          35.000  
R19  18726222.692 4 100172706.615 4       -86.091          29.000  
E11  24446760.520 5 128468593.469 5     -2294.433          31.000  
E25  23753389.555 7 124824939.769 7     -1875.432          43.000  
E30  25802517.390 4 135593145.787 4      2573.385          28.000  
J 2  37053812.242 6 194719098.35326       745.023          39.000  
J 3  37316800.163 7 196101106.95027      -553.694          43.000  
J 4  36640214.196 5 192545629.855 5       300.828          34.000  
> 2024 11 28 12 41 53.5970000  0 24                     
G 2  19914193.824 6 104649793.186 6     -1428.656          41.000  
G 3  21670786.262 7 113880704.022 7      3257.698          43.000  
G 7  22370238.837 5 117556438.67025     -3029.219          30.000  
G 8  22130497.328 5 116296445.806 5     -2417.053          34.000  
G14  20065406.470 6 105444412.911 6      2165.967          41.000  
G17  21719912.743 6 114138901.616 6      1952.996          39.000  
G19  24341722.417 4               4      2792.689          26.000  
G21  20740226.510 7 108990639.396 7     -2700.971          44.000  
G22  22043236.659 5 115838031.293 5      2769.563          33.000  
G30  21592970.262 4 113471826.09524     -1911.185          29.000  
R 2  23005318.995 4               4       773.431          26.000  
R 3  23065089.416 3               3      2966.456          23.000  
R 9  19094701.794 6 101964594.443 6      2033.994          38.000  
R15  22800859.449 6 121840773.821 6     -4395.587          39.000  
R16  18872745.786 7 100814740.117 7     -2398.355          46.000  
R17  23444140.672 2               2     -3423.466          16.000  
R18  19728436.959 5 105311695.15725     -2546.536          35.000  
R19  18726225.152 5 100172723.807 5       -85.711          30.000  
E11  24446846.392 5 128469052.255 5     -2294.565          31.000  
E25  23753461.031 7 124825314.847 7     -1875.530          43.000  
E30  25802419.477 4 135592631.120 4      2573.550          29.000  
J 2  37053783.903 6 194718949.32226       745.085          40.000  
J 3  37316821.243 7 196101217.66827      -553.732          43.000  
J 4  36640202.748 5 192545569.697 5       300.771          34.000  
> 2024 11 28 12 41 53.7970000  0 24                     
G 2  19914248.234 6 104650078.925 6     -1428.699          41.000  
G 3  21670662.295 7 113880052.422 7      3257.867          43.000  
G 7  22370357.551 5 117557044.62625     -3029.209          31.000  
G 8  22130588.663 5 116296929.285 5     -2417.737          34.000  
G14  20065324.035 6 105443979.764 6      2165.845          41.000  
G17  21719838.475 6 114138511.031 6      1952.890          39.000  
G19  24341617.734 4               4      2793.467          26.000  
G21  20740329.414 7 108991179.635 7     -2701.188          45.000  
G22  22043131.400 5 115837477.474 5      2769.466          33.000  
G30  21593041.406 4 113472208.71224     -1913.695          29.000  
R 2  23005289.260 4 122760554.07934       772.986          26.000  
R 3  23064978.485 3               3      2960.536          23.000  
R 9  19094625.554 6 101964187.643 6      2034.111          38.000  
R15  22801023.761 6 121841652.936 6     -4395.569          40.000  
R16  18872835.619 7 100815219.833 7     -2398.687          46.000  
R17  23444267.832 2               2     -3423.466          16.000  
R18  19728532.779 5 105312204.38325     -2546.130          35.000  
R19  18726229.061 5 100172741.085 5       -86.544          30.000  
E11  24446933.888 5 128469511.088 5     -2294.526          31.000  
E25  23753532.385 7 124825689.993 7     -1875.727          43.000  
E30  25802315.631 4 135592116.588 4      2572.298          29.000  
J 2  37053755.511 6 194718800.32226       744.988          40.000  
J 3  37316842.393 7 196101328.43227      -553.708          43.000  
J 4  36640191.249 5 192545509.591 5       300.605          35.000  
> 2024 11 28 12 41 53.9970000  0 23                     
G 2  19914302.591 6 104650364.672 6     -1428.998          41.000  
G 3  21670538.399 7 113879400.852 7      3257.619          43.000  
G 7  22370472.147 5 117557650.55425     -3030.317          31.000  
G 8  22130680.922 5 116297412.798 5     -2417.883          34.000  
G14  20065241.548 6 105443546.665 6      2165.192          41.000  
G17  21719764.259 6 114138120.512 6      1951.775          38.000  
G19  24341511.287 4               4      2792.416          25.000  
G21  20740432.213 7 108991719.857 7     -2701.570          45.000  
G22  22043026.122 5 115836923.656 5      2768.531          33.000  
G30  21593107.822 4 113472591.17424     -1912.163          29.000  
R 2  23005260.834 4 122760399.48424       773.047          27.000  
R 3  23064867.379 3               3      2960.323          23.000  
R 9  19094549.436 6 101963780.891 6      2033.360          39.000  
R15  22801188.054 6 121842532.069 6     -4395.721          40.000  
R16  18872925.436 7 100815699.557 7     -2398.842          47.000  
R18  19728626.957 5 105312713.61125     -2545.832          35.000  
R19  18726231.609 5 100172758.379 5       -86.632          30.000  
E11  24447021.750 5 128469969.905 5     -2294.024          31.000  
E25  23753603.582 7 124826065.123 7     -1875.847          43.000  
E30  25802221.155 4 135591602.062 4      2572.731          29.000  
J 2  37053727.120 6 194718651.32126       744.957          40.000  
J 3  37316863.490 7 196101439.19327      -553.902          43.000  
J 4  36640179.801 5 192545449.461 5       300.577          35.000  
> 2024 11 28 12 41 54.1970000  0 23                     
G 2  19914356.914 6 104650650.464 6     -1429.236          41.000  
G 3  21670414.328 7 113878749.296 7      3257.570          43.000  
G 7  22370588.906 5 117558256.46425     -3029.880          31.000  
G 8  22130773.635 5 116297896.336 5     -2418.564          34.000  
G14  20065159.061 6 105443113.555 6      2165.088          41.000  
G17  21719689.921 6 114137729.949 6      1952.839          38.000  
G19  24341406.830 4               4      2793.560          26.000  
G21  20740534.995 7 108992260.084 7     -2701.371          45.000  
G22  22042920.775 5 115836369.811 5      2769.613          33.000  
G30  21593182.212 4 113472973.761 4     -1913.260          28.000  
R 2  23005232.250 4 122760244.97724       772.241          27.000  
R 3  23064757.251 4               4      2956.291          24.000  
R 9  19094473.248 6 101963374.164 6      2033.356          39.000  
R15  22801352.453 6 121843411.204 6     -4395.691          39.000  
R16  18873015.095 7 100816179.326 7     -2399.096          47.000  
R18  19728722.445 5 105313222.91825     -2546.751          35.000  
R19  18726234.261 5 100172775.640 5       -85.853          30.000  
E11  24447110.990 5 128470428.804 5     -2294.637          31.000  
E25  23753674.918 7 124826440.283 7     -1875.907          44.000  
E30  25802133.852 4 135591087.663 4      2571.283          29.000  
J 2  37053698.850 6 194718502.36326       744.593          40.000  
J 3  37316884.570 7 196101549.94227      -553.849          43.000  
J 4  36640168.319 5 192545389.416 5       299.922          31.000  
> 2024 11 28 12 41 54.3970000  0 23                     
G 2  19914411.341 6 104650936.277 6     -1429.242          41.000  
G 3  21670290.239 7 113878097.742 7      3257.847          43.000  
G 7  22370703.083 5 117558862.42525     -3029.778          31.000  
G 8  22130863.347 5 116298379.858 5     -2417.552          35.000  
G14  20065076.574 7 105442680.476 7      2165.381          43.000  
G17  21719615.636 6 114137339.401 6      1953.021          38.000  
G19  24341301.466 4               4      2793.510          25.000  
G21  20740637.794 7 108992800.349 7     -2701.383          45.000  
G22  22042815.533 5 115835815.958 5      2769.730          32.000  
G30  21593251.123 4 113473356.251 4     -1912.199          28.000  
R 2  23005204.295 4 122760090.41724       772.809          27.000  
R 3  23064647.349 4               4      2961.047          24.000  
R 9  19094396.956 6 101962967.489 6      2033.456          39.000  
R15  22801516.956 6 121844290.428 6     -4395.996          38.000  
R16  18873104.876 7 100816659.146 7     -2399.200          47.000  
R18  19728819.870 5 105313732.18925     -2546.300          35.000  
R19  18726238.955 5 100172792.974 5       -86.142          30.000  
E11  24447199.218 5 128470887.709 5     -2294.460          31.000  
E25  23753746.446 7 124826815.482 7     -1875.937          43.000  
E30  25802039.498 4 135590573.106 4      2572.045          29.000  
J 2  37053670.528 6 194718353.38626       744.910          40.000  
J 3  37316905.737 7 196101660.73027      -553.825          43.000  
J 4  36640156.767 5 192545329.367 5       300.530          32.000  
> 2024 11 28 12 41 54.5970000  0 23                     
G 2  19914465.803 6 104651222.069 6     -1428.650          41.000  
G 3  21670166.168 7 113877446.192 7      3258.078          43.000  
G 7  22370816.213 5 117559468.37225     -3029.637          32.000  
G 8  22130954.995 5 116298863.390 5     -2417.597          35.000  
G14  20064994.156 7 105442247.395 7      2165.894          43.000  
G17  21719541.350 6 114136948.845 6      1953.249          39.000  
G19  24341195.159 4               4      2791.457          25.000  
G21  20740740.506 7 108993340.580 7     -2700.806          45.000  
G22  22042710.151 5 115835262.264 5      2768.677          32.000  
G30  21593325.269 4 113473738.787 4     -1912.718          28.000  
R 2  23005174.700 4 122759935.92524       772.736          27.000  
R 3  23064536.663 4               4      2955.977          24.000  
R 9  19094320.803 6 101962560.816 6      2033.610          39.000  
R15  22801681.512 6 121845169.505 6     -4395.032          38.000  
R16  18873194.745 7 100817138.944 7     -2398.718          47.000  
R18  19728916.474 5 105314241.43025     -2545.931          35.000  
R19  18726245.202 5 100172810.394 5       -87.372          30.000  
E11  24447285.789 5 128471346.584 5     -2293.852          31.000  
E25  23753818.062 7 124827190.664 7     -1875.710          43.000  
E30  25801942.266 4 135590058.532 4      2572.758          29.000  
J 2  37053642.172 6 194718204.37426       745.673          40.000  
J 3  37316926.782 7 196101771.49227      -553.653          43.000  
J 4  36640145.163 5 192545269.245 5       299.982          32.000  
> 2024 11 28 12 41 54.7970000  0 23                     
G 2  19914520.143 6 104651507.748 6     -1428.705          41.000  
G 3  21670041.958 7 113876794.532 7      3258.225          43.000  
G 7  22370931.873 5 117560074.21925     -3029.485          32.000  
G 8  22131046.434 5 116299346.798 5     -2416.814          35.000  
G14  20064911.791 7 105441814.222 7      2165.778          43.000  
G17  21719466.942 6 114136558.168 6      1953.338          39.000  
G19  24341088.521 4               4      2793.264          25.000  
G21  20740843.462 7 108993880.712 7     -2700.673          44.000  
G22  22042605.328 5 115834708.208 5      2770.564          31.000  
G30  21593398.612 4 113474121.243 4     -1912.058          28.000  
R 2  23005146.535 4 122759781.25624       773.682          26.000  
R 3  23064425.924 4               4      2961.702          24.000  
R 9  19094244.633 6 101962154.054 6      2033.757          39.000  
R15  22801845.910 6 121846048.544 6     -4394.903          38.000  
R16  18873284.648 7 100817618.662 7     -2398.706          46.000  
R18  19729011.525 5 105314750.59625     -2545.621          35.000  
R19  18726248.902 5 100172827.568 5       -85.968          30.000  
E11  24447374.174 5 128471805.318 5     -2293.545          31.000  
E25  23753889.381 7 124827565.720 7     -1875.465          43.000  
E30  25801841.299 4 135589543.861 4      2573.933          29.000  
J 2  37053613.868 6 194718055.26826       745.630          40.000  
J 3  37316947.879 7 196101882.12027      -553.231          43.000  
J 4  36640133.680 5 192545208.931 5       301.842          32.000  
> 2024 11 28 12 41 54.9970000  0 23                     
G 2  19914574.640 6 104651793.432 6     -1428.210          41.000  
G 3  21669917.956 7 113876142.831 7      3258.476          43.000  
G 7  22371048.597 5 117560679.99625     -3028.403          31.000  
G 8  22131140.055 5 116299830.154 5     -2416.364          35.000  
G14  20064829.252 7 105441381.000 7      2166.321          43.000  
G17  21719392.569 6 114136167.483 6      1953.675          39.000  
G19  24340981.813 4               4      2793.043          25.000  
G21  20740946.209 7 108994420.815 7     -2700.444          44.000  
G22  22042499.423 5 115834154.327 5      2769.215          32.000  
G30  21593472.531 4 113474503.661 4     -1912.565          28.000  
R 2  23005118.283 4 122759626.61924       773.279          27.000  
R 3  23064315.533 4               4      2961.906          24.000  
R 9  19094168.358 6 101961747.298 6      2033.643          39.000  
R15  22802010.396 6 121846927.563 6     -4395.001          38.000  
R16  18873374.447 7 100818098.368 7     -2398.449          46.000  
R18  19729108.357 5 105315259.75125     -2545.053          35.000  
R19  18726254.765 5 100172844.780 5       -86.100          30.000  
E11  24447460.849 5 128472264.056 5     -2293.832          31.000  
E25  23753960.857 7 124827940.744 7     -1874.844          43.000  
E30  25801743.700 4 135589029.128 4      2573.989          29.000  
J 2  37053585.424 6 194717906.11226       746.022          40.000  
J 3  37316968.924 7 196101992.71027      -552.768          43.000  
J 4  36640122.198 5 192545148.678 5       301.200          33.000  
> 2024 11 28 12 41 55.1970000  0 23                     
G 2  19914629.085 6 104652079.131 6     -1428.668          41.000  
G 3  21669794.095 7 113875491.148 7      3258.519          42.000  
G 7  22371164.484 5 117561285.81125     -3028.648          31.000  
G 8  22131232.227 5 116300313.539 5     -2416.968          34.000  
G14  20064746.904 7 105440947.820 7      2165.753          42.000  
G17  21719318.319 6 114135776.788 6      1953.352          39.000  
G19  24340876.815 4               4      2793.716          25.000  
G21  20741048.834 7 108994960.946 7     -2700.660          44.000  
G22  22042394.564 5 115833600.369 5      2769.453          32.000  
G30  21593544.670 4 113474886.139 4     -1912.271          28.000  
R 2  23005090.398 4 122759472.03424       772.778          27.000  
R 3  23064205.300 4               4      2957.982          24.000  
R 9  19094092.223 6 101961340.561 6      2033.325          38.000  
R15  22802174.847 6 121847806.552 6     -4395.227          38.000  
R16  18873464.263 7 100818578.106 7     -2398.855          46.000  
R18  19729203.408 5 105315768.85925     -2546.239          35.000  
R19  18726257.801 5 100172861.991 5       -85.698          30.000  
E11  24447546.896 5 128472722.797 5     -2293.813          30.000  
E25  23754032.229 7 124828315.805 7     -1875.439          43.000  
E30  25801647.933 4 135588514.494 4      2573.461          29.000  
J 2  37053557.032 6 194717756.958 6       745.976          40.000  
J 3  37316989.829 7 196102103.326 7      -553.141          43.000  
J 4  36640110.716 5 192545088.403 5       301.896          33.000  
> 2024 11 28 12 41 55.3970000  0 23                     
G 2  19914683.408 6 104652364.793 6     -1428.186          41.000  
G 3  21669670.128 7 113874839.488 7      3258.515          42.000  
G 7  22371279.359 5 117561891.64225     -3029.225          32.000  
G 8  22131324.416 5 116300796.925 5     -2416.616          34.000  
G14  20064664.452 7 105440514.614 7      2166.199          42.000  
G17  21719244.208 6 114135386.107 6      1953.768          39.000  
G19  24340771.799 4               4      2793.795          25.000  
G21  20741151.633 7 108995501.051 7     -2700.246          44.000  
G22  22042292.271 5 115833046.421 5      2769.420          32.000  
G30  21593618.555 4 113475268.639 4     -1912.907          28.000  
R 2  23005062.198 4 122759317.50024       772.546          27.000  
R 3  23064094.177 4               4      2958.002          24.000  
R 9  19094015.965 6 101960933.823 6      2033.573          38.000  
R15  22802339.245 6 121848685.513 6     -4394.842          38.000  
R16  18873554.132 7 100819057.846 7     -2398.542          46.000  
R18  19729297.063 5 105316277.98325     -2545.306          35.000  
R19  18726263.176 5 100172879.259 5       -85.818          30.000  
E11  24447634.130 5 128473181.543 5     -2293.729          30.000  
E25  23754103.478 7 124828690.849 7     -1875.185          43.000  
E30  25801547.053 4 135587999.785 4      2573.145          29.000  
J 2  37053528.815 6 194717607.788 6       746.138          40.000  
J 3  37317010.857 7 196102213.902 7      -552.631          43.000  
J 4  36640099.164 5 192545028.190 5       301.008          33.000  
> 2024 11 28 12 41 55.5970000  0 23                     
G 2  19914737.887 6 104652650.539 6     -1429.126          41.000  
G 3  21669546.110 7 113874187.841 7      3258.170          42.000  
G 7  22371394.321 5 117562497.42525     -3029.556          32.000  
G 8  22131415.908 5 116301280.292 5     -2415.984          34.000  
G14  20064582.122 7 105440081.464 7      2165.723          42.000  
G17  21719169.817 6 114134995.432 6      1953.038          39.000  
G19  24340668.005 4               4      2791.969          25.000  
G21  20741254.363 7 108996041.201 7     -2700.945          44.000  
G22  22042187.290 5 115832492.496 5      2769.437          33.000  
G30  21593688.704 4 113475651.090 4     -1912.638          28.000  
R 2  23005034.871 4 122759162.92524       772.607          27.000  
R 3  23063983.595 4               4      2960.279          25.000  
R 9  19093939.778 6 101960527.118 6      2033.401          38.000  
R15  22802503.522 6 121849564.537 6     -4395.422          38.000  
R16  18873644.018 7 100819537.651 7     -2399.145          46.000  
R18  19729390.945 5 105316787.13725     -2545.596          34.000  
R19  18726265.357 5 100172896.624 5       -87.140          30.000  
E11  24447720.072 5 128473640.268 5     -2294.023          31.000  
E25  23754174.954 7 124829065.928 7     -1875.605          43.000  
E30  25801453.136 4 135587485.109 4      2572.038          29.000  
J 2  37053500.563 6 194717458.659 6       745.495          40.000  
J 3  37317031.815 7 196102324.507 7      -553.134          43.000  
J 4  36640087.612 5 192544967.890 5       300.824          34.000  
> 2024 11 28 12 41 55.7970000  0 23                     
G 2  19914792.245 6 104652936.286 6     -1428.967          41.000  
G 3  21669422.056 7 113873536.229 7      3257.869          42.000  
G 7  22371507.398 5 117563103.28125     -3030.018          32.000  
G 8  22131507.521 5 116301763.717 5     -2417.576          33.000  
G14  20064499.634 7 105439648.356 7      2165.210          42.000  
G17  21719095.514 6 114134604.774 6      1952.926          41.000  
G19  24340564.369 4               4      2790.988          25.000  
G21  20741357.232 7 108996581.376 7     -2701.172          45.000  
G22  22042084.369 5 115831938.602 5      2769.152          33.000  
G30  21593760.669 4 113476033.590 4     -1912.486          28.000  
R 2  23005006.811 4 122759008.47024       772.022          28.000  
R 3  23063873.432 4               4      2955.005          25.000  
R 9  19093863.660 6 101960120.508 6      2032.711          38.000  
R15  22802667.955 6 121850443.579 6     -4395.428          39.000  
R16  18873733.852 7 100820017.510 7     -2399.777          47.000  
R18  19729485.142 5 105317296.31325     -2546.534          34.000  
R19  18726271.221 5 100172913.884 5       -86.320          30.000  
E11  24447807.323 5 128474099.001 5     -2294.076          31.000  
E25  23754246.151 7 124829441.041 7     -1875.803          44.000  
E30  25801356.462 4 135586970.368 4      2573.721          29.000  
J 2  37053472.294 6 194717309.517 6       745.392          40.000  
J 3  37317052.929 7 196102435.133 7      -553.363          43.000  
J 4  36640076.130 5 192544907.667 5       300.420          34.000  
