     3.03           OBSERVATION DATA    M: Mixed            RINEX VERSION / TYPE
Emlid RGL 1.2.7                         20241129 084001 UTC PGM / RUN BY / DATE 
format: u-blox                                              COMMENT             
                                                            MARKER NAME         
                                                            MARKER NUMBER       
                                                            MARKER TYPE         
                                                            OBSERVER / AGENCY   
                    EMLID REACH M+                          REC # / TYPE / VERS 
                                                            ANT # / TYPE        
 -3035494.2151  4047913.7628  3870439.5578                  APPROX POSITION XYZ 
        0.0000        0.0000        0.0000                  ANTENNA: DELTA H/E/N
G    4 C1C L1C D1C S1C                                      SYS / # / OBS TYPES 
R    4 C1C L1C D1C S1C                                      SYS / # / OBS TYPES 
E    4 C1C L1C D1C S1C                                      SYS / # / OBS TYPES 
J    4 C1C L1C D1C S1C                                      SYS / # / OBS TYPES 
C    4 C1I L1I D1I S1I                                      SYS / # / OBS TYPES 
  2024    11    29     8    39   23.7990000     GPS         TIME OF FIRST OBS   
  2024    11    29     8    40   19.5990000     GPS         TIME OF LAST OBS    
G                                                           SYS / PHASE SHIFT   
R                                                           SYS / PHASE SHIFT   
E                                                           SYS / PHASE SHIFT   
J                                                           SYS / PHASE SHIFT   
C                                                           SYS / PHASE SHIFT   
  0                                                         GLONASS SLOT / FRQ #
 C1C    0.000 C1P    0.000 C2C    0.000 C2P    0.000        GLONASS COD/PHS/BIS 
                                                            END OF HEADER       
> 2024 11 29  8 39 23.7990000  0 24                     
G 4  22048789.842 6 115867150.072 6     -2238.789          37.000  
G 7  23721447.535 4 124656986.65424      3145.284          27.000  
G 8  20546619.049 7 107973239.490 7      1987.958          46.000  
G 9  22326691.435 5 117327572.157 5      -845.188          31.000  
G16  20675998.680 7 108653105.82317     -1455.072          43.000  
G18  24317854.708 6 127791179.389 6     -1833.268          41.000  
G21  24100877.234 5 126651001.65015      3913.209          30.000  
G26  22455793.765 7 118006005.756 7     -2386.870          42.000  
G27  19696228.843 7 103504392.436 7      -198.663          45.000  
G31  23204271.279 6 121939233.848 6     -3288.065          41.000  
R 7  23413790.835 4               4      1027.094          26.000  
R14  23283883.925 5 124116152.06715     -2802.970          31.000  
R15  19984323.650 7 106790122.26717      -832.453          45.000  
R16  20503991.390 7 109528606.40517      2066.785          47.000  
R17  19786889.295 7 105883609.88617      -856.403          43.000  
R18  20105111.496 7 107322406.47617      2992.709          44.000  
R24  23373266.252 5 124987191.927 5     -3915.387          30.000  
E 4  25098830.571 6 131895217.057 6     -1926.764          36.000  
E14  22394445.455 7 117683623.864 7      3143.304          42.000  
E21  26096001.259 6 137135416.706 6     -1759.353          40.000  
E23  23465394.703 7 123311495.269 7      -218.387          43.000  
E26  25230885.914 6 132589224.266 6      1743.882          40.000  
J 2  38939782.077 7 204629936.193 7      -118.294          43.000  
J 3  37208284.152 6 195530854.86816       111.340          41.000  
> 2024 11 29  8 39 23.9990000  0 24                     
G 4  22048875.139 6 115867597.866 6     -2238.618          37.000  
G 7  23721327.530 4 124656357.61824      3144.918          27.000  
G 8  20546543.402 7 107972841.864 7      1988.068          46.000  
G 9  22326723.578 5 117327741.263 5      -844.725          31.000  
G16  20676053.980 7 108653396.828 7     -1455.060          43.000  
G18  24317924.561 6 127791546.041 6     -1833.112          41.000  
G21  24100727.005 5 126650219.143 5      3912.668          31.000  
G26  22455884.593 7 118006483.121 7     -2386.595          42.000  
G27  19696236.452 7 103504432.121 7      -198.471          45.000  
G31  23204396.484 6 121939891.445 6     -3288.082          41.000  
R 7  23413754.207 4               4      1026.239          26.000  
R14  23283989.883 5 124116712.958 5     -2805.110          31.000  
R15  19984354.677 7 106790288.759 7      -832.477          45.000  
R16  20503914.015 7 109528193.041 7      2066.718          47.000  
R17  19786921.351 7 105883781.228 7      -856.834          43.000  
R18  20104999.571 7 107321807.944 7      2992.336          44.000  
R24  23373411.525 5 124987975.261 5     -3916.066          30.000  
E 4  25098904.159 6 131895602.426 6     -1926.749          36.000  
E14  22394325.746 7 117682995.236 7      3143.047          42.000  
E21  26096068.164 6 137135768.569 6     -1759.662          40.000  
E23  23465403.027 7 123311538.955 7      -218.342          43.000  
E26  25230819.499 6 132588875.517 6      1743.806          40.000  
J 2  38939786.527 7 204629959.862 7      -118.220          43.000  
J 3  37208279.859 6 195530832.588 6       111.364          41.000  
> 2024 11 29  8 39 24.1990000  0 24                     
G 4  22048960.366 6 115868045.707 6     -2239.385          38.000  
G 7  23721208.031 4 124655728.581 4      3144.918          27.000  
G 8  20546467.616 7 107972444.292 7      1987.714          46.000  
G 9  22326755.809 5 117327910.480 5      -846.286          31.000  
G16  20676109.419 7 108653687.874 7     -1455.383          43.000  
G18  24317994.240 6 127791912.778 6     -1833.724          41.000  
G21  24100576.532 5 126649436.563 5      3913.032          31.000  
G26  22455975.369 7 118006960.520 7     -2387.028          42.000  
G27  19696244.130 7 103504471.866 7      -198.807          45.000  
G31  23204521.585 6 121940549.103 6     -3288.368          41.000  
R 7  23413716.601 4 125335430.99934      1025.995          26.000  
R14  23284094.549 5 124117273.711 5     -2803.856          30.000  
R15  19984385.773 7 106790455.299 7      -832.896          45.000  
R16  20503836.659 7 109527779.705 7      2066.510          47.000  
R17  19786953.442 7 105883952.598 7      -857.104          43.000  
R18  20104887.575 7 107321209.456 7      2992.264          45.000  
R24  23373558.037 5 124988758.570 5     -3916.529          30.000  
E 4  25098977.764 6 131895987.853 6     -1926.848          36.000  
E14  22394206.282 7 117682366.627 7      3142.986          42.000  
E21  26096135.050 6 137136120.462 6     -1759.500          40.000  
E23  23465411.508 7 123311582.679 7      -218.756          43.000  
E26  25230753.083 6 132588526.800 6      1743.397          40.000  
J 2  38939791.046 7 204629982.56237      -118.663          43.000  
J 3  37208275.653 6 195530807.84836       110.964          41.000  
> 2024 11 29  8 39 24.3990000  0 24                     
G 4  22049045.662 6 115868493.554 6     -2239.165          38.000  
G 7  23721088.462 4 124655099.519 4      3145.792          27.000  
G 8  20546392.004 7 107972046.730 7      1987.537          46.000  
G 9  22326787.935 5 117328079.675 5      -845.859          31.000  
G16  20676164.911 7 108653978.913 7     -1455.493          43.000  
G18  24318064.005 6 127792279.486 6     -1833.581          41.000  
G21  24100431.120 5 126648654.038 5      3912.883          31.000  
G26  22456066.163 7 118007437.921 7     -2387.147          42.000  
G27  19696251.755 7 103504511.636 7      -199.128          46.000  
G31  23204646.772 6 121941206.729 6     -3288.568          41.000  
R 7  23413679.031 4               4      1023.697          26.000  
R14  23284201.815 5 124117834.613 5     -2804.499          30.000  
R15  19984416.887 7 106790621.828 7      -832.898          45.000  
R16  20503759.337 7 109527366.382 7      2066.480          47.000  
R17  19786985.376 7 105884124.016 7      -857.275          43.000  
R18  20104775.562 7 107320611.004 7      2992.223          45.000  
R24  23373705.177 5 124989541.833 5     -3916.662          30.000  
E 4  25099050.898 6 131896373.278 6     -1926.966          36.000  
E14  22394086.835 7 117681738.054 7      3142.693          42.000  
E21  26096202.181 6 137136472.361 6     -1759.460          40.000  
E23  23465419.692 7 123311626.385 7      -218.565          43.000  
E26  25230686.685 6 132588178.108 6      1743.425          40.000  
J 2  38939795.601 7 204630006.22927      -118.156          43.000  
J 3  37208271.413 6 195530785.58026       111.456          41.000  
> 2024 11 29  8 39 24.5990000  0 24                     
G 4  22049130.976 6 115868941.451 6     -2239.676          38.000  
G 7  23720968.893 4 124654470.526 4      3145.653          27.000  
G 8  20546316.323 7 107971649.208 7      1987.463          46.000  
G 9  22326820.148 5 117328248.922 5      -846.314          31.000  
G16  20676220.298 7 108654270.000 7     -1455.469          43.000  
G18  24318133.754 6 127792646.288 6     -1834.261          41.000  
G21  24100282.583 5 126647871.550 5      3912.758          31.000  
G26  22456157.061 7 118007915.365 7     -2387.315          42.000  
G27  19696259.329 7 103504551.454 7      -199.363          45.000  
G31  23204771.995 6 121941864.387 6     -3288.350          41.000  
R 7  23413641.304 4               4      1025.184          26.000  
R14  23284305.662 5 124118395.461 5     -2803.808          31.000  
R15  19984448.140 7 106790788.388 7      -832.859          45.000  
R16  20503681.997 7 109526953.081 7      2066.235          47.000  
R17  19787017.362 7 105884295.498 7      -857.533          43.000  
R18  20104663.392 7 107320012.614 7      2991.802          44.000  
R24  23373852.143 5 124990325.260 5     -3917.349          30.000  
E 4  25099124.363 6 131896758.774 6     -1927.793          36.000  
E14  22393967.109 7 117681109.487 7      3142.701          42.000  
E21  26096269.120 6 137136824.270 6     -1759.755          40.000  
E23  23465428.190 7 123311670.136 7      -218.756          43.000  
E26  25230620.392 6 132587829.460 6      1742.873          40.000  
J 2  38939800.190 7 204630029.94927      -118.571          43.000  
J 3  37208267.190 6 195530763.38826       111.108          41.000  
> 2024 11 29  8 39 24.7990000  0 24                     
G 4  22049216.238 6 115869389.403 6     -2240.383          38.000  
G 7  23720849.219 4 124653841.634 4      3144.846          26.000  
G 8  20546240.519 7 107971251.781 7      1986.725          46.000  
G 9  22326852.361 5 117328418.241 5      -846.672          31.000  
G16  20676275.668 7 108654561.142 7     -1456.110          43.000  
G18  24318203.625 6 127793013.117 6     -1834.158          41.000  
G21  24100132.738 5 126647089.138 5      3912.184          31.000  
G26  22456247.924 7 118008392.841 7     -2387.545          42.000  
G27  19696266.867 7 103504591.342 7      -199.653          45.000  
G31  23204896.991 6 121942522.134 6     -3288.956          41.000  
R 7  23413603.716 4               4      1025.132          27.000  
R14  23284412.178 5 124118956.391 5     -2805.058          30.000  
R15  19984479.411 7 106790955.054 7      -833.375          45.000  
R16  20503604.640 7 109526539.849 7      2066.065          47.000  
R17  19787049.453 7 105884467.055 7      -858.125          43.000  
R18  20104551.362 7 107319414.314 7      2991.324          44.000  
R24  23373998.760 5 124991108.601 5     -3917.006          30.000  
E 4  25099197.637 6 131897144.275 6     -1927.839          36.000  
E14  22393847.523 7 117680480.990 7      3142.246          42.000  
E21  26096336.129 6 137137176.248 6     -1760.121          40.000  
E23  23465436.479 7 123311713.946 7      -219.297          43.000  
E26  25230554.151 6 132587480.863 6      1742.862          40.000  
J 2  38939804.797 7 204630053.70727      -118.949          43.000  
J 3  37208263.089 6 195530741.25126       110.496          41.000  
> 2024 11 29  8 39 24.9990000  0 24                     
G 4  22049301.517 6 115869837.340 6     -2239.719          38.000  
G 7  23720728.429 4 124653212.742 4      3144.269          26.000  
G 8  20546164.890 7 107970854.328 7      1987.280          46.000  
G 9  22326884.591 5 117328587.579 5      -846.484          31.000  
G16  20676331.002 7 108654852.270 7     -1455.640          43.000  
G18  24318273.478 6 127793379.983 6     -1834.030          41.000  
G21  24099983.155 5 126646306.674 5      3912.391          31.000  
G26  22456338.735 7 118008870.335 7     -2387.451          42.000  
G27  19696274.406 7 103504631.245 7      -199.556          45.000  
G31  23205022.074 6 121943179.842 6     -3288.557          41.000  
R 7  23413566.128 4               4      1024.878          27.000  
R14  23284518.554 5 124119517.275 5     -2804.371          30.000  
R15  19984510.542 7 106791121.697 7      -833.291          45.000  
R16  20503527.127 7 109526126.617 7      2066.156          46.000  
R17  19787081.404 7 105884638.624 7      -857.702          43.000  
R18  20104439.279 7 107318816.002 7      2991.657          44.000  
R24  23374147.348 5 124991892.041 5     -3917.243          30.000  
E 4  25099270.910 6 131897529.779 6     -1927.359          37.000  
E14  22393727.937 7 117679852.474 7      3142.671          42.000  
E21  26096403.068 6 137137528.190 6     -1759.618          40.000  
E23  23465444.838 7 123311757.720 7      -218.717          43.000  
E26  25230487.648 6 132587132.250 6      1743.261          40.000  
J 2  38939809.334 7 204630077.44127      -118.603          43.000  
J 3  37208258.919 6 195530719.06326       111.100          41.000  
> 2024 11 29  8 39 25.1990000  0 24                     
G 4  22049386.709 6 115870285.296 6     -2239.443          38.000  
G 7  23720606.975 4 124652583.828 4      3144.854          26.000  
G 8  20546089.173 7 107970456.897 7      1987.311          46.000  
G 9  22326916.665 5 117328756.937 5      -847.645          31.000  
G16  20676386.337 7 108655143.419 7     -1455.664          43.000  
G18  24318343.279 6 127793746.866 6     -1834.658          41.000  
G21  24099834.183 5 126645524.235 5      3911.985          31.000  
G26  22456429.529 7 118009347.797 7     -2387.100          42.000  
G27  19696282.014 7 103504671.158 7      -199.638          45.000  
G31  23205147.210 6 121943837.590 6     -3288.722          41.000  
R 7  23413527.895 4               4      1023.367          26.000  
R14  23284624.303 5 124120078.182 5     -2804.448          30.000  
R15  19984541.481 7 106791288.346 7      -833.398          45.000  
R16  20503449.892 7 109525713.375 7      2066.138          47.000  
R17  19787113.478 7 105884810.253 7      -858.087          43.000  
R18  20104327.214 7 107318217.724 7      2991.356          45.000  
R24  23374293.232 5 124992675.470 5     -3917.004          30.000  
E 4  25099344.271 6 131897915.347 6     -1927.778          37.000  
E14  22393608.228 7 117679223.970 7      3142.437          42.000  
E21  26096469.868 6 137137880.145 6     -1759.638          40.000  
E23  23465453.039 7 123311801.523 7      -219.003          43.000  
E26  25230421.232 6 132586783.689 6      1742.860          40.000  
J 2  38939813.836 7 204630101.16127      -118.546          43.000  
J 3  37208254.678 6 195530696.89326       110.728          41.000  
> 2024 11 29  8 39 25.3990000  0 24                     
G 4  22049471.919 6 115870733.299 6     -2239.815          37.000  
G 7  23720486.709 4 124651954.894 4      3144.612          26.000  
G 8  20546013.631 7 107970059.503 7      1987.006          46.000  
G 9  22326948.930 5 117328926.328 5      -848.025          31.000  
G16  20676441.637 7 108655434.579 7     -1455.444          43.000  
G18  24318413.167 6 127794113.767 6     -1834.621          41.000  
G21  24099682.924 5 126644741.756 5      3913.005          31.000  
G26  22456520.444 7 118009825.294 7     -2387.252          42.000  
G27  19696289.640 7 103504711.109 7      -199.605          45.000  
G31  23205272.258 6 121944495.340 6     -3288.665          41.000  
R 7  23413490.935 4               4      1024.331          26.000  
R14  23284728.323 5 124120639.168 5     -2804.925          30.000  
R15  19984572.595 7 106791455.011 7      -833.239          45.000  
R16  20503372.570 7 109525300.149 7      2066.357          47.000  
R17  19787145.394 7 105884981.911 7      -858.108          43.000  
R18  20104215.218 7 107317619.481 7      2991.136          45.000  
R24  23374440.006 4 124993458.959 4     -3917.648          29.000  
E 4  25099417.632 6 131898300.904 6     -1927.911          37.000  
E14  22393488.711 7 117678595.459 7      3142.732          42.000  
E21  26096536.894 6 137138232.113 6     -1759.713          40.000  
E23  23465461.363 7 123311845.320 7      -218.906          43.000  
E26  25230354.834 6 132586435.125 6      1742.785          40.000  
J 2  38939818.426 7 204630124.90027      -118.483          43.000  
J 3  37208250.420 7 195530674.71927       110.881          42.000  
> 2024 11 29  8 39 25.5990000  0 24                     
G 4  22049557.163 6 115871181.326 6     -2239.958          37.000  
G 7  23720367.227 4 124651325.915 4      3145.120          27.000  
G 8  20545938.089 7 107969662.125 7      1986.938          46.000  
G 9  22326981.074 5 117329095.662 5      -846.688          31.000  
G16  20676496.971 7 108655725.743 7     -1455.835          43.000  
G18  24318482.915 6 127794480.663 6     -1834.080          41.000  
G21  24099536.639 5 126643959.310 5      3912.032          31.000  
G26  22456611.290 7 118010302.803 7     -2387.470          42.000  
G27  19696297.109 7 103504751.097 7      -200.028          45.000  
G31  23205397.481 6 121945153.104 6     -3288.751          40.000  
R 7  23413453.278 4               4      1024.358          26.000  
R14  23284831.786 5 124121200.108 5     -2804.878          30.000  
R15  19984603.814 7 106791621.707 7      -833.353          45.000  
R16  20503295.074 7 109524886.924 7      2066.254          47.000  
R17  19787177.415 7 105885153.599 7      -858.517          43.000  
R18  20104103.153 7 107317021.256 7      2991.137          45.000  
R24  23374588.088 5 124994242.370 5     -3917.281          30.000  
E 4  25099490.975 6 131898686.463 6     -1927.749          37.000  
E14  22393369.108 7 117677966.970 7      3142.361          42.000  
E21  26096604.077 6 137138584.088 6     -1759.981          40.000  
E23  23465469.931 7 123311889.136 7      -219.023          43.000  
E26  25230288.314 6 132586086.577 6      1742.862          40.000  
J 2  38939822.928 7 204630148.62627      -118.496          43.000  
J 3  37208246.198 7 195530652.56427       110.690          42.000  
> 2024 11 29  8 39 25.7990000  0 24                     
G 4  22049642.390 6 115871629.337 6     -2239.852          38.000  
G 7  23720247.484 4 124650696.986 4      3144.682          26.000  
G 8  20545862.512 7 107969264.751 7      1986.859          46.000  
G 9  22327013.252 5 117329265.117 5      -848.438          30.000  
G16  20676552.498 7 108656016.912 7     -1455.890          43.000  
G18  24318552.734 6 127794847.612 6     -1835.067          41.000  
G21  24099386.933 5 126643176.783 5      3913.137          31.000  
G26  22456702.066 7 118010780.294 7     -2387.674          42.000  
G27  19696304.856 7 103504791.082 7      -199.936          45.000  
G31  23205522.669 6 121945810.843 6     -3288.771          40.000  
R 7  23413415.917 4               4      1024.126          26.000  
R14  23284937.080 5 124121761.188 5     -2805.861          30.000  
R15  19984634.840 7 106791788.384 7      -833.393          45.000  
R16  20503217.734 7 109524473.735 7      2065.887          47.000  
R17  19787209.437 7 105885325.320 7      -858.659          43.000  
R18  20103991.227 7 107316423.036 7      2990.865          45.000  
R24  23374731.791 5 124995025.782 5     -3916.110          30.000  
E 4  25099564.266 6 131899072.034 6     -1927.874          37.000  
E14  22393249.521 7 117677338.472 7      3142.548          42.000  
E21  26096670.981 6 137138936.011 6     -1759.680          40.000  
E23  23465478.203 7 123311932.925 7      -218.906          43.000  
E26  25230221.776 6 132585738.043 6      1742.572          40.000  
J 2  38939827.482 7 204630172.33827      -118.666          43.000  
J 3  37208242.009 6 195530630.37126       110.750          40.000  
> 2024 11 29  8 39 25.9990000  0 24                     
G 4  22049727.652 6 115872077.354 6     -2240.135          38.000  
G 7  23720127.269 4 124650067.983 4      3145.368          26.000  
G 8  20545786.883 7 107968867.366 7      1986.902          46.000  
G 9  22327045.500 5 117329434.422 5      -846.744          30.000  
G16  20676607.902 7 108656308.032 7     -1455.798          43.000  
G18  24318622.500 6 127795214.491 6     -1834.631          41.000  
G21  24099236.390 5 126642394.295 5      3912.563          30.000  
G26  22456792.982 7 118011257.733 7     -2387.218          42.000  
G27  19696312.552 7 103504831.040 7      -199.897          45.000  
G31  23205647.891 6 121946468.565 6     -3288.828          40.000  
R 7  23413378.853 4               4      1024.129          26.000  
R14  23285040.857 5 124122321.923 5     -2803.210          30.000  
R15  19984666.006 7 106791955.044 7      -833.415          45.000  
R16  20503140.430 7 109524060.443 7      2065.839          47.000  
R17  19787241.458 7 105885497.032 7      -858.830          43.000  
R18  20103879.232 7 107315824.806 7      2990.796          45.000  
R24  23374878.600 4 124995809.271 4     -3917.495          29.000  
E 4  25099637.627 6 131899457.565 6     -1927.732          37.000  
E14  22393129.830 7 117676709.930 7      3142.750          42.000  
E21  26096737.920 6 137139287.923 6     -1759.533          40.000  
E23  23465486.544 7 123311976.680 7      -218.863          43.000  
E26  25230155.675 6 132585389.462 6      1742.662          40.000  
J 2  38939832.002 7 204630196.00127      -118.307          43.000  
J 3  37208237.856 6 195530608.13826       110.729          40.000  
> 2024 11 29  8 39 26.1990000  0 24                     
G 4  22049812.983 6 115872525.366 6     -2240.006          38.000  
G 7  23720008.922 4 124649439.036 4      3145.219          27.000  
G 8  20545711.271 7 107968469.993 7      1987.091          46.000  
G 9  22327077.783 5 117329603.850 5      -846.195          31.000  
G16  20676663.324 7 108656599.199 7     -1455.664          43.000  
G18  24318692.353 6 127795581.420 6     -1834.152          41.000  
G21  24099089.337 5               5      3912.659          30.000  
G26  22456883.828 7 118011735.204 7     -2386.912          42.000  
G27  19696320.143 7 103504871.044 7      -199.726          46.000  
G31  23205772.957 6 121947126.304 6     -3288.333          41.000  
R 7  23413341.649 4               4      1025.169          26.000  
R14  23285146.413 4 124122882.949 4     -2804.891          29.000  
R15  19984697.277 7 106792121.721 7      -833.139          45.000  
R16  20503063.073 7 109523647.207 7      2066.883          47.000  
R17  19787273.566 7 105885668.805 7      -858.740          43.000  
R18  20103767.166 7 107315226.601 7      2991.391          45.000  
R24  23375024.152 4 124996592.697 4     -3917.250          29.000  
E 4  25099711.022 6 131899843.140 6     -1927.678          37.000  
E14  22393010.192 7 117676081.423 7      3142.661          42.000  
E21  26096804.947 6 137139639.856 6     -1759.303          40.000  
E23  23465494.955 7 123312020.460 7      -218.604          43.000  
E26  25230089.329 6 132585040.916 6      1742.830          40.000  
J 2  38939836.417 7 204630219.66427      -117.897          43.000  
J 3  37208233.616 6 195530585.91626       111.327          40.000  
> 2024 11 29  8 39 26.3990000  0 24                     
G 4  22049898.228 6 115872973.395 6     -2240.487          37.000  
G 7  23719889.475 4 124648810.145 4      3144.423          27.000  
G 8  20545635.712 7 107968072.660 7      1986.682          46.000  
G 9  22327110.083 5 117329773.299 5      -847.142          31.000  
G16  20676718.746 7 108656890.344 7     -1455.768          43.000  
G18  24318762.241 6 127795948.402 6     -1834.917          41.000  
G21  24098940.313 5               5      3913.135          30.000  
G26  22456974.708 7 118012212.682 7     -2387.104          42.000  
G27  19696327.803 7 103504911.074 7      -199.906          46.000  
G31  23205898.058 6 121947784.059 6     -3288.542          41.000  
R 7  23413303.764 4               4      1025.050          26.000  
R14  23285251.237 4 124123443.889 4     -2804.798          29.000  
R15  19984728.321 7 106792288.418 7      -833.567          45.000  
R16  20502985.681 7 109523233.985 7      2066.071          46.000  
R17  19787305.657 7 105885840.591 7      -858.854          42.000  
R18  20103655.084 7 107314628.452 7      2990.666          45.000  
R24  23375171.938 5 124997376.164 5     -3917.548          30.000  
E 4  25099784.365 6 131900228.720 6     -1928.006          37.000  
E14  22392890.693 7 117675452.914 7      3142.412          42.000  
E21  26096872.025 6 137139991.772 6     -1759.479          40.000  
E23  23465503.244 7 123312064.235 7      -218.880          43.000  
E26  25230022.896 6 132584692.379 6      1742.410          40.000  
J 2  38939841.006 7 204630243.34527      -118.186          43.000  
J 3  37208229.341 6 195530563.71326       111.144          40.000  
> 2024 11 29  8 39 26.5990000  0 24                     
G 4  22049983.472 6 115873421.475 6     -2240.541          37.000  
G 7  23719768.580 4 124648181.150 4      3145.108          27.000  
G 8  20545560.083 7 107967675.340 7      1986.371          46.000  
G 9  22327142.314 5 117329942.792 5      -847.146          30.000  
G16  20676774.185 7 108657181.540 7     -1456.293          43.000  
G18  24318832.112 6 127796315.379 6     -1835.130          41.000  
G21  24098788.426 4               4      3912.209          29.000  
G26  22457065.572 7 118012690.187 7     -2387.821          42.000  
G27  19696335.394 7 103504951.147 7      -200.524          46.000  
G31  23206023.246 6 121948441.827 6     -3289.151          41.000  
R 7  23413267.049 4               4      1023.088          26.000  
R14  23285354.001 4 124124004.879 4     -2804.876          29.000  
R15  19984759.400 7 106792455.136 7      -833.737          45.000  
R16  20502908.289 7 109522820.773 7      2065.833          46.000  
R17  19787337.678 7 105886012.434 7      -859.437          43.000  
R18  20103543.001 7 107314030.329 7      2990.291          45.000  
R24  23375316.548 5 124998159.628 5     -3917.346          30.000  
E 4  25099857.778 6 131900614.324 6     -1928.238          37.000  
E14  22392771.036 7 117674824.421 7      3142.330          42.000  
E21  26096938.982 6 137140343.713 6     -1759.971          40.000  
E23  23465511.585 7 123312108.030 7      -219.112          43.000  
E26  25229956.516 6 132584343.876 6      1742.334          40.000  
J 2  38939845.369 7 204630267.02727      -118.518          43.000  
J 3  37208225.170 6 195530541.52826       110.938          40.000  
> 2024 11 29  8 39 26.7990000  0 24                     
G 4  22050068.821 6 115873869.588 6     -2240.757          37.000  
G 7  23719649.744 4 124647552.291 4      3144.338          27.000  
G 8  20545484.558 7 107967278.065 7      1986.383          46.000  
G 9  22327174.649 5 117330112.308 5      -847.219          30.000  
G16  20676829.625 7 108657472.718 7     -1455.621          44.000  
G18  24318901.913 6 127796682.429 6     -1835.350          41.000  
G21  24098640.780 4               4      3913.056          29.000  
G26  22457156.417 7 118013167.684 7     -2387.573          42.000  
G27  19696343.055 7 103504991.247 7      -200.519          46.000  
G31  23206148.381 6 121949099.631 6     -3288.896          41.000  
R 7  23413229.322 4               4      1023.125          26.000  
R14  23285461.861 5 124124565.797 5     -2804.423          30.000  
R15  19984790.513 7 106792621.903 7      -833.700          45.000  
R16  20502830.933 7 109522407.578 7      2066.150          46.000  
R17  19787369.665 7 105886184.322 7      -859.400          43.000  
R18  20103430.918 7 107313432.252 7      2990.461          45.000  
R24  23375459.709 4 124998943.175 4     -3917.792          29.000  
E 4  25099931.069 6 131900999.949 6     -1928.151          37.000  
E14  22392651.625 7 117674195.956 7      3142.488          42.000  
E21  26097006.095 6 137140695.655 6     -1759.427          40.000  
E23  23465519.926 7 123312151.844 7      -219.112          43.000  
E26  25229890.135 6 132583995.396 6      1742.320          40.000  
J 2  38939849.976 7 204630290.70227      -118.148          43.000  
J 3  37208220.999 6 195530519.39026       110.923          40.000  
> 2024 11 29  8 39 26.9990000  0 24                     
G 4  22050154.170 6 115874317.666 6     -2240.720          37.000  
G 7  23719529.931 4 124646923.279 4      3145.233          27.000  
G 8  20545408.981 7 107966880.767 7      1986.572          46.000  
G 9  22327206.932 5 117330281.824 5      -847.502          31.000  
G16  20676885.116 7 108657763.933 7     -1456.195          43.000  
G18  24318971.748 6 127797049.404 6     -1835.035          41.000  
G21  24098491.667 4 126638422.25834      3912.725          29.000  
G26  22457247.368 7 118013645.173 7     -2387.385          42.000  
G27  19696350.628 7 103505031.328 7      -200.403          46.000  
G31  23206273.639 6 121949757.389 6     -3288.893          41.000  
R 7  23413191.141 4               4      1022.982          25.000  
R14  23285567.260 4 124125126.818 4     -2805.249          29.000  
R15  19984821.680 7 106792788.612 7      -833.745          45.000  
R16  20502753.576 7 109521994.340 7      2066.248          46.000  
R17  19787401.703 7 105886356.218 7      -859.410          42.000  
R18  20103318.992 7 107312834.151 7      2990.459          45.000  
R24  23375605.052 4 124999726.647 4     -3917.241          29.000  
E 4  25100004.500 6 131901385.544 6     -1927.920          37.000  
E14  22392531.742 7 117673567.456 7      3142.553          42.000  
E21  26097072.965 6 137141047.578 6     -1759.674          40.000  
E23  23465528.180 7 123312195.610 7      -218.773          43.000  
E26  25229823.737 6 132583646.899 6      1742.512          40.000  
J 2  38939854.390 7 204630314.35927      -118.126          43.000  
J 3  37208216.742 7 195530497.17527       110.929          42.000  
> 2024 11 29  8 39 27.1990000  0 24                     
G 4  22050239.414 6 115874765.775 6     -2240.727          37.000  
G 7  23719410.222 4 124646294.444 4      3144.009          27.000  
G 8  20545333.317 7 107966483.511 7      1986.273          46.000  
G 9  22327239.040 5 117330451.382 5      -847.735          31.000  
G16  20676940.468 7 108658055.121 7     -1456.146          43.000  
G18  24319041.654 6 127797416.468 6     -1835.456          41.000  
G21  24098341.613 4 126637639.74124      3912.357          29.000  
G26  22457338.249 7 118014122.654 7     -2387.486          42.000  
G27  19696358.306 7 103505071.467 7      -200.727          45.000  
G31  23206398.879 6 121950415.180 6     -3289.175          41.000  
R 7  23413153.326 4               4      1022.336          25.000  
R14  23285670.984 4 124125687.737 4     -2804.540          29.000  
R15  19984852.985 7 106792955.373 7      -833.677          45.000  
R16  20502676.202 7 109521581.153 7      2066.071          46.000  
R17  19787433.934 7 105886528.176 7      -860.140          42.000  
R18  20103206.857 7 107312236.092 7      2990.413          45.000  
R24  23375749.906 4 125000510.191 4     -3918.126          29.000  
E 4  25100077.983 6 131901771.182 6     -1928.289          36.000  
E14  22392412.033 7 117672938.995 7      3142.327          42.000  
E21  26097139.851 6 137141399.509 6     -1759.674          40.000  
E23  23465536.207 7 123312239.417 7      -219.014          43.000  
E26  25229757.374 6 132583298.407 6      1742.550          40.000  
J 2  38939858.805 7 204630338.01927      -118.181          43.000  
J 3  37208212.519 7 195530474.96127       111.099          42.000  
> 2024 11 29  8 39 27.3990000  0 24                     
G 4  22050324.711 6 115875213.862 6     -2240.417          37.000  
G 7  23719289.379 4 124645665.323 4      3145.744          27.000  
G 8  20545257.775 7 107966086.219 7      1986.310          46.000  
G 9  22327271.288 5 117330620.905 5      -847.920          31.000  
G16  20676995.943 7 108658346.282 7     -1455.896          43.000  
G18  24319111.472 6 127797783.445 6     -1834.707          41.000  
G21  24098191.436 4 126636857.14624      3912.790          29.000  
G26  22457429.095 7 118014600.137 7     -2387.649          42.000  
G27  19696366.002 7 103505111.567 7      -200.598          45.000  
G31  23206524.189 6 121951072.899 6     -3288.717          41.000  
R 7  23413114.918 4               4      1025.294          24.000  
R14  23285777.361 4 124126248.704 4     -2804.625          29.000  
R15  19984884.378 7 106793122.087 7      -833.852          45.000  
R16  20502598.827 7 109521167.899 7      2066.260          46.000  
R17  19787465.920 7 105886700.094 7      -859.671          43.000  
R18  20103094.844 7 107311638.007 7      2990.275          45.000  
R24  23375899.036 5 125001293.577 5     -3915.900          30.000  
E 4  25100151.256 6 131902156.785 6     -1927.923          36.000  
E14  22392292.499 7 117672310.471 7      3142.735          42.000  
E21  26097206.843 6 137141751.390 6     -1759.419          40.000  
E23  23465544.374 7 123312283.156 7      -218.445          43.000  
E26  25229691.063 6 132582949.891 6      1742.733          40.000  
J 2  38939863.377 7 204630361.63527      -118.238          43.000  
J 3  37208208.365 7 195530452.71927       111.193          42.000  
> 2024 11 29  8 39 27.5990000  0 24                     
G 4  22050409.920 6 115875661.913 6     -2239.892          37.000  
G 7  23719169.409 4 124645036.434 4      3144.665          27.000  
G 8  20545182.233 7 107965688.917 7      1986.627          46.000  
G 9  22327303.397 5 117330790.417 5      -847.261          31.000  
G16  20677051.399 7 108658637.432 7     -1455.756          43.000  
G18  24319181.395 6 127798150.513 6     -1835.343          40.000  
G21  24098044.855 4 126636074.60724      3912.556          28.000  
G26  22457519.975 7 118015077.543 7     -2386.785          42.000  
G27  19696373.732 7 103505151.676 7      -200.479          45.000  
G31  23206649.255 6 121951730.664 6     -3288.683          41.000  
R 7  23413076.842 4               4      1024.109          24.000  
R14  23285882.062 4 124126809.722 4     -2805.504          29.000  
R15  19984915.684 7 106793288.796 7      -833.322          45.000  
R16  20502521.418 7 109520754.647 7      2066.205          46.000  
R17  19787497.924 7 105886872.036 7      -859.670          43.000  
R18  20102982.797 7 107311039.931 7      2990.509          45.000  
R24  23376047.223 5 125002077.203 5     -3918.857          30.000  
E 4  25100224.582 6 131902542.401 6     -1927.925          36.000  
E14  22392172.930 7 117671681.944 7      3142.565          42.000  
E21  26097273.939 6 137142103.257 6     -1759.306          40.000  
E23  23465552.785 7 123312326.901 7      -218.441          43.000  
E26  25229624.613 6 132582601.409 6      1742.433          40.000  
J 2  38939867.914 7 204630385.20527      -117.641          43.000  
J 3  37208204.247 7 195530430.47327       111.227          42.000  
> 2024 11 29  8 39 27.7990000  0 24                     
G 4  22050495.252 6 115876109.966 6     -2240.765          37.000  
G 7  23719049.910 4 124644407.361 4      3145.588          27.000  
G 8  20545106.551 7 107965291.613 7      1986.230          46.000  
G 9  22327335.924 5 117330959.926 5      -847.406          30.000  
G16  20677106.909 7 108658928.534 7     -1455.444          43.000  
G18  24319251.179 6 127798517.464 6     -1834.727          41.000  
G21  24097897.139 4 126635291.94824      3913.637          28.000  
G26  22457610.716 7 118015554.952 7     -2386.934          42.000  
G27  19696381.341 7 103505191.762 7      -200.458          45.000  
G31  23206774.373 6 121952388.340 6     -3288.274          41.000  
R 7  23413038.486 4               4      1024.130          24.000  
R14  23285986.362 4 124127370.488 4     -2804.169          29.000  
R15  19984946.902 7 106793455.470 7      -833.307          45.000  
R16  20502444.061 7 109520341.330 7      2066.553          46.000  
R17  19787530.067 7 105887043.978 7      -859.594          43.000  
R18  20102870.784 7 107310441.823 7      2990.681          45.000  
R24  23376195.306 5 125002860.532 5     -3916.891          30.000  
E 4  25100297.908 6 131902927.866 6     -1927.290          36.000  
E14  22392053.291 7 117671053.369 7      3142.843          42.000  
E21  26097340.860 6 137142455.062 6     -1758.704          40.000  
E23  23465561.126 7 123312370.594 7      -218.349          43.000  
E26  25229558.197 6 132582252.861 6      1742.687          40.000  
J 2  38939872.277 7 204630408.75727      -117.844          43.000  
J 3  37208200.007 7 195530408.15827       111.426          42.000  
> 2024 11 29  8 39 27.9990000  0 24                     
G 4  22050580.601 6 115876558.022 6     -2240.106          37.000  
G 7  23718931.423 4 124643778.302 4      3144.833          27.000  
G 8  20545030.905 7 107964894.301 7      1986.499          46.000  
G 9  22327370.196 5 117331129.431 5      -847.366          31.000  
G16  20677162.418 7 108659219.658 7     -1455.719          43.000  
G18  24319321.032 6 127798884.464 6     -1834.832          41.000  
G21  24097749.073 4 126634509.29924      3912.926          28.000  
G26  22457701.475 7 118016032.335 7     -2387.122          43.000  
G27  19696389.019 7 103505231.844 7      -200.557          45.000  
G31  23206899.439 6 121953046.046 6     -3288.692          41.000  
R 7  23412999.380 4               4      1023.310          24.000  
R14  23286090.802 4 124127931.427 4     -2804.430          29.000  
R15  19984978.191 7 106793622.163 7      -833.298          45.000  
R16  20502366.757 7 109519928.018 7      2066.449          46.000  
R17  19787562.210 7 105887215.932 7      -859.879          43.000  
R18  20102758.875 7 107309843.753 7      2990.275          45.000  
R24  23376346.110 5 125003643.984 5     -3917.620          30.000  
E 4  25100371.269 6 131903313.464 6     -1927.785          36.000  
E14  22391933.670 7 117670424.782 7      3143.005          42.000  
E21  26097407.747 6 137142806.872 6     -1758.993          40.000  
E23  23465569.642 7 123312414.280 7      -218.326          43.000  
E26  25229491.886 6 132581904.314 6      1742.672          40.000  
J 2  38939876.849 7 204630432.25727      -117.646          43.000  
J 3  37208195.871 7 195530385.84527       111.745          42.000  
> 2024 11 29  8 39 28.1990000  0 24                     
G 4  22050665.950 6 115877006.079 6     -2240.450          37.000  
G 7  23718811.557 4 124643149.221 4      3145.513          27.000  
G 8  20544955.363 7 107964497.003 7      1986.322          46.000  
G 9  22327400.612 5 117331298.979 5      -848.632          31.000  
G16  20677217.892 7 108659510.765 7     -1455.750          43.000  
G18  24319390.903 6 127799251.504 6     -1835.230          41.000  
G21  24097599.630 4 126633726.67224      3913.349          28.000  
G26  22457792.513 7 118016509.724 7     -2386.984          43.000  
G27  19696396.714 7 103505271.964 7      -200.677          45.000  
G31  23207024.609 6 121953703.746 6     -3288.674          41.000  
R 7  23412960.676 3               3      1023.811          23.000  
R14  23286193.269 4 124128492.326 4     -2804.701          29.000  
R15  19985009.461 7 106793788.868 7      -833.647          45.000  
R16  20502289.400 7 109519514.706 7      2066.510          46.000  
R17  19787594.388 7 105887387.925 7      -860.018          43.000  
R18  20102646.880 7 107309245.692 7      2990.196          45.000  
R24  23376491.610 5 125004427.439 5     -3917.316          30.000  
E 4  25100444.647 6 131903699.051 6     -1928.267          36.000  
E14  22391813.962 7 117669796.208 7      3142.911          42.000  
E21  26097474.581 6 137143158.685 6     -1758.873          40.000  
E23  23465577.843 7 123312457.966 7      -218.474          43.000  
E26  25229425.715 6 132581555.769 6      1742.642          40.000  
J 2  38939881.438 7 204630455.76327      -117.682          43.000  
J 3  37208191.648 7 195530363.54127       111.485          42.000  
> 2024 11 29  8 39 28.3990000  0 24                     
G 4  22050751.159 6 115877454.258 6     -2241.158          37.000  
G 7  23718692.425 4 124642520.207 4      3145.244          27.000  
G 8  20544879.908 7 107964099.796 7      1985.736          46.000  
G 9  22327429.509 5 117331468.567 5      -847.895          31.000  
G16  20677273.384 7 108659801.964 7     -1456.061          43.000  
G18  24319460.703 6 127799618.617 6     -1835.848          41.000  
G21  24097449.279 4 126632944.09624      3911.582          29.000  
G26  22457883.341 7 118016987.191 7     -2387.566          42.000  
G27  19696404.358 7 103505312.173 7      -201.222          45.000  
G31  23207149.814 6 121954361.508 6     -3288.899          41.000  
R 7  23412922.390 3               3      1021.605          23.000  
R14  23286299.035 4 124129053.316 4     -2805.111          29.000  
R15  19985040.627 7 106793955.642 7      -834.137          45.000  
R16  20502212.183 7 109519101.483 7      2065.930          46.000  
R17  19787626.444 7 105887560.017 7      -860.723          43.000  
R18  20102534.972 7 107308647.734 7      2989.492          45.000  
R24  23376642.101 5 125005210.968 5     -3918.070          31.000  
E 4  25100517.990 6 131904084.670 6     -1927.969          36.000  
E14  22391694.323 7 117669167.720 7      3142.233          42.000  
E21  26097541.468 6 137143510.572 6     -1759.991          40.000  
E23  23465586.254 7 123312501.718 7      -218.890          43.000  
E26  25229359.404 6 132581207.332 6      1742.069          40.000  
J 2  38939885.940 7 204630479.33927      -117.996          43.000  
J 3  37208187.460 7 195530341.30027       111.149          42.000  
> 2024 11 29  8 39 28.5990000  0 24                     
G 4  22050836.386 6 115877902.413 6     -2241.047          37.000  
G 7  23718573.100 4 124641891.293 4      3144.716          27.000  
G 8  20544804.366 7 107963702.616 7      1986.133          46.000  
G 9  22327463.345 5 117331638.257 5      -848.518          31.000  
G16  20677328.806 7 108660093.167 7     -1455.676          43.000  
G18  24319530.592 6 127799985.723 6     -1835.502          41.000  
G21  24097301.231 5 126632161.53725      3912.314          30.000  
G26  22457974.257 7 118017464.673 7     -2387.218          43.000  
G27  19696412.053 7 103505352.422 7      -201.020          46.000  
G31  23207275.020 6 121955019.290 6     -3288.818          41.000  
R 7  23412883.912 3               3      1022.592          23.000  
R14  23286405.097 4 124129614.223 4     -2804.269          28.000  
R15  19985071.619 7 106794122.452 7      -834.153          45.000  
R16  20502134.652 7 109518688.269 7      2066.272          46.000  
R17  19787658.343 7 105887732.157 7      -860.626          43.000  
R18  20102423.081 7 107308049.812 7      2989.704          45.000  
R24  23376791.283 5 125005994.544 5     -3917.736          31.000  
E 4  25100591.333 6 131904470.360 6     -1928.285          36.000  
E14  22391574.859 7 117668539.253 7      3142.537          42.000  
E21  26097608.424 6 137143862.452 6     -1759.222          40.000  
E23  23465594.665 7 123312545.497 7      -218.655          43.000  
E26  25229293.058 6 132580858.914 6      1742.233          40.000  
J 2  38939890.495 7 204630502.91727      -117.560          43.000  
J 3  37208183.150 7 195530319.07227       111.482          42.000  
> 2024 11 29  8 39 28.7990000  0 24                     
G 4  22050921.788 6 115878350.671 6     -2241.538          37.000  
G 7  23718452.066 4 124641262.434 4      3144.288          27.000  
G 8  20544728.824 7 107963305.504 7      1985.535          46.000  
G 9  22327498.263 5 117331807.964 5      -848.280          31.000  
G16  20677384.350 7 108660384.453 7     -1456.525          43.000  
G18  24319600.532 6 127800352.962 6     -1836.190          41.000  
G21  24097149.990 5 126631378.97025      3912.368          30.000  
G26  22458065.260 7 118017942.214 7     -2387.658          43.000  
G27  19696419.627 7 103505392.741 7      -201.618          46.000  
G31  23207400.190 6 121955677.158 6     -3289.171          41.000  
R 7  23412845.836 3               3      1022.398          22.000  
R14  23286508.856 4 124130175.255 4     -2805.442          28.000  
R15  19985102.715 7 106794289.315 7      -834.570          45.000  
R16  20502057.260 7 109518275.108 7      2065.546          46.000  
R17  19787690.382 7 105887904.393 7      -861.238          43.000  
R18  20102311.050 7 107307451.967 7      2989.301          45.000  
R24  23376939.418 5 125006778.126 5     -3918.093          31.000  
E 4  25100664.711 6 131904856.095 6     -1928.717          36.000  
E14  22391455.290 7 117667910.811 7      3142.136          42.000  
E21  26097675.241 6 137144214.386 6     -1759.766          40.000  
E23  23465603.042 7 123312589.327 7      -219.182          43.000  
E26  25229226.835 6 132580510.559 6      1741.402          40.000  
J 2  38939895.049 7 204630526.54327      -117.926          43.000  
J 3  37208178.927 7 195530296.90027       110.947          42.000  
> 2024 11 29  8 39 28.9990000  0 24                     
G 4  22051007.084 6 115878798.918 6     -2241.480          38.000  
G 7  23718331.170 4 124640633.559 4      3143.706          27.000  
G 8  20544653.142 7 107962908.415 7      1985.260          46.000  
G 9  22327529.133 5 117331977.720 5      -848.403          31.000  
G16  20677439.894 7 108660675.726 7     -1456.567          43.000  
G18  24319670.438 6 127800720.176 6     -1836.828          41.000  
G21  24097002.152 5 126630596.47925      3912.259          30.000  
G26  22458155.983 7 118018419.746 7     -2387.954          42.000  
G27  19696427.374 7 103505433.078 7      -201.933          45.000  
G31  23207525.273 6 121956335.018 6     -3289.592          41.000  
R 7  23412807.428 3               3      1021.797          22.000  
R14  23286614.640 4 124130736.286 4     -2804.739          28.000  
R15  19985133.951 7 106794456.210 7      -834.830          45.000  
R16  20501979.903 7 109517861.942 7      2065.698          46.000  
R17  19787722.648 7 105888076.649 7      -861.668          43.000  
R18  20102199.020 7 107306854.163 7      2988.748          45.000  
R24  23377085.302 5 125007561.729 5     -3917.175          31.000  
E 4  25100738.264 6 131905241.842 6     -1928.991          36.000  
E14  22391335.791 7 117667282.398 7      3142.079          42.000  
E21  26097742.233 6 137144566.317 6     -1759.843          40.000  
E23  23465611.453 7 123312633.161 7      -219.414          44.000  
E26  25229160.576 6 132580162.187 6      1741.722          40.000  
J 2  38939899.604 7 204630550.17927      -118.339          43.000  
J 3  37208174.756 7 195530274.73927       110.657          42.000  
> 2024 11 29  8 39 29.1990000  0 24                     
G 4  22051092.416 6 115879247.233 6     -2241.191          38.000  
G 7  23718210.677 4 124640004.615 4      3144.538          27.000  
G 8  20544577.565 7 107962511.374 7      1985.199          46.000  
G 9  22327563.196 5 117332147.510 5      -848.776          31.000  
G16  20677495.455 7 108660967.047 7     -1456.421          43.000  
G18  24319740.413 6 127801087.451 6     -1836.035          41.000  
G21  24096854.872 5 126629813.97925      3912.781          31.000  
G26  22458246.951 7 118018897.323 7     -2387.697          43.000  
G27  19696435.018 7 103505473.468 7      -201.858          46.000  
G31  23207650.583 7 121956992.935 7     -3289.655          42.000  
R 7  23412769.142 3               3      1016.887          22.000  
R14  23286717.282 4 124131297.318 4     -2805.220          28.000  
R15  19985165.152 7 106794623.120 7      -834.590          45.000  
R16  20501902.546 7 109517448.823 7      2065.839          46.000  
R17  19787754.756 7 105888248.976 7      -861.572          43.000  
R18  20102087.129 7 107306256.389 7      2988.873          45.000  
R24  23377230.854 5 125008345.457 5     -3918.697          31.000  
E 4  25100811.433 6 131905627.601 6     -1928.520          36.000  
E14  22391216.309 7 117666654.026 7      3141.812          42.000  
E21  26097809.207 6 137144918.304 6     -1759.865          40.000  
E23  23465619.672 7 123312677.014 7      -219.190          43.000  
E26  25229094.143 6 132579813.914 6      1741.462          40.000  
J 2  38939904.106 7 204630573.81327      -117.939          43.000  
J 3  37208170.586 7 195530252.58927       110.756          42.000  
> 2024 11 29  8 39 29.3990000  0 24                     
G 4  22051177.625 6 115879695.534 6     -2241.529          37.000  
G 7  23718091.178 4 124639375.680 4      3144.696          27.000  
G 8  20544502.006 7 107962114.336 7      1984.949          46.000  
G 9  22327594.205 5 117332317.292 5      -848.098          31.000  
G16  20677550.842 7 108661258.348 7     -1456.702          43.000  
G18  24319810.231 6 127801454.723 6     -1836.407          41.000  
G21  24096706.056 5 126629031.47925      3912.915          31.000  
G26  22458337.937 7 118019374.883 7     -2387.770          43.000  
G27  19696442.678 7 103505513.868 7      -202.010          46.000  
G31  23207775.841 7 121957650.795 7     -3289.406          42.000  
R 7  23412730.350 3               3      1016.887          22.000  
R14  23286822.856 4 124131858.442 4     -2805.634          28.000  
R15  19985196.336 7 106794790.024 7      -834.520          45.000  
R16  20501825.172 7 109517035.683 7      2065.674          46.000  
R17  19787786.795 7 105888421.314 7      -861.746          43.000  
R18  20101975.116 7 107305658.634 7      2988.584          45.000  
R24  23377375.446 5 125009129.116 5     -3917.928          31.000  
E 4  25100885.020 6 131906013.393 6     -1928.779          36.000  
E14  22391096.775 7 117666025.620 7      3142.017          42.000  
E21  26097876.181 6 137145270.237 6     -1759.967          40.000  
E23  23465628.083 7 123312720.854 7      -219.348          43.000  
E26  25229027.955 6 132579465.592 6      1741.297          40.000  
J 2  38939908.556 7 204630597.43927      -118.045          43.000  
J 3  37208166.328 7 195530230.41627       110.776          42.000  
> 2024 11 29  8 39 29.5990000  0 24                     
G 4  22051262.835 6 115880143.864 6     -2241.494          37.000  
G 7  23717971.556 4 124638746.814 4      3144.483          27.000  
G 8  20544426.307 7 107961717.326 7      1985.028          46.000  
G 9  22327627.098 5 117332487.162 5      -849.298          31.000  
G16  20677606.316 7 108661549.678 7     -1456.476          43.000  
G18  24319880.119 6 127801822.039 6     -1836.667          41.000  
G21  24096560.173 5 126628248.99625      3911.641          31.000  
G26  22458428.870 7 118019852.466 7     -2387.769          43.000  
G27  19696450.339 7 103505554.307 7      -202.159          46.000  
G31  23207900.994 7 121958308.724 7     -3289.365          42.000  
R 7  23412691.715 3               3      1023.120          22.000  
R14  23286931.675 4 124132419.548 4     -2805.511          28.000  
R15  19985227.519 7 106794956.994 7      -834.770          45.000  
R16  20501747.780 7 109516622.568 7      2065.753          46.000  
R17  19787818.920 7 105888593.708 7      -861.794          43.000  
R18  20101863.156 7 107305060.925 7      2988.587          45.000  
R24  23377520.580 5 125009912.806 5     -3918.150          31.000  
E 4  25100958.503 6 131906399.199 6     -1928.979          36.000  
E14  22390977.171 7 117665397.257 7      3141.929          42.000  
E21  26097943.259 6 137145622.188 6     -1759.507          40.000  
E23  23465636.476 7 123312764.718 7      -219.184          43.000  
E26  25228961.609 6 132579117.309 6      1741.485          40.000  
J 2  38939912.971 7 204630621.08327      -118.338          43.000  
J 3  37208162.122 7 195530208.28927       110.671          42.000  
> 2024 11 29  8 39 29.7990000  0 24                     
G 4  22051348.271 6 115880592.234 6     -2241.934          37.000  
G 7  23717851.830 4 124638117.917 4      3144.429          27.000  
G 8  20544350.905 7 107961320.343 7      1984.741          46.000  
G 9  22327659.084 5 117332657.036 5      -849.138          31.000  
G16  20677661.860 7 108661841.030 7     -1456.818          44.000  
G18  24319950.025 6 127802189.378 6     -1836.977          41.000  
G21  24096411.776 5 126627466.48425      3911.493          31.000  
G26  22458519.733 7 118020330.056 7     -2388.131          42.000  
G27  19696457.912 7 103505594.784 7      -202.659          45.000  
G31  23208026.286 7 121958966.641 7     -3289.698          42.000  
R 7  23412653.813 3               3      1023.120          21.000  
R14  23287036.691 4 124132980.635 4     -2805.494          28.000  
R15  19985258.738 7 106795123.964 7      -835.088          45.000  
R16  20501670.371 7 109516209.478 7      2065.216          46.000  
R17  19787851.116 7 105888766.151 7      -862.506          43.000  
R18  20101751.195 7 107304463.246 7      2988.163          45.000  
R24  23377664.789 5 125010696.563 5     -3919.382          31.000  
E 4  25101031.794 6 131906785.023 6     -1929.115          36.000  
E14  22390857.550 7 117664768.894 7      3141.689          42.000  
E21  26098010.338 6 137145974.167 6     -1759.949          40.000  
E23  23465644.625 7 123312808.597 7      -219.540          43.000  
E26  25228895.333 6 132578769.056 6      1741.122          40.000  
J 2  38939917.456 7 204630644.71827      -118.485          43.000  
J 3  37208157.899 7 195530186.15027       110.457          42.000  
> 2024 11 29  8 39 29.9990000  0 24                     
G 4  22051433.655 6 115881040.622 6     -2241.934          37.000  
G 7  23717731.197 4 124637489.144 4      3143.490          26.000  
G 8  20544275.467 7 107960923.398 7      1984.741          46.000  
G 9  22327691.018 5 117332826.991 5      -850.466          31.000  
G16  20677717.439 7 108662132.406 7     -1457.013          44.000  
G18  24320019.896 6 127802556.749 6     -1836.932          41.000  
G21  24096261.565 5 126626683.91925      3913.094          31.000  
G26  22458610.562 7 118020807.651 7     -2387.975          43.000  
G27  19696465.608 7 103505635.281 7      -202.458          45.000  
G31  23208151.457 7 121959624.580 7     -3289.766          42.000  
R 7  23412616.016 3               3      1023.120          21.000  
R14  23287142.404 4 124133541.693 4     -2805.193          29.000  
R15  19985290.026 7 106795290.950 7      -835.051          45.000  
R16  20501593.049 7 109515796.390 7      2065.295          46.000  
R17  19787883.259 7 105888938.618 7      -862.479          43.000  
R18  20101639.234 7 107303865.594 7      2988.195          45.000  
R24  23377811.039 5 125011480.209 5     -3917.849          31.000  
E 4  25101105.295 6 131907170.893 6     -1929.524          36.000  
E14  22390738.086 7 117664140.561 7      3141.711          42.000  
E21  26098077.382 6 137146326.157 6     -1759.929          40.000  
E23  23465652.967 7 123312852.481 7      -219.388          43.000  
E26  25228829.040 6 132578420.813 6      1741.101          40.000  
J 2  38939921.905 7 204630668.35127      -118.033          43.000  
J 3  37208153.572 7 195530164.01827       110.560          42.000  
> 2024 11 29  8 39 30.1990000  0 24                     
G 4  22051519.004 6 115881489.048 6     -2242.089          37.000  
G 7  23717611.314 4 124636860.347 4      3144.300          26.000  
G 8  20544199.890 7 107960526.476 7      1984.467          46.000  
G 9  22327723.860 5 117332996.903 5      -849.901          30.000  
G16  20677772.879 7 108662423.800 7     -1457.080          43.000  
G18  24320089.836 6 127802924.141 6     -1836.841          41.000  
G21  24096116.623 5 126625901.52325      3911.682          31.000  
G26  22458701.564 7 118021285.265 7     -2388.139          43.000  
G27  19696473.426 7 103505675.816 7      -202.656          46.000  
G31  23208276.592 7 121960282.541 7     -3289.844          42.000  
R 7  23412577.922 3               3      1014.047          20.000  
R14  23287247.751 4 124134102.775 4     -2805.131          29.000  
R15  19985321.175 7 106795457.971 7      -835.177          45.000  
R16  20501515.553 7 109515383.313 7      2065.424          46.000  
R17  19787915.595 7 105889111.142 7      -862.586          43.000  
R18  20101527.222 7 107303267.988 7      2987.925          45.000  
R24  23377958.964 5 125012264.017 5     -3918.891          31.000  
E 4  25101178.847 6 131907556.771 6     -1929.476          36.000  
E14  22390618.430 7 117663512.247 7      3141.333          42.000  
E21  26098144.199 6 137146678.138 6     -1760.031          40.000  
E23  23465661.447 7 123312896.393 7      -219.620          43.000  
E26  25228762.729 6 132578072.601 6      1741.196          40.000  
J 2  38939926.320 7 204630692.01327      -118.177          43.000  
J 3  37208149.314 7 195530141.91627       110.432          42.000  
> 2024 11 29  8 39 30.3990000  0 24                     
G 4  22051604.318 6 115881937.483 6     -2242.100          37.000  
G 7  23717491.728 4 124636231.451 4      3143.761          26.000  
G 8  20544124.331 7 107960129.559 7      1984.222          46.000  
G 9  22327755.270 5 117333166.899 5      -849.818          30.000  
G16  20677828.458 7 108662715.170 7     -1457.135          43.000  
G18  24320159.829 6 127803291.578 6     -1837.546          41.000  
G21  24095964.562 5 126625118.98725      3912.606          31.000  
G26  22458792.497 7 118021762.881 7     -2387.892          43.000  
G27  19696481.139 7 103505716.354 7      -203.079          46.000  
G31  23208401.832 6 121960940.499 6     -3290.197          41.000  
R 7  23412541.329 3               3      1014.047          20.000  
R14  23287354.285 4 124134664.028 4     -2806.565          28.000  
R15  19985352.463 7 106795624.978 7      -835.154          45.000  
R16  20501438.196 7 109514970.237 7      2065.204          46.000  
R17  19787947.895 7 105889283.701 7      -862.986          43.000  
R18  20101415.243 7 107302670.374 7      2987.856          45.000  
R24  23378103.470 5 125013047.768 5     -3917.824          31.000  
E 4  25101252.400 6 131907942.628 6     -1929.351          36.000  
E14  22390498.809 7 117662883.896 7      3141.594          42.000  
E21  26098211.225 6 137147030.112 6     -1759.817          40.000  
E23  23465669.824 7 123312940.270 7      -219.345          43.000  
E26  25228696.662 6 132577724.389 6      1740.790          40.000  
J 2  38939930.735 7 204630715.63027      -118.073          43.000  
J 3  37208145.143 7 195530119.77227       110.466          42.000  
> 2024 11 29  8 39 30.5990000  0 24                     
G 4  22051689.527 6 115882385.848 6     -2241.573          37.000  
G 7  23717371.059 4 124635602.690 4      3143.383          26.000  
G 8  20544048.754 7 107959732.608 7      1984.869          46.000  
G 9  22327786.052 5 117333336.821 5      -849.556          31.000  
G16  20677883.897 7 108663006.511 7     -1456.354          43.000  
G18  24320229.665 6 127803658.935 6     -1837.032          41.000  
G21  24095814.542 5 126624336.42325      3913.259          30.000  
G26  22458883.465 7 118022240.439 7     -2387.804          42.000  
G27  19696488.834 7 103505756.876 7      -202.319          46.000  
G31  23208526.968 6 121961598.441 6     -3289.845          40.000  
R 7  23412503.009 3               3      1014.047          19.000  
R14  23287459.038 4 124135225.030 4     -2804.498          29.000  
R15  19985383.629 7 106795791.966 7      -834.682          45.000  
R16  20501360.787 7 109514557.109 7      2065.912          46.000  
R17  19787979.968 7 105889456.204 7      -862.438          43.000  
R18  20101303.161 7 107302072.750 7      2988.486          45.000  
R24  23378248.254 5 125013831.575 5     -3919.635          30.000  
E 4  25101325.656 6 131908328.476 6     -1929.144          36.000  
E14  22390379.152 7 117662255.536 7      3142.143          42.000  
E21  26098278.164 6 137147382.053 6     -1759.470          40.000  
E23  23465678.200 7 123312984.136 7      -219.087          43.000  
E26  25228630.177 6 132577376.155 6      1741.431          40.000  
J 2  38939935.255 7 204630739.23127      -117.710          43.000  
J 3  37208140.798 7 195530097.60227       111.244          42.000  
> 2024 11 29  8 39 30.7990000  0 24                     
G 4  22051774.737 6 115882834.204 6     -2241.571          37.000  
G 7  23717250.566 4 124634973.581 4      3145.462          26.000  
G 8  20543973.282 7 107959335.641 7      1984.814          46.000  
G 9  22327817.515 5 117333506.736 5      -850.410          31.000  
G16  20677939.301 7 108663297.826 7     -1456.549          43.000  
G18  24320299.535 6 127804026.270 6     -1836.474          41.000  
G21  24095662.219 3 126623553.72123      3913.361          23.000  
G26  22458974.329 7 118022717.985 7     -2387.552          43.000  
G27  19696496.652 7 103505797.375 7      -202.530          46.000  
G31  23208652.173 6 121962256.324 6     -3289.188          40.000  
R 7  23412464.199 3               3      1014.047          18.000  
R14  23287565.170 4 124135786.145 4     -2805.961          28.000  
R15  19985414.743 7 106795958.898 7      -834.763          45.000  
R16  20501283.482 7 109514143.960 7      2065.649          46.000  
R17  19788012.129 7 105889628.734 7      -862.372          43.000  
R18  20101191.322 7 107301475.122 7      2987.986          45.000  
R24  23378395.412 5 125014615.170 5     -3917.985          30.000  
E 4  25101399.209 6 131908714.262 6     -1928.716          36.000  
E14  22390259.357 7 117661627.110 7      3142.097          42.000  
E21  26098345.225 6 137147733.940 6     -1759.333          40.000  
E23  23465686.628 7 123313027.935 7      -219.096          43.000  
E26  25228563.849 6 132577027.883 6      1741.125          40.000  
J 2  38939939.739 7 204630762.75227      -117.519          43.000  
J 3  37208136.575 7 195530075.37927       111.164          42.000  
> 2024 11 29  8 39 30.9990000  0 24                     
G 4  22051860.103 6 115883282.576 6     -2241.327          38.000  
G 7  23717129.165 4 124634344.691 4      3144.679          26.000  
G 8  20543897.810 7 107958938.670 7      1985.022          46.000  
G 9  22327850.967 5 117333676.631 5      -850.017          30.000  
G16  20677994.654 7 108663589.115 7     -1456.042          43.000  
G18  24320369.389 6 127804393.638 6     -1836.576          41.000  
G21  24095513.927 3 126622771.10023      3913.427          23.000  
G26  22459065.279 7 118023195.491 7     -2387.408          43.000  
G27  19696504.312 7 103505837.881 7      -202.446          46.000  
G31  23208777.414 6 121962914.204 6     -3289.127          40.000  
R 7  23412426.210 2               2      1014.047          17.000  
R14  23287668.476 4 124136347.170 4     -2805.015          28.000  
R15  19985445.961 7 106796125.844 7      -834.562          45.000  
R16  20501206.143 7 109513730.781 7      2066.095          46.000  
R17  19788044.395 7 105889801.281 7      -862.622          43.000  
R18  20101079.449 7 107300877.487 7      2988.492          45.000  
R24  23378543.407 5 125015398.829 5     -3917.535          30.000  
E 4  25101472.534 6 131909100.073 6     -1928.706          37.000  
E14  22390139.770 7 117660998.695 7      3142.357          42.000  
E21  26098411.990 6 137148085.812 6     -1759.060          40.000  
E23  23465694.830 7 123313071.718 7      -218.649          43.000  
E26  25228497.573 6 132576679.590 6      1741.762          40.000  
J 2  38939944.172 7 204630786.26127      -117.263          43.000  
J 3  37208132.405 7 195530053.14427       111.505          42.000  
> 2024 11 29  8 39 31.1990000  0 24                     
G 4  22051945.435 6 115883730.944 6     -2242.170          38.000  
G 7  23717008.671 4 124633715.723 4      3144.911          26.000  
G 8  20543822.425 7 107958541.704 7      1984.790          45.000  
G 9  22327880.580 5 117333846.502 5      -849.701          30.000  
G16  20678050.075 7 108663880.407 7     -1456.396          43.000  
G18  24320439.364 6 127804761.005 6     -1837.003          41.000  
G21  24095365.304 3 126621988.50923      3912.624          23.000  
G26  22459156.177 7 118023672.979 7     -2387.425          43.000  
G27  19696512.008 7 103505878.394 7      -202.735          46.000  
G31  23208902.724 6 121963572.057 6     -3289.140          40.000  
R 7  23412388.692 2               2      1014.047          17.000  
R14  23287771.816 4 124136908.162 4     -2804.648          28.000  
R15  19985477.214 7 106796292.782 7      -834.805          45.000  
R16  20501128.751 7 109513317.596 7      2065.930          46.000  
R17  19788076.590 7 105889973.831 7      -863.000          42.000  
R18  20100967.506 7 107300279.875 7      2987.888          45.000  
R24  23378689.361 5 125016182.499 5     -3918.214          30.000  
E 4  25101545.930 6 131909485.884 6     -1929.384          37.000  
E14  22390020.062 7 117660370.267 7      3141.964          42.000  
E21  26098478.772 6 137148437.668 6     -1759.231          40.000  
E23  23465702.944 7 123313115.509 7      -219.062          43.000  
E26  25228431.314 6 132576331.295 6      1741.436          40.000  
J 2  38939948.569 7 204630809.749 7      -117.255          43.000  
J 3  37208128.234 6 195530030.40716       111.178          41.000  
> 2024 11 29  8 39 31.3990000  0 24                     
G 4  22052030.766 6 115884179.323 6     -2241.950          38.000  
G 7  23716888.666 4 124633086.747 4      3145.006          26.000  
G 8  20543746.830 7 107958144.769 7      1984.344          45.000  
G 9  22327913.456 5 117334016.483 5      -849.817          31.000  
G16  20678105.480 7 108664171.720 7     -1456.689          43.000  
G18  24320509.182 6 127805128.387 6     -1837.201          41.000  
G21  24095216.244 4 126621205.86524      3913.114          24.000  
G26  22459246.988 7 118024150.511 7     -2387.918          43.000  
G27  19696519.756 7 103505918.931 7      -202.792          46.000  
G31  23209027.929 6 121964229.946 6     -3289.713          40.000  
R 7  23412349.866 2               2      1014.047          16.000  
R14  23287877.704 4 124137469.130 4     -2804.404          28.000  
R15  19985508.381 7 106796459.727 7      -834.698          45.000  
R16  20501051.412 7 109512904.438 7      2065.656          46.000  
R17  19788108.699 7 105890146.415 7      -863.095          42.000  
R18  20100855.440 7 107299682.283 7      2987.821          45.000  
R24  23378836.693 5 125016966.229 5     -3918.689          30.000  
E 4  25101619.238 6 131909871.676 6     -1928.923          37.000  
E14  22389900.458 7 117659741.837 7      3141.973          42.000  
E21  26098545.780 6 137148789.523 6     -1759.529          39.000  
E23  23465711.233 7 123313159.293 7      -219.004          43.000  
E26  25228365.004 6 132575983.059 6      1741.063          40.000  
J 2  38939953.019 7 204630833.246 7      -117.571          43.000  
J 3  37208123.959 6 195530008.186 6       110.927          41.000  
> 2024 11 29  8 39 31.5990000  0 23                     
G 4  22052116.098 6 115884627.746 6     -2242.288          38.000  
G 7  23716768.835 4 124632457.830 4      3144.762          26.000  
G 8  20543671.428 7 107957747.847 7      1984.393          45.000  
G 9  22327948.095 5 117334186.475 5      -850.314          31.000  
G16  20678160.867 7 108664463.047 7     -1456.781          43.000  
G18  24320579.070 6 127805495.828 6     -1837.479          41.000  
G21  24095068.423 4 126620423.33124      3912.358          25.000  
G26  22459337.921 7 118024628.048 7     -2387.885          43.000  
G27  19696527.521 7 103505959.512 7      -203.128          46.000  
G31  23209153.082 6 121964887.804 6     -3289.449          40.000  
R14  23287983.155 4 124138030.169 4     -2805.596          28.000  
R15  19985539.529 7 106796626.721 7      -835.018          45.000  
R16  20500974.072 7 109512491.294 7      2065.485          46.000  
R17  19788140.929 7 105890319.064 7      -863.450          42.000  
R18  20100743.462 7 107299084.749 7      2987.615          45.000  
R24  23378984.653 5 125017749.995 5     -3918.539          30.000  
E 4  25101692.704 6 131910257.533 6     -1929.457          37.000  
E14  22389780.837 7 117659113.436 7      3141.857          42.000  
E21  26098612.754 6 137149141.418 6     -1759.532          40.000  
E23  23465719.644 7 123313203.107 7      -219.327          43.000  
E26  25228298.710 6 132575634.824 6      1740.949          40.000  
J 2  38939957.451 7 204630856.753 7      -117.813          43.000  
J 3  37208119.771 6 195529985.955 6       111.067          41.000  
> 2024 11 29  8 39 31.7990000  0 23                     
G 4  22052201.499 6 115885076.200 6     -2242.489          38.000  
G 7  23716648.359 4 124631828.933 4      3144.660          26.000  
G 8  20543596.043 7 107957351.001 7      1983.850          45.000  
G 9  22327980.657 5 117334356.524 5      -850.232          31.000  
G16  20678216.254 7 108664754.419 7     -1457.043          43.000  
G18  24320649.011 6 127805863.273 6     -1837.325          41.000  
G21  24094918.683 4 126619640.68124      3913.290          25.000  
G26  22459428.855 7 118025105.601 7     -2388.156          43.000  
G27  19696535.269 7 103506000.161 7      -203.351          46.000  
G31  23209278.182 6 121965545.726 6     -3289.557          40.000  
R14  23288087.508 4 124138591.407 4     -2805.781          29.000  
R15  19985570.730 7 106796793.765 7      -835.337          45.000  
R16  20500896.663 7 109512078.187 7      2065.161          46.000  
R17  19788173.125 7 105890491.783 7      -863.899          42.000  
R18  20100631.519 7 107298487.271 7      2987.161          45.000  
R24  23379133.224 5 125018533.774 5     -3919.931          31.000  
E 4  25101766.152 6 131910643.398 6     -1929.328          37.000  
E14  22389661.355 7 117658485.061 7      3141.821          42.000  
E21  26098679.641 6 137149493.330 6     -1759.751          40.000  
E23  23465728.142 7 123313246.951 7      -219.342          43.000  
E26  25228232.504 6 132575286.637 6      1740.882          40.000  
J 2  38939961.936 7 204630880.285 7      -117.850          43.000  
J 3  37208115.583 6 195529963.777 6       110.828          41.000  
> 2024 11 29  8 39 31.9990000  0 23                     
G 4  22052286.831 6 115885524.694 6     -2242.416          38.000  
G 7  23716526.748 4 124631199.910 4      3145.498          26.000  
G 8  20543520.449 7 107956954.193 7      1983.801          46.000  
G 9  22328012.329 5 117334526.590 5      -850.107          31.000  
G16  20678271.693 7 108665045.832 7     -1457.324          43.000  
G18  24320718.986 6 127806230.814 6     -1837.518          41.000  
G21  24094770.251 4 126618858.21624      3912.341          26.000  
G26  22459519.770 7 118025583.203 7     -2387.962          43.000  
G27  19696543.000 7 103506040.842 7      -203.641          46.000  
G31  23209403.353 6 121966203.714 6     -3289.924          40.000  
R14  23288194.460 4 124139152.302 4     -2802.082          28.000  
R15  19985602.036 7 106796960.827 7      -835.548          45.000  
R16  20500819.289 7 109511665.108 7      2065.131          46.000  
R17  19788205.355 7 105890664.550 7      -864.251          43.000  
R18  20100519.489 7 107297889.839 7      2987.027          45.000  
R24  23379279.928 5 125019317.536 5     -3918.457          31.000  
E 4  25101839.495 6 131911029.330 6     -1929.684          36.000  
E14  22389541.856 7 117657856.736 7      3141.663          42.000  
E21  26098746.824 6 137149845.264 6     -1759.930          40.000  
E23  23465736.431 7 123313290.817 7      -219.467          43.000  
E26  25228166.333 6 132574938.475 6      1740.741          40.000  
J 2  38939966.403 7 204630903.824 7      -117.792          43.000  
J 3  37208111.342 7 195529941.635 7       110.510          42.000  
> 2024 11 29  8 39 32.1990000  0 23                     
G 4  22052372.215 6 115885973.274 6     -2242.787          37.000  
G 7  23716406.917 4 124630571.329 4      3142.888          26.000  
G 8  20543444.907 7 107956557.454 7      1983.569          46.000  
G 9  22328041.960 5               5      -851.167          31.000  
G16  20678327.150 7 108665337.291 7     -1457.379          43.000  
G18  24320789.014 6 127806598.405 6     -1838.367          41.000  
G21  24094619.516 4 126618075.62024      3912.842          27.000  
G26  22459610.633 7 118026060.866 7     -2388.564          43.000  
G27  19696550.765 7 103506081.600 7      -203.950          46.000  
G31  23209528.558 6 121966861.752 6     -3290.303          41.000  
R14  23288299.807 4 124139713.620 4     -2806.784          28.000  
R15  19985633.324 7 106797127.968 7      -835.787          45.000  
R16  20500742.002 7 109511252.093 7      2064.929          46.000  
R17  19788237.569 7 105890837.394 7      -864.316          42.000  
R18  20100407.546 7 107297292.492 7      2986.754          45.000  
R24  23379427.906 5 125020101.486 5     -3919.756          31.000  
E 4  25101912.995 6 131911415.318 6     -1930.267          36.000  
E14  22389422.043 7 117657228.485 7      3141.097          42.000  
E21  26098813.798 6 137150197.257 6     -1759.946          40.000  
E23  23465744.807 7 123313334.753 7      -219.667          43.000  
E26  25228100.179 6 132574590.418 6      1740.334          40.000  
J 2  38939970.766 7 204630927.438 7      -118.045          43.000  
J 3  37208107.154 7 195529919.529 7       110.533          42.000  
> 2024 11 29  8 39 32.3990000  0 23                     
G 4  22052457.564 6 115886421.878 6     -2242.804          37.000  
G 7  23716287.453 4 124629942.415 4      3144.942          26.000  
G 8  20543369.469 7 107956160.735 7      1983.643          46.000  
G 9  22328077.488 5               5      -851.013          30.000  
G16  20678382.764 7 108665628.768 7     -1457.257          43.000  
G18  24320859.094 6 127806966.024 6     -1837.937          41.000  
G21  24094470.945 4 126617293.10224      3913.099          28.000  
G26  22459701.392 7 118026538.517 7     -2388.206          43.000  
G27  19696558.460 7 103506122.390 7      -203.841          46.000  
G31  23209653.781 6 121967519.793 6     -3290.161          41.000  
R14  23288406.062 4 124140274.874 4     -2806.175          28.000  
R15  19985664.490 7 106797295.125 7      -835.834          45.000  
R16  20500664.645 7 109510839.088 7      2064.990          46.000  
R17  19788269.851 7 105891010.295 7      -864.446          43.000  
R18  20100295.707 7 107296695.172 7      2986.584          45.000  
R24  23379573.947 5 125020885.367 5     -3920.613          31.000  
E 4  25101986.321 6 131911801.301 6     -1930.054          36.000  
E14  22389302.614 7 117656600.224 7      3141.242          42.000  
E21  26098880.947 6 137150549.266 6     -1760.090          40.000  
E23  23465753.218 7 123313378.686 7      -219.750          43.000  
E26  25228033.886 6 132574242.353 6      1740.226          40.000  
J 2  38939975.355 7 204630951.047 7      -118.259          43.000  
J 3  37208102.879 7 195529897.439 7       110.572          42.000  
> 2024 11 29  8 39 32.5990000  0 23                     
G 4  22052542.913 6 115886870.505 6     -2243.319          37.000  
G 7  23716167.972 4 124629313.575 4      3144.195          26.000  
G 8  20543294.067 7 107955764.043 7      1983.240          46.000  
G 9  22328105.618 5               5      -851.218          30.000  
G16  20678438.256 7 108665920.252 7     -1457.513          43.000  
G18  24320929.035 6 127807333.662 6     -1838.528          41.000  
G21  24094321.851 5 126616510.62425      3912.477          32.000  
G26  22459792.290 7 118027016.196 7     -2388.481          43.000  
G27  19696566.121 7 103506163.203 7      -204.300          46.000  
G31  23209778.916 6 121968177.859 6     -3290.703          41.000  
R14  23288510.222 4 124140836.057 4     -2806.068          28.000  
R15  19985695.743 7 106797462.299 7      -836.302          45.000  
R16  20500587.358 7 109510426.083 7      2064.819          46.000  
R17  19788302.152 7 105891183.220 7      -864.943          43.000  
R18  20100183.764 7 107296097.867 7      2986.271          45.000  
R24  23379722.030 5 125021669.221 5     -3919.690          31.000  
E 4  25102059.839 6 131912187.318 6     -1930.120          36.000  
E14  22389183.097 7 117655971.972 7      3141.127          42.000  
E21  26098947.938 6 137150901.252 6     -1760.349          40.000  
E23  23465761.664 7 123313422.621 7      -219.824          43.000  
E26  25227967.802 6 132573894.289 6      1740.115          40.000  
J 2  38939979.892 7 204630974.626 7      -118.008          43.000  
J 3  37208098.569 7 195529875.346 7       110.147          42.000  
> 2024 11 29  8 39 32.7990000  0 23                     
G 4  22052628.314 6 115887319.201 6     -2243.694          37.000  
G 7  23716047.216 4 124628684.900 4      3143.525          26.000  
G 8  20543218.543 7 107955367.420 7      1983.002          46.000  
G 9  22328139.070 5 117335179.52835      -852.221          30.000  
G16  20678493.712 7 108666211.811 7     -1457.953          43.000  
G18  24320998.975 6 127807701.359 6     -1838.737          41.000  
G21  24094172.337 5 126615728.17925      3912.628          32.000  
G26  22459883.241 7 118027493.928 7     -2388.885          43.000  
G27  19696573.782 7 103506204.096 7      -204.544          46.000  
G31  23209904.192 6 121968835.958 6     -3290.621          41.000  
R14  23288616.302 4 124141397.421 4     -2807.207          28.000  
R15  19985726.892 7 106797629.515 7      -836.121          45.000  
R16  20500510.001 7 109510013.127 7      2064.685          46.000  
R17  19788334.382 7 105891356.250 7      -865.455          43.000  
R18  20100071.908 7 107295500.635 7      2986.058          45.000  
R24  23379871.281 5 125022453.267 5     -3920.358          31.000  
E 4  25102133.357 6 131912573.430 6     -1930.550          36.000  
E14  22389063.581 7 117655343.795 7      3140.803          42.000  
E21  26099014.999 6 137151253.300 6     -1760.428          40.000  
E23  23465769.918 7 123313466.620 7      -219.980          43.000  
E26  25227901.700 6 132573546.324 6      1739.423          40.000  
J 2  38939984.464 7 204630998.280 7      -118.319          43.000  
J 3  37208094.398 7 195529853.293 7       110.215          42.000  
> 2024 11 29  8 39 32.9990000  0 23                     
G 4  22052713.628 6 115887767.867 6     -2243.380          37.000  
G 7  23715927.106 4 124628056.057 4      3144.014          26.000  
G 8  20543142.983 7 107954970.797 7      1983.173          46.000  
G 9  22328174.110 5 117335349.75925      -851.069          31.000  
G16  20678549.274 7 108666503.343 7     -1457.172          43.000  
G18  24321068.828 6 127808069.085 6     -1838.313          41.000  
G21  24094021.550 5 126614945.79625      3909.844          31.000  
G26  22459974.174 7 118027971.632 7     -2388.414          43.000  
G27  19696581.565 7 103506245.002 7      -204.561          46.000  
G31  23210029.397 6 121969494.071 6     -3290.453          41.000  
R14  23288719.345 4 124141958.631 4     -2805.382          28.000  
R15  19985758.180 7 106797796.744 7      -836.032          45.000  
R16  20500432.627 7 109509600.181 7      2064.954          46.000  
R17  19788366.683 7 105891529.275 7      -865.026          43.000  
R18  20099960.227 7 107294903.419 7      2986.102          45.000  
R24  23380019.207 5 125023237.175 5     -3919.453          32.000  
E 4  25102206.840 6 131912959.501 6     -1930.439          36.000  
E14  22388944.116 7 117654715.624 7      3140.865          42.000  
E21  26099081.851 6 137151605.333 6     -1760.248          40.000  
E23  23465778.364 7 123313510.609 7      -220.003          43.000  
E26  25227835.634 6 132573198.339 6      1740.217          40.000  
J 2  38939989.001 7 204631021.902 7      -118.058          43.000  
J 3  37208090.245 7 195529831.233 7       110.549          42.000  
> 2024 11 29  8 39 33.1990000  0 23                     
G 4  22052798.960 6 115888216.565 6     -2243.485          38.000  
G 7  23715806.647 4 124627427.323 4      3144.186          26.000  
G 8  20543067.424 7 107954574.221 7      1982.819          46.000  
G 9  22328207.841 5 117335520.05725      -850.445          30.000  
G16  20678604.818 7 108666794.950 7     -1458.154          43.000  
G18  24321138.682 6 127808436.842 6     -1839.013          41.000  
G21  24093872.665 5 126614163.17625      3912.675          31.000  
G26  22460065.142 7 118028449.375 7     -2388.596          43.000  
G27  19696589.435 7 103506285.932 7      -204.639          46.000  
G31  23210154.480 6 121970152.208 6     -3290.537          40.000  
R14  23288824.500 4 124142520.042 4     -2808.430          28.000  
R15  19985789.486 7 106797964.007 7      -836.252          45.000  
R16  20500355.340 7 109509187.255 7      2064.398          46.000  
R17  19788399.001 7 105891702.371 7      -865.334          43.000  
R18  20099848.388 7 107294306.242 7      2985.827          45.000  
R24  23380167.569 5 125024021.227 5     -3919.870          32.000  
E 4  25102280.270 6 131913345.602 6     -1930.670          36.000  
E14  22388824.792 7 117654087.437 7      3140.935          42.000  
E21  26099148.842 6 137151957.390 6     -1760.296          40.000  
E23  23465786.775 7 123313554.611 7      -220.063          43.000  
E26  25227769.323 6 132572850.397 6      1739.464          40.000  
J 2  38939993.539 7 204631045.543 7      -118.359          43.000  
J 3  37208085.952 7 195529809.196 7       110.029          42.000  
> 2024 11 29  8 39 33.3990000  0 23                     
G 4  22052884.204 6 115888665.265 6     -2243.284          38.000  
G 7  23715687.096 4 124626798.594 4      3143.651          26.000  
G 8  20542991.986 7 107954177.606 7      1983.130          46.000  
G 9  22328239.531 5 117335690.43425      -851.018          30.000  
G16  20678660.257 7 108667086.454 7     -1457.739          43.000  
G18  24321208.552 6 127808804.550 6     -1838.701          41.000  
G21  24093721.546 5 126613380.69825      3912.482          31.000  
G26  22460155.953 7 118028927.059 7     -2388.136          43.000  
G27  19696597.252 7 103506326.866 7      -204.696          46.000  
G31  23210279.738 6 121970810.332 6     -3290.484          39.000  
R14  23288930.842 4 124143081.205 4     -2805.339          28.000  
R15  19985820.931 7 106798131.235 7      -836.015          45.000  
R16  20500277.948 7 109508774.275 7      2065.094          46.000  
R17  19788431.249 7 105891875.467 7      -865.479          43.000  
R18  20099736.515 7 107293709.056 7      2985.931          45.000  
R24  23380320.380 5 125024805.178 5     -3919.635          32.000  
E 4  25102353.823 6 131913731.652 6     -1929.888          36.000  
E14  22388705.275 7 117653459.242 7      3141.176          42.000  
E21  26099215.782 6 137152309.386 6     -1759.753          40.000  
E23  23465795.099 7 123313598.568 7      -219.573          43.000  
E26  25227703.099 6 132572502.406 6      1740.109          39.000  
J 2  38939997.901 7 204631069.124 7      -117.699          43.000  
J 3  37208081.782 7 195529787.119 7       110.444          42.000  
> 2024 11 29  8 39 33.5990000  0 23                     
G 4  22052969.518 6 115889113.966 6     -2243.384          38.000  
G 7  23715567.963 4 124626169.779 4      3144.014          26.000  
G 8  20542916.497 7 107953781.014 7      1983.203          46.000  
G 9  22328274.746 5 117335860.80025      -852.167          30.000  
G16  20678715.714 7 108667378.006 7     -1457.617          43.000  
G18  24321278.510 6 127809172.302 6     -1838.172          41.000  
G21  24093572.503 4 126612598.06824      3912.931          25.000  
G26  22460246.938 7 118029404.770 7     -2388.417          42.000  
G27  19696605.122 7 103506367.800 7      -204.694          46.000  
G31  23210404.856 6 121971468.438 6     -3290.225          40.000  
R14  23289036.014 4 124143642.456 4     -2806.557          29.000  
R15  19985852.220 7 106798298.490 7      -836.381          45.000  
R16  20500200.609 7 109508361.306 7      2064.850          46.000  
R17  19788463.514 7 105892048.588 7      -865.850          43.000  
R18  20099624.694 7 107293111.878 7      2985.919          45.000  
R24  23380464.414 5 125025589.233 5     -3920.430          31.000  
E 4  25102427.218 6 131914117.770 6     -1930.834          36.000  
E14  22388585.532 7 117652831.046 7      3140.888          42.000  
E21  26099282.633 6 137152661.407 6     -1760.218          39.000  
E23  23465803.422 7 123313642.550 7      -219.939          43.000  
E26  25227636.806 6 132572154.437 6      1740.080          40.000  
J 2  38940002.333 7 204631092.712 7      -117.702          43.000  
J 3  37208077.559 6 195529765.029 6       110.333          41.000  
> 2024 11 29  8 39 33.7990000  0 23                     
G 4  22053054.920 6 115889562.718 6     -2243.481          38.000  
G 7  23715447.836 4 124625541.079 4      3143.422          26.000  
G 8  20542841.024 7 107953384.464 7      1982.684          46.000  
G 9  22328305.371 5 117336031.16825      -851.713          30.000  
G16  20678771.153 7 108667669.550 7     -1457.416          43.000  
G18  24321348.468 6 127809540.097 6     -1838.839          41.000  
G21  24093427.021 4 126611815.56224      3912.638          26.000  
G26  22460337.836 7 118029882.501 7     -2388.387          43.000  
G27  19696612.870 7 103506408.788 7      -204.955          46.000  
G31  23210530.183 7 121972126.582 7     -3290.612          42.000  
R14  23289139.302 4 124144203.764 4     -2806.315          29.000  
R15  19985883.455 7 106798465.769 7      -836.226          45.000  
R16  20500123.130 7 109507948.375 7      2064.911          46.000  
R17  19788495.814 7 105892221.726 7      -865.493          43.000  
R18  20099512.751 7 107292514.769 7      2985.713          44.000  
R24  23380605.935 5 125026373.151 5     -3920.688          32.000  
E 4  25102500.841 6 131914503.899 6     -1930.594          36.000  
E14  22388465.858 7 117652202.872 7      3140.879          42.000  
E21  26099349.537 6 137153013.434 6     -1759.655          39.000  
E23  23465811.851 7 123313686.528 7      -219.765          43.000  
E26  25227570.600 6 132571806.520 6      1739.528          39.000  
J 2  38940007.028 7 204631116.320 7      -117.902          43.000  
J 3  37208073.388 6 195529742.976 6       110.361          40.000  
> 2024 11 29  8 39 33.9990000  0 23                     
G 4  22053140.286 6 115890011.482 6     -2243.271          38.000  
G 7  23715326.557 4 124624912.216 4      3144.332          26.000  
G 8  20542765.692 7 107952987.932 7      1982.611          46.000  
G 9  22328336.484 5 117336201.53925      -851.934          30.000  
G16  20678826.628 7 108667961.158 7     -1457.764          43.000  
G18  24321418.478 6 127809907.916 6     -1838.953          41.000  
G21  24093276.391 4 126611032.98824      3913.601          27.000  
G26  22460428.804 7 118030360.239 7     -2389.037          42.000  
G27  19696620.653 7 103506449.795 7      -205.162          46.000  
G31  23210655.458 7 121972784.700 7     -3290.799          43.000  
R14  23289243.620 4 124144765.004 4     -2805.561          29.000  
R15  19985914.866 7 106798633.059 7      -836.619          45.000  
R16  20500045.948 7 109507535.434 7      2064.594          46.000  
R17  19788528.150 7 105892394.960 7      -866.182          43.000  
R18  20099400.860 7 107291917.696 7      2985.307          43.000  
R24  23380750.982 5 125027157.126 5     -3918.890          32.000  
E 4  25102574.306 6 131914890.035 6     -1930.539          36.000  
E14  22388346.377 7 117651574.704 7      3140.877          42.000  
E21  26099416.511 6 137153365.502 6     -1760.691          39.000  
E23  23465820.122 7 123313730.517 7      -219.984          43.000  
E26  25227504.498 6 132571458.580 6      1739.830          39.000  
J 2  38940011.495 7 204631139.923 7      -118.160          43.000  
J 3  37208069.270 6 195529720.969 6       110.085          37.000  
> 2024 11 29  8 39 34.1990000  0 23                     
G 4  22053225.653 6 115890460.290 6     -2244.070          37.000  
G 7  23715207.198 4 124624283.559 4      3142.885          26.000  
G 8  20542690.220 7 107952591.438 7      1982.562          46.000  
G 9  22328371.053 5 117336372.01925      -852.543          30.000  
G16  20678882.137 7 108668252.763 7     -1458.191          43.000  
G18  24321488.471 6 127810275.778 6     -1839.597          41.000  
G21  24093128.308 5 126610250.62725      3910.702          35.000  
G26  22460519.685 7 118030837.982 7     -2388.312          42.000  
G27  19696628.488 7 103506490.849 7      -205.192          46.000  
G31  23210780.664 7 121973442.803 7     -3290.417          42.000  
R14  23289349.490 4 124145326.515 4     -2808.647          29.000  
R15  19985946.172 7 106798800.392 7      -836.503          45.000  
R16  20499968.765 7 109507122.528 7      2064.642          46.000  
R17  19788560.502 7 105892568.210 7      -866.063          43.000  
R18  20099289.109 7 107291320.666 7      2985.211          43.000  
R24  23380897.982 5 125027941.245 5     -3919.898          32.000  
E 4  25102647.859 6 131915276.211 6     -1930.906          36.000  
E14  22388226.930 7 117650946.568 7      3140.860          42.000  
E21  26099483.503 6 137153717.495 6     -1760.021          39.000  
E23  23465828.603 7 123313774.548 7      -219.749          43.000  
E26  25227438.240 6 132571110.693 6      1739.450          39.000  
J 2  38940016.032 7 204631163.515 7      -117.635          43.000  
J 3  37208065.029 6 195529699.033 6       109.843          36.000  
> 2024 11 29  8 39 34.3990000  0 23                     
G 4  22053311.036 6 115890909.093 6     -2244.061          37.000  
G 7  23715086.983 4 124623654.898 4      3142.903          26.000  
G 8  20542614.730 7 107952194.983 7      1982.507          46.000  
G 9  22328403.964 5 117336542.50625      -852.319          31.000  
G16  20678937.768 7 108668544.394 7     -1457.800          43.000  
G18  24321558.464 6 127810643.613 6     -1838.934          41.000  
G21  24092982.826 5 126609468.13525      3912.043          35.000  
G26  22460610.583 6 118031315.802 6     -2389.366          41.000  
G27  19696636.341 7 103506531.910 7      -205.128          46.000  
G31  23210905.956 6 121974100.919 6     -3290.354          38.000  
R14  23289457.001 5 124145887.660 5     -2804.821          33.000  
R15  19985977.687 7 106798967.748 7      -836.825          45.000  
R16  20499891.601 7 109506709.631 7      2064.630          46.000  
R17  19788592.995 7 105892741.544 7      -866.514          42.000  
R18  20099177.480 7 107290723.655 7      2985.101          43.000  
R24  23381047.077 5 125028725.335 5     -3920.923          32.000  
E 4  25102721.359 6 131915662.415 6     -1931.089          36.000  
E14  22388107.344 7 117650318.454 7      3140.652          42.000  
E21  26099550.546 6 137154069.577 6     -1759.828          39.000  
E23  23465836.892 7 123313818.573 7      -220.072          43.000  
E26  25227371.981 6 132570762.857 6      1739.148          39.000  
J 2  38940020.621 7 204631187.131 7      -117.881          43.000  
J 3  37208060.702 6 195529677.043 6       110.405          37.000  
> 2024 11 29  8 39 34.5990000  0 23                     
G 4  22053396.438 6 115891357.924 6     -2244.217          37.000  
G 7  23714967.432 4 124623026.105 4      3143.761          26.000  
G 8  20542539.153 7 107951798.511 7      1982.330          46.000  
G 9  22328437.923 5 117336712.97925      -852.396          31.000  
G16  20678993.277 7 108668836.033 7     -1458.575          43.000  
G18  24321628.579 6 127811011.507 6     -1839.350          41.000  
G21  24092834.377 5 126608685.63525      3913.174          35.000  
G26  22460701.499 7 118031793.508 7     -2389.261          42.000  
G27  19696644.228 7 103506573.023 7      -205.389          46.000  
G31  23211031.144 4 121974759.321 4     -3293.320          27.000  
R14  23289562.104 4 124146449.107 4     -2810.071          29.000  
R15  19986009.027 7 106799135.068 7      -836.424          45.000  
R16  20499814.244 7 109506296.710 7      2064.649          46.000  
R17  19788625.400 7 105892914.871 7      -867.208          43.000  
R18  20099065.589 7 107290126.633 7      2985.334          43.000  
R24  23381193.135 5 125029509.336 5     -3919.005          32.000  
E 4  25102794.947 6 131916048.560 6     -1930.627          36.000  
E14  22387988.001 7 117649690.296 7      3140.796          42.000  
E21  26099617.503 6 137154421.656 6     -1760.857          39.000  
E23  23465845.006 7 123313862.571 7      -219.688          43.000  
E26  25227305.863 6 132570414.961 6      1739.758          41.000  
J 2  38940025.036 7 204631210.741 7      -117.942          43.000  
J 3  37208056.514 6 195529655.027 6       110.352          37.000  
> 2024 11 29  8 39 34.7990000  0 23                     
G 4  22053481.979 6 115891806.723 6     -2243.974          38.000  
G 7  23714847.915 4 124622397.320 4      3144.528          27.000  
G 8  20542463.559 7 107951402.031 7      1982.349          46.000  
G 9  22328467.954 5 117336883.43425      -851.977          30.000  
G16  20679048.734 7 108669127.594 7     -1458.539          43.000  
G18  24321698.572 6 127811379.351 6     -1838.834          41.000  
G21  24092687.376 5 126607903.14525      3912.385          35.000  
G26  22460792.432 7 118032271.234 7     -2388.043          43.000  
G27  19696652.011 7 103506614.092 7      -205.688          46.000  
G31  23211156.472 5 121975417.545 5     -3289.852          33.000  
R14  23289666.648 4 124147010.378 4     -2805.788          29.000  
R15  19986040.455 7 106799302.428 7      -836.456          46.000  
R16  20499736.957 7 109505883.785 7      2064.301          46.000  
R17  19788657.717 7 105893088.162 7      -866.446          44.000  
R18  20098953.820 7 107289529.597 7      2985.173          42.000  
R24  23381341.549 5 125030293.417 5     -3920.152          32.000  
E 4  25102868.203 6 131916434.721 6     -1930.867          36.000  
E14  22387868.520 7 117649062.157 7      3140.565          42.000  
E21  26099684.250 6 137154773.610 6     -1760.207          39.000  
E23  23465853.295 7 123313906.580 7      -220.108          43.000  
E26  25227239.761 6 132570067.043 6      1739.258          41.000  
J 2  38940029.486 7 204631234.290 7      -117.839          43.000  
J 3  37208052.169 5 195529632.918 5       110.698          34.000  
> 2024 11 29  8 39 34.9990000  0 23                     
G 4  22053567.363 6 115892255.534 6     -2243.701          38.000  
G 7  23714728.503 4 124621768.475 4      3144.172          26.000  
G 8  20542387.947 7 107951005.517 7      1982.489          46.000  
G 9  22328500.290 5 117337053.91125      -851.139          31.000  
G16  20679104.191 7 108669419.166 7     -1457.245          43.000  
G18  24321768.565 6 127811747.236 6     -1838.753          41.000  
G21  24092536.083 5 126607120.60525      3912.206          31.000  
G26  22460883.348 7 118032748.930 7     -2388.717          42.000  
G27  19696659.829 7 103506655.159 7      -205.558          46.000  
G31  23211281.764 5 121976075.715 5     -3290.635          35.000  
R14  23289770.250 5 124147571.502 5     -2805.208          30.000  
R15  19986071.708 7 106799469.729 7      -837.000          45.000  
R16  20499659.565 7 109505470.811 7      2064.984          46.000  
R17  19788690.262 7 105893261.520 7      -867.047          42.000  
R18  20098842.017 7 107288932.569 7      2985.056          44.000  
R24  23381488.201 5 125031077.463 5     -3919.449          32.000  
E 4  25102941.790 6 131916820.881 6     -1930.661          36.000  
E14  22387749.021 7 117648433.964 7      3141.144          42.000  
E21  26099751.172 6 137155125.604 6     -1759.123          39.000  
E23  23465861.619 7 123313950.516 7      -219.408          43.000  
E26  25227173.642 6 132569719.069 6      1739.966          38.000  
J 2  38940033.866 7 204631257.829 7      -117.823          43.000  
J 3  37208047.841 5 195529610.637 5       110.684          31.000  
> 2024 11 29  8 39 35.1990000  0 23                     
G 4  22053652.747 6 115892704.336 6     -2243.507          38.000  
G 7  23714609.109 4 124621139.869 4      3143.138          26.000  
G 8  20542312.388 7 107950609.100 7      1982.117          46.000  
G 9  22328531.787 5 117337224.41025      -851.921          31.000  
G16  20679159.770 7 108669710.762 7     -1458.063          43.000  
G18  24321838.557 6 127812115.176 6     -1840.107          41.000  
G21  24092388.087 5 126606338.05425      3911.414          32.000  
G26  22460974.316 7 118033226.660 7     -2388.069          43.000  
G27  19696667.629 7 103506696.281 7      -205.638          45.000  
G31  23211406.865 5 121976733.632 5     -3288.354          32.000  
R14  23289873.101 4 124148132.844 4     -2806.986          29.000  
R15  19986103.084 7 106799637.109 7      -836.758          44.000  
R16  20499582.103 7 109505057.883 7      2064.392          46.000  
R17  19788722.510 7 105893434.937 7      -866.754          42.000  
R18  20098730.178 7 107288335.638 7      2984.809          46.000  
R24  23381634.765 5 125031861.571 5     -3921.229          32.000  
E 4  25103015.238 6 131917207.093 6     -1931.308          36.000  
E14  22387629.434 7 117647805.813 7      3140.848          42.000  
E21  26099818.146 6 137155477.641 6     -1760.833          39.000  
E23  23465869.943 7 123313994.519 7      -220.052          43.000  
E26  25227107.523 4 132569371.489 4      1737.104          29.000  
J 2  38940038.263 7 204631281.369 7      -117.704          43.000  
J 3  37208043.635 6 195529588.568 6       110.416          39.000  
> 2024 11 29  8 39 35.3990000  0 23                     
G 4  22053738.078 6 115893153.175 6     -2244.174          38.000  
G 7  23714487.428 4 124620510.949 4      3144.856          27.000  
G 8  20542236.950 7 107950212.645 7      1982.300          46.000  
G 9  22328566.950 5 117337395.00425      -853.577          31.000  
G16  20679215.157 7 108670002.376 7     -1458.057          43.000  
G18  24321908.585 6 127812483.030 6     -1839.467          41.000  
G21  24092239.883 5 126605555.45325      3913.494          33.000  
G26  22461065.109 7 118033704.373 7     -2388.751          42.000  
G27  19696675.447 7 103506737.402 7      -205.537          45.000  
G31  23211532.157 6 121977391.807 6     -3291.405          37.000  
R14  23289978.832 5 124148694.418 5     -2807.900          30.000  
R15  19986134.494 7 106799804.435 7      -836.685          46.000  
R16  20499504.816 7 109504644.925 7      2064.783          46.000  
R17  19788754.968 7 105893608.315 7      -867.239          44.000  
R18  20098618.515 7 107287738.701 7      2984.741          46.000  
R24  23381779.742 5 125032645.583 5     -3920.304          33.000  
E 4  25103088.582 6 131917593.227 6     -1930.597          36.000  
E14  22387509.953 7 117647177.660 7      3140.842          42.000  
E21  26099885.015 6 137155829.545 6     -1758.698          41.000  
E23  23465878.371 7 123314038.477 7      -219.713          43.000  
E26  25227041.090 5 132569023.625 5      1739.319          34.000  
J 2  38940042.696 7 204631304.887 7      -117.606          43.000  
J 3  37208039.482 7 195529566.508 7       110.370          42.000  
> 2024 11 29  8 39 35.5990000  0 24                     
G 4  22053823.340 6 115893602.035 6     -2244.042          38.000  
G 7  23714367.493 4 124619882.193 4      3143.778          27.000  
G 8  20542161.461 7 107949816.198 7      1982.281          46.000  
G 9  22328599.791 5 117337565.50225      -852.766          31.000  
G16  20679270.509 7 108670293.961 7     -1457.617          43.000  
G18  24321978.752 6 127812850.961 6     -1839.478          41.000  
G21  24092092.236 5 126604772.93825      3912.428          33.000  
G26  22461155.868 6 118034182.042 6     -2387.987          41.000  
G27  19696683.264 7 103506778.532 7      -205.349          45.000  
G31  23211657.363 6 121978049.943 6     -3290.705          41.000  
R 7  23411418.565 2               2      1016.594          17.000  
R14  23290087.582 6 124149255.644 6     -2806.104          36.000  
R15  19986165.905 7 106799971.745 7      -836.287          46.000  
R16  20499427.617 7 109504231.960 7      2065.027          46.000  
R17  19788787.407 7 105893781.710 7      -866.913          44.000  
R18  20098506.746 7 107287141.772 7      2984.921          45.000  
R24  23381925.451 5 125033429.670 5     -3919.841          32.000  
E 4  25103162.099 6 131917979.397 6     -1930.724          36.000  
E14  22387390.297 7 117646549.482 7      3141.197          42.000  
E21  26099951.971 6 137156181.553 6     -1760.281          39.000  
E23  23465886.642 7 123314082.437 7      -219.536          43.000  
E26  25226974.884 5 132568675.745 5      1739.983          34.000  
J 2  38940047.215 7 204631328.380 7      -117.181          43.000  
J 3  37208035.347 7 195529544.449 7       110.436          42.000  
> 2024 11 29  8 39 35.7990000  0 24                     
G 4  22053908.619 6 115894050.871 6     -2244.692          37.000  
G 7  23714248.413 4 124619253.393 4      3143.414          27.000  
G 8  20542086.180 7 107949419.767 7      1982.178          46.000  
G 9  22328635.093 5 117337736.06625      -853.101          31.000  
G16  20679325.966 7 108670585.520 7     -1457.849          44.000  
G18  24322048.780 6 127813218.831 6     -1839.250          41.000  
G21  24091942.077 5 126603990.30325      3912.343          33.000  
G26  22461246.748 5 118034659.826 5     -2389.793          35.000  
G27  19696691.169 7 103506819.686 7      -205.914          45.000  
G31  23211782.725 7 121978708.137 7     -3291.122          42.000  
R 7  23411380.960 2               2      1016.594          17.000  
R14  23290195.861 6 124149816.949 6     -2807.021          36.000  
R15  19986197.193 7 106800139.102 7      -836.992          44.000  
R16  20499350.242 7 109503818.996 7      2064.789          46.000  
R17  19788819.865 7 105893955.178 7      -867.665          42.000  
R18  20098394.907 7 107286544.814 7      2984.690          45.000  
R24  23382074.284 5 125034213.687 5     -3920.099          32.000  
E 4  25103235.600 6 131918365.600 6     -1930.964          36.000  
E14  22387270.867 7 117645921.278 7      3141.088          42.000  
E21  26100018.875 6 137156533.459 6     -1759.189          39.000  
E23  23465895.141 7 123314126.381 7      -219.870          43.000  
E26  25226906.549 4 132568327.530 4      1741.242          29.000  
J 2  38940051.805 7 204631351.874 7      -117.520          43.000  
J 3  37208031.019 6 195529522.255 6       111.918          40.000  
> 2024 11 29  8 39 35.9990000  0 24                     
G 4  22053994.003 6 115894499.677 6     -2244.083          37.000  
G 7  23714128.425 4 124618624.598 4      3143.692          26.000  
G 8  20542010.778 7 107949023.339 7      1981.781          46.000  
G 9  22328664.200 5 117337906.57825      -852.519          31.000  
G16  20679381.422 7 108670877.087 7     -1457.947          44.000  
G18  24322118.790 6 127813586.826 6     -1839.882          41.000  
G21  24091792.808 5 126603207.73525      3912.229          33.000  
G26  22461337.751 6 118035137.679 6     -2387.739          37.000  
G27  19696698.970 7 103506860.850 7      -206.173          46.000  
G31  23211907.895 6 121979366.213 6     -3289.949          39.000  
R 7  23411344.192 2               2      1023.144          17.000  
R14  23290301.958 4               4     -2804.185          28.000  
R15  19986228.516 7 106800306.468 7      -836.867          44.000  
R16  20499272.990 7 109503406.039 7      2064.661          46.000  
R17  19788852.252 6 105894128.650 6      -867.608          41.000  
R18  20098283.104 7 107285947.911 7      2984.516          45.000  
R24  23382219.191 5 125034997.829 5     -3920.832          32.000  
E 4  25103309.240 6 131918751.748 6     -1931.211          36.000  
E14  22387151.194 7 117645293.079 7      3140.940          42.000  
E21  26100085.535 5 137156885.622 5     -1762.463          31.000  
E23  23465903.517 7 123314170.330 7      -219.809          43.000  
E26  25226837.551 6 132567979.827 6      1738.633          38.000  
J 2  38940056.255 7 204631375.352 7      -117.566          43.000  
J 3  37208026.813 7 195529500.246 7       109.963          42.000  
> 2024 11 29  8 39 36.1990000  0 24                     
G 4  22054079.335 6 115894948.574 6     -2244.450          37.000  
G 7  23714007.216 4 124617995.771 4      3144.221          26.000  
G 8  20541935.358 7 107948626.920 7      1982.037          46.000  
G 9  22328699.938 5 117338077.09825      -852.627          31.000  
G16  20679436.897 7 108671168.674 7     -1457.947          43.000  
G18  24322188.696 6 127813954.724 6     -1839.805          41.000  
G21  24091641.270 5 126602424.60615      3912.638          33.000  
G26  22461428.719 6 118035615.323 6     -2388.518          37.000  
G27  19696706.787 7 103506902.012 7      -206.000          46.000  
G31  23212033.258 7 121980024.426 7     -3291.248          42.000  
R 7  23411307.302 3               3      1021.252          18.000  
R14  23290405.961 4               4     -2806.879          28.000  
R15  19986259.979 6 106800473.817 6      -836.631          41.000  
R16  20499195.668 7 109502993.053 7      2064.801          46.000  
R17  19788884.588 6 105894302.124 6      -867.198          41.000  
R18  20098171.178 7 107285351.009 7      2984.343          45.000  
R24  23382366.453 5 125035781.827 5     -3919.638          32.000  
E 4  25103382.705 6 131919137.910 6     -1930.946          36.000  
E14  22387031.712 7 117644664.877 7      3140.956          42.000  
E21  26100149.909 4 137157237.676 4     -1758.573          26.000  
E23  23465911.841 7 123314214.260 7      -219.714          43.000  
E26  25226773.945 6 132567631.932 6      1738.845          40.000  
J 2  38940060.722 7 204631399.78037      -117.137          43.000  
J 3  37208022.590 7 195529477.53537       109.640          42.000  
> 2024 11 29  8 39 36.3990000  0 24                     
G 4  22054164.771 6 115895397.395 6     -2244.728          37.000  
G 7  23713887.630 4 124617366.821 4      3145.764          26.000  
G 8  20541859.869 7 107948230.489 7      1982.074          46.000  
G 9  22328731.365 5 117338247.68825      -852.481          31.000  
G16  20679492.371 7 108671460.245 7     -1457.971          43.000  
G18  24322258.863 7 127814322.602 7     -1839.223          42.000  
G21  24091491.530 5 126601641.961 5      3913.292          33.000  
G26  22461519.652 5 118036092.797 5     -2387.054          35.000  
G27  19696714.692 7 103506943.176 7      -206.040          46.000  
G31  23212158.463 6 121980682.496 6     -3291.019          41.000  
R 7  23411270.639 3               3      1014.849          19.000  
R14  23290511.535 5               5     -2806.804          33.000  
R15  19986291.407 7 106800641.139 7      -836.709          42.000  
R16  20499118.364 7 109502580.062 7      2064.697          46.000  
R17  19788916.993 6 105894475.631 6      -867.436          41.000  
R18  20098059.130 7 107284754.090 7      2984.804          45.000  
R24  23382512.965 5 125036565.933 5     -3920.810          32.000  
E 4  25103456.170 6 131919524.090 6     -1931.165          36.000  
E14  22386912.196 7 117644036.657 7      3141.159          42.000  
E21  26100212.782 5 137157589.498 5     -1759.408          31.000  
E23  23465920.339 7 123314258.171 7      -219.660          43.000  
E26  25226705.488 6 132567284.130 6      1739.133          41.000  
J 2  38940065.137 7 204631423.20327      -117.081          42.000  
J 3  37208018.455 6 195529455.35426       112.046          40.000  
> 2024 11 29  8 39 36.5990000  0 24                     
G 4  22054250.207 6 115895846.252 6     -2244.573          37.000  
G 7  23713767.851 4 124616738.014 4      3144.261          26.000  
G 8  20541784.449 7 107947834.088 7      1981.805          46.000  
G 9  22328763.264 5 117338418.32825      -853.326          31.000  
G16  20679547.845 7 108671751.828 7     -1458.002          43.000  
G18  24322328.909 6 127814690.552 6     -1839.940          41.000  
G21  24091345.088 5 126600859.346 5      3912.885          33.000  
G26  22461610.516 6 118036570.425 6     -2388.846          39.000  
G27  19696722.510 7 103506984.365 7      -205.782          46.000  
G31  23212283.616 6 121981340.620 6     -3290.553          41.000  
R 7  23411233.575 3               3      1016.471          19.000  
R14  23290616.149 5 124152033.26035     -2805.199          32.000  
R15  19986322.712 7 106800808.463 7      -836.752          44.000  
R16  20499041.129 7 109502167.065 7      2064.899          46.000  
R17  19788949.241 7 105894649.184 7      -867.873          43.000  
R18  20097947.240 7 107284157.249 7      2984.401          45.000  
R24  23382660.734 5 125037349.973 5     -3920.655          33.000  
E 4  25103529.531 6 131919910.263 6     -1931.187          36.000  
E14  22386792.627 7 117643408.444 7      3140.897          42.000  
E21  26100276.336 5 137157941.139 5     -1757.216          30.000  
E23  23465928.750 7 123314302.081 7      -219.649          43.000  
E26  25226641.044 6 132566936.173 6      1739.318          39.000  
J 2  38940069.517 7 204631446.64427      -117.441          42.000  
J 3  37208014.302 7 195529433.24827       111.171          42.000  
> 2024 11 29  8 39 36.7990000  0 24                     
G 4  22054335.643 6 115896295.113 6     -2244.166          37.000  
G 7  23713648.370 4 124616109.283 4      3143.313          26.000  
G 8  20541709.046 7 107947437.685 7      1982.141          46.000  
G 9  22328795.565 5 117338588.92925      -853.746          31.000  
G16  20679603.407 7 108672043.419 7     -1457.843          44.000  
G18  24322398.971 6 127815058.500 6     -1840.012          38.000  
G21  24091194.266 5 126600076.621 5      3913.756          33.000  
G26  22461701.239 7 118037048.121 7     -2388.197          43.000  
G27  19696730.345 7 103507025.592 7      -206.061          46.000  
G31  23212408.891 6 121981998.728 6     -3289.864          41.000  
R 7  23411197.540 3               3      1011.046          20.000  
R14  23290720.187 5 124152594.51825     -2806.320          32.000  
R15  19986354.088 7 106800975.830 7      -836.742          45.000  
R16  20498963.755 7 109501754.061 7      2065.131          46.000  
R17  19788981.716 7 105894822.784 7      -867.868          43.000  
R18  20097835.401 7 107283560.395 7      2984.241          45.000  
R24  23382808.519 5 125038134.056 5     -3920.328          33.000  
E 4  25103602.944 6 131920296.428 6     -1930.983          36.000  
E14  22386673.250 7 117642780.230 7      3141.191          42.000  
E21  26100346.486 6 137158293.087 6     -1759.566          36.000  
E23  23465937.056 7 123314346.011 7      -219.514          44.000  
E26  25226568.748 6 132566588.379 6      1739.538          40.000  
J 2  38940073.879 7 204631470.03727      -116.821          42.000  
J 3  37208010.201 6 195529411.08826       110.735          41.000  
> 2024 11 29  8 39 36.9990000  0 24                     
G 4  22054421.027 6 115896743.988 6     -2243.941          37.000  
G 7  23713527.841 4 124615480.335 4      3144.938          26.000  
G 8  20541633.626 7 107947041.329 7      1981.891          46.000  
G 9  22328826.975 5 117338759.52025      -853.504          31.000  
G16  20679658.863 7 108672335.028 7     -1458.008          44.000  
G18  24322469.104 6 127815426.527 6     -1839.852          36.000  
G21  24091050.319 5 126599293.973 5      3914.257          34.000  
G26  22461791.981 7 118037525.846 7     -2388.631          43.000  
G27  19696738.267 7 103507066.830 7      -206.163          46.000  
G31  23212534.166 6 121982656.883 6     -3289.913          41.000  
R 7  23411161.349 3               3      1010.200          20.000  
R14  23290828.448 5 124153155.80625     -2805.875          32.000  
R15  19986385.551 7 106801143.232 7      -836.949          46.000  
R16  20498886.485 7 109501341.104 7      2065.002          46.000  
R17  19789014.260 7 105894996.421 7      -868.312          44.000  
R18  20097723.615 7 107282963.583 7      2983.847          45.000  
R24  23382955.817 5 125038918.142 5     -3920.997          33.000  
E 4  25103676.427 6 131920682.652 6     -1931.108          36.000  
E14  22386553.786 7 117642152.032 7      3140.933          42.000  
E21  26100414.664 6 137158645.063 6     -1759.809          39.000  
E23  23465945.432 7 123314389.942 7      -219.742          44.000  
E26  25226507.829 6 132566240.541 6      1738.543          40.000  
J 2  38940078.486 7 204631493.45827      -116.958          43.000  
J 3  37208006.135 6 195529388.93626       110.784          41.000  
> 2024 11 29  8 39 37.1990000  0 24                     
G 4  22054506.411 6 115897192.893 6     -2244.015          37.000  
G 7  23713408.098 4 124614851.524 4      3144.268          26.000  
G 8  20541558.276 7 107946644.972 7      1981.683          46.000  
G 9  22328860.584 5 117338930.17125      -853.332          31.000  
G16  20679714.338 7 108672626.619 7     -1457.806          44.000  
G18  24322539.114 5 127815794.617 5     -1841.000          35.000  
G21  24090900.421 5 126598511.350 5      3914.340          33.000  
G26  22461882.809 7 118038003.501 7     -2388.123          43.000  
G27  19696746.295 7 103507108.076 7      -206.163          46.000  
G31  23212659.511 6 121983315.018 6     -3289.703          41.000  
R 7  23411125.035 3               3      1009.914          21.000  
R14  23290934.825 5 124153717.05225     -2806.388          32.000  
R15  19986416.926 7 106801310.620 7      -836.820          46.000  
R16  20498809.303 7 109500928.109 7      2065.131          46.000  
R17  19789046.596 7 105895170.027 7      -867.850          43.000  
R18  20097611.899 7 107282366.759 7      2984.309          45.000  
R24  23383102.835 5 125039702.193 5     -3920.889          33.000  
E 4  25103749.945 6 131921068.851 6     -1931.671          36.000  
E14  22386434.478 7 117641523.835 7      3141.163          42.000  
E21  26100482.947 6 137158997.001 6     -1759.720          40.000  
E23  23465953.913 7 123314433.846 7      -219.289          44.000  
E26  25226438.447 6 132565892.668 6      1739.987          40.000  
J 2  38940082.971 7 204631516.86327      -117.098          43.000  
J 3  37208001.825 6 195529366.77326       111.184          41.000  
> 2024 11 29  8 39 37.3990000  0 24                     
G 4  22054591.760 6 115897641.782 6     -2244.450          37.000  
G 7  23713288.843 4 124614222.681 4      3144.088          26.000  
G 8  20541482.804 7 107946248.596 7      1981.714          46.000  
G 9  22328892.640 5 117339100.76025      -852.739          31.000  
G16  20679769.917 7 108672918.170 7     -1457.617          44.000  
G18  24322609.089 5 127816162.605 5     -1840.022          32.000  
G21  24090752.060 5 126597728.667 5      3913.798          34.000  
G26  22461973.637 7 118038481.148 7     -2387.858          43.000  
G27  19696754.217 7 103507149.311 7      -205.945          46.000  
G31  23212784.839 6 121983973.139 6     -3290.218          41.000  
R 7  23411088.494 3               3      1016.229          21.000  
R14  23291041.201 5 124154278.25825     -2805.915          32.000  
R15  19986448.371 7 106801477.968 7      -836.826          45.000  
R16  20498732.016 7 109500515.101 7      2065.155          47.000  
R17  19789079.036 7 105895343.640 7      -868.111          42.000  
R18  20097500.182 7 107281769.959 7      2983.946          45.000  
R24  23383249.207 5 125040486.236 5     -3919.686          33.000  
E 4  25103823.445 6 131921455.009 6     -1930.502          36.000  
E14  22386314.910 7 117640895.612 7      3141.028          42.000  
E21  26100547.792 6 137159348.845 6     -1759.133          40.000  
E23  23465962.219 7 123314477.725 7      -219.373          44.000  
E26  25226378.890 6 132565544.841 6      1739.091          40.000  
J 2  38940087.490 7 204631540.20127      -116.530          43.000  
J 3  37207997.654 6 195529344.60326       110.360          41.000  
> 2024 11 29  8 39 37.5990000  0 24                     
G 4  22054677.109 6 115898090.717 6     -2244.942          37.000  
G 7  23713167.843 4 124613593.855 4      3144.517          26.000  
G 8  20541407.454 7 107945852.271 7      1981.427          46.000  
G 9  22328925.011 5 117339271.50925      -854.255          31.000  
G16  20679825.216 7 108673209.777 7     -1458.032          43.000  
G18  24322679.030 5 127816530.635 5     -1839.963          33.000  
G21  24090601.482 5 126596946.040 5      3912.926          34.000  
G26  22462064.518 7 118038958.821 7     -2388.326          42.000  
G27  19696761.965 7 103507190.612 7      -206.410          46.000  
G31  23212910.149 6 121984631.297 6     -3290.458          41.000  
R 7  23411051.604 3               3      1015.949          22.000  
R14  23291143.181 5 124154839.57425     -2807.239          32.000  
R15  19986479.677 7 106801645.351 7      -836.821          45.000  
R16  20498654.712 7 109500102.133 7      2064.954          47.000  
R17  19789111.615 7 105895517.351 7      -868.724          43.000  
R18  20097388.292 7 107281173.196 7      2983.608          45.000  
R24  23383396.731 5 125041270.376 5     -3920.941          33.000  
E 4  25103896.998 6 131921841.251 6     -1931.180          36.000  
E14  22386195.323 7 117640267.437 7      3140.833          42.000  
E21  26100616.249 6 137159700.782 6     -1759.518          40.000  
E23  23465970.753 7 123314521.652 7      -219.666          44.000  
E26  25226307.134 6 132565197.053 6      1738.878          40.000  
J 2  38940091.940 7 204631563.59327      -116.838          43.000  
J 3  37207993.483 6 195529322.42226       110.643          41.000  
> 2024 11 29  8 39 37.7990000  0 24                     
G 4  22054762.598 6 115898539.642 6     -2244.942          37.000  
G 7  23713048.658 4 124612964.982 4      3144.586          26.000  
G 8  20541331.895 7 107945455.945 7      1981.458          46.000  
G 9  22328959.457 5 117339442.15325      -853.046          31.000  
G16  20679880.725 7 108673501.381 7     -1458.246          43.000  
G18  24322749.127 5 127816898.733 5     -1840.888          33.000  
G21  24090452.178 5 126596163.370 5      3912.472          33.000  
G26  22462155.364 7 118039436.492 7     -2388.353          42.000  
G27  19696769.870 7 103507231.929 7      -206.865          46.000  
G31  23213035.528 6 121985289.445 6     -3290.808          41.000  
R 7  23411015.971 3               3      1021.685          22.000  
R14  23291247.725 4 124155400.72124     -2804.993          28.000  
R15  19986511.175 7 106801812.750 7      -837.056          45.000  
R16  20498577.529 7 109499689.155 7      2064.813          46.000  
R17  19789144.038 7 105895691.076 7      -868.784          43.000  
R18  20097276.575 7 107280576.455 7      2983.399          45.000  
R24  23383543.383 5 125042054.497 5     -3921.032          33.000  
E 4  25103970.498 6 131922227.478 6     -1931.495          36.000  
E14  22386075.772 7 117639639.265 7      3140.653          42.000  
E21  26100685.578 6 137160052.668 6     -1759.913          40.000  
E23  23465978.919 7 123314565.562 7      -219.864          44.000  
E26  25226243.284 6 132564849.215 6      1738.705          40.000  
J 2  38940096.477 7 204631586.97127      -116.858          43.000  
J 3  37207989.313 6 195529300.25826       110.699          41.000  
> 2024 11 29  8 39 37.9990000  0 24                     
G 4  22054847.947 6 115898988.566 6     -2244.595          37.000  
G 7  23712928.426 4 124612336.161 4      3143.762          26.000  
G 8  20541256.457 7 107945059.652 7      1981.421          46.000  
G 9  22328992.211 5 117339612.93025      -854.154          31.000  
G16  20679936.269 7 108673792.999 7     -1458.148          43.000  
G18  24322819.312 5 127817266.782 5     -1840.613          34.000  
G21  24090302.176 5 126595380.671 5      3913.340          34.000  
G26  22462246.227 7 118039914.189 7     -2388.571          42.000  
G27  19696777.792 7 103507273.252 7      -206.719          46.000  
G31  23213160.804 6 121985947.601 6     -3290.711          41.000  
R 7  23410979.884 3               3      1024.049          23.000  
R14  23291353.037 4 124155962.11324     -2806.771          29.000  
R15  19986542.480 7 106801980.182 7      -837.284          45.000  
R16  20498500.277 7 109499276.184 7      2064.764          47.000  
R17  19789176.635 7 105895864.823 7      -869.013          43.000  
R18  20097164.667 7 107279979.744 7      2983.415          45.000  
R24  23383689.267 5 125042838.614 5     -3921.174          33.000  
E 4  25104043.894 6 131922613.685 6     -1930.681          36.000  
E14  22385956.273 7 117639011.088 7      3140.652          42.000  
E21  26100754.018 6 137160404.563 6     -1759.481          40.000  
E23  23465987.191 7 123314609.479 7      -219.607          44.000  
E26  25226178.229 6 132564501.426 6      1739.249          40.000  
J 2  38940100.927 7 204631610.34127      -116.944          43.000  
J 3  37207985.212 6 195529278.09026       110.605          41.000  
> 2024 11 29  8 39 38.1990000  0 24                     
G 4  22054933.313 6 115899437.563 6     -2244.531          37.000  
G 7  23712807.321 4 124611707.340 4      3144.167          26.000  
G 8  20541181.020 7 107944663.394 7      1981.219          46.000  
G 9  22329024.547 5 117339783.67025      -854.273          31.000  
G16  20679991.866 7 108674084.636 7     -1458.173          43.000  
G18  24322889.287 5 127817634.877 5     -1840.836          34.000  
G21  24090152.470 5 126594597.982 5      3913.984          33.000  
G26  22462337.073 7 118040391.859 7     -2388.471          42.000  
G27  19696785.732 7 103507314.626 7      -206.729          46.000  
G31  23213286.044 6 121986605.794 6     -3291.048          41.000  
R 7  23410943.762 3               3      1009.832          23.000  
R14  23291458.576 5 124156523.38825     -2806.829          30.000  
R15  19986573.769 7 106802147.616 7      -837.221          45.000  
R16  20498422.938 7 109498863.238 7      2064.905          46.000  
R17  19789209.127 7 105896038.628 7      -869.144          43.000  
R18  20097052.968 7 107279383.072 7      2983.325          45.000  
R24  23383836.808 5 125043622.714 5     -3920.264          32.000  
E 4  25104117.481 6 131922999.995 6     -1931.970          36.000  
E14  22385836.808 7 117638382.919 7      3140.673          42.000  
E21  26100814.239 6 137160756.470 6     -1759.637          40.000  
E23  23465995.497 7 123314653.412 7      -219.632          44.000  
E26  25226110.034 6 132564153.688 6      1738.720          40.000  
J 2  38940105.394 7 204631633.70527      -116.637          43.000  
J 3  37207980.902 6 195529255.95526       110.515          41.000  
> 2024 11 29  8 39 38.3990000  0 24                     
G 4  22055018.715 6 115899886.562 6     -2244.601          37.000  
G 7  23712686.897 4 124611078.542 4      3143.874          26.000  
G 8  20541105.740 7 107944267.159 7      1981.103          46.000  
G 9  22329056.620 5 117339954.43325      -853.550          31.000  
G16  20680047.375 7 108674376.286 7     -1458.240          43.000  
G18  24322959.367 5 127818002.986 5     -1841.223          34.000  
G21  24090004.196 5 126593815.369 5      3912.844          33.000  
G26  22462427.919 7 118040869.595 7     -2388.784          42.000  
G27  19696793.497 7 103507356.039 7      -207.063          46.000  
G31  23213411.354 6 121987264.000 6     -3291.194          41.000  
R 7  23410907.797 4               4      1015.738          24.000  
R14  23291563.870 5 124157084.69725     -2807.024          30.000  
R15  19986605.179 7 106802315.078 7      -837.481          45.000  
R16  20498345.668 7 109498450.310 7      2064.630          46.000  
R17  19789241.584 7 105896212.482 7      -869.219          43.000  
R18  20096941.200 7 107278786.438 7      2982.951          45.000  
R24  23383983.652 5 125044406.931 5     -3920.910          31.000  
E 4  25104191.051 6 131923386.254 6     -1931.623          36.000  
E14  22385717.309 7 117637754.764 7      3140.826          42.000  
E21  26100886.745 6 137161108.401 6     -1759.496          40.000  
E23  23466003.716 7 123314697.369 7      -219.821          44.000  
E26  25226044.596 6 132563805.954 6      1738.400          40.000  
J 2  38940109.844 7 204631657.09427      -116.719          43.000  
J 3  37207976.661 6 195529233.81926       110.364          41.000  
> 2024 11 29  8 39 38.5990000  0 24                     
G 4  22055104.029 6 115900335.589 6     -2244.815          37.000  
G 7  23712566.020 4 124610449.748 4      3143.713          26.000  
G 8  20541030.285 7 107943870.927 7      1981.219          46.000  
G 9  22329090.473 5 117340125.21325      -853.898          31.000  
G16  20680103.076 7 108674667.931 7     -1458.148          43.000  
G18  24323029.256 5 127818371.049 5     -1840.232          35.000  
G21  24089855.782 5 126593032.684 5      3913.303          33.000  
G26  22462518.730 7 118041347.267 7     -2388.284          42.000  
G27  19696801.245 7 103507397.439 7      -207.033          45.000  
G31  23213536.646 6 121987922.185 6     -3291.078          41.000  
R 7  23410872.495 4               4      1015.337          24.000  
R14  23291670.142 5 124157645.97625     -2806.897          31.000  
R15  19986636.467 7 106802482.528 7      -837.107          45.000  
R16  20498268.381 7 109498037.362 7      2064.752          46.000  
R17  19789274.164 7 105896386.348 7      -869.199          43.000  
R18  20096829.274 7 107278189.791 7      2983.024          45.000  
R24  23384129.431 5 125045191.218 5     -3922.614          31.000  
E 4  25104264.674 6 131923772.541 6     -1931.102          36.000  
E14  22385597.688 7 117637126.605 7      3140.798          42.000  
E21  26100951.345 6 137161460.304 6     -1759.397          40.000  
E23  23466012.162 7 123314741.298 7      -219.564          44.000  
E26  25225976.208 6 132563458.190 6      1738.948          40.000  
J 2  38940114.172 7 204631680.47127      -116.727          43.000  
J 3  37207972.421 6 195529211.66026       110.363          41.000  
> 2024 11 29  8 39 38.7990000  0 24                     
G 4  22055189.413 6 115900784.626 6     -2245.369          37.000  
G 7  23712446.050 4 124609820.829 4      3144.265          26.000  
G 8  20540954.761 7 107943474.755 7      1980.670          46.000  
G 9  22329122.128 5 117340296.04825      -854.118          31.000  
G16  20680158.568 7 108674959.624 7     -1458.752          43.000  
G18  24323099.266 5 127818739.185 5     -1840.654          35.000  
G21  24089707.088 5 126592250.023 5      3913.610          33.000  
G26  22462609.576 7 118041824.999 7     -2388.779          42.000  
G27  19696809.220 7 103507438.911 7      -207.557          45.000  
G31  23213661.991 6 121988580.380 6     -3291.023          41.000  
R 7  23410838.048 4               4      1014.149          25.000  
R14  23291774.983 5 124158207.29725     -2806.981          31.000  
R15  19986667.913 7 106802650.034 7      -837.726          45.000  
R16  20498191.024 7 109497624.451 7      2064.282          46.000  
R17  19789306.709 7 105896560.284 7      -870.041          43.000  
R18  20096717.435 7 107277593.196 7      2982.601          45.000  
R24  23384277.322 5 125045975.352 5     -3920.984          30.000  
E 4  25104338.122 6 131924158.865 6     -1931.947          36.000  
E14  22385478.311 7 117636498.465 7      3140.687          42.000  
E21  26101019.419 6 137161812.226 6     -1759.809          39.000  
E23  23466020.276 7 123314785.260 7      -219.987          44.000  
E26  25225910.892 6 132563110.503 6      1738.411          40.000  
J 2  38940118.517 7 204631703.84027      -116.963          43.000  
J 3  37207968.233 6 195529189.51226       110.374          41.000  
> 2024 11 29  8 39 38.9990000  0 24                     
G 4  22055274.744 6 115901233.724 6     -2245.219          37.000  
G 7  23712324.683 4 124609192.089 4      3143.969          26.000  
G 8  20540879.463 7 107943078.585 7      1980.634          46.000  
G 9  22329151.322 5 117340466.97525      -854.271          31.000  
G16  20680213.920 7 108675251.317 7     -1458.624          43.000  
G18  24323169.363 6 127819107.400 6     -1841.283          37.000  
G21  24089557.470 5 126591467.382 5      3913.547          33.000  
G26  22462700.439 7 118042302.733 7     -2388.719          42.000  
G27  19696817.020 7 103507480.401 7      -207.624          45.000  
G31  23213787.301 6 121989238.640 6     -3291.285          41.000  
R 7  23410803.113 4               4      1014.897          25.000  
R14  23291879.388 5 124158768.65625     -2807.154          31.000  
R15  19986699.323 7 106802817.550 7      -837.585          45.000  
R16  20498113.790 7 109497211.552 7      2064.484          46.000  
R17  19789339.061 7 105896734.274 7      -870.241          43.000  
R18  20096605.632 7 107276996.641 7      2982.806          45.000  
R24  23384427.149 5 125046759.640 5     -3921.478          30.000  
E 4  25104411.518 6 131924545.200 6     -1931.744          36.000  
E14  22385358.707 7 117635870.350 7      3140.608          42.000  
E21  26101085.154 6 137162164.158 6     -1759.552          39.000  
E23  23466028.600 7 123314829.239 7      -220.006          44.000  
E26  25225848.787 6 132562762.807 6      1738.543          40.000  
J 2  38940122.984 7 204631727.22927      -116.795          43.000  
J 3  37207964.150 6 195529167.39826       110.588          41.000  
> 2024 11 29  8 39 39.1990000  0 24                     
G 4  22055360.093 6 115901682.797 6     -2245.438          37.000  
G 7  23712205.324 4 124608563.317 4      3143.805          26.000  
G 8  20540804.095 7 107942682.428 7      1981.000          46.000  
G 9  22329184.740 5 117340637.86825      -854.213          31.000  
G16  20680269.499 7 108675543.011 7     -1458.484          43.000  
G18  24323239.356 6 127819475.570 6     -1840.779          38.000  
G21  24089408.096 5 126590684.727 5      3913.735          33.000  
G26  22462791.407 7 118042780.482 7     -2388.617          42.000  
G27  19696824.943 7 103507521.900 7      -207.471          45.000  
G31  23213912.716 6 121989896.885 6     -3291.334          41.000  
R 7  23410767.986 4               4      1015.283          25.000  
R14  23291983.792 5 124159330.00325     -2806.708          31.000  
R15  19986730.943 7 106802985.073 7      -837.591          45.000  
R16  20498036.346 7 109496798.652 7      2064.478          46.000  
R17  19789371.571 7 105896908.259 7      -869.972          43.000  
R18  20096493.898 7 107276400.106 7      2982.635          45.000  
R24  23384576.104 5 125047543.856 5     -3921.643          30.000  
E 4  25104485.123 6 131924931.520 6     -1931.771          36.000  
E14  22385239.104 7 117635242.222 7      3140.695          42.000  
E21  26101149.126 6 137162516.128 6     -1759.802          39.000  
E23  23466037.011 7 123314873.198 7      -219.810          44.000  
E26  25225784.291 6 132562415.155 6      1738.292          40.000  
J 2  38940127.591 7 204631750.60827      -116.707          43.000  
J 3  37207959.944 6 195529145.28426       110.539          41.000  
> 2024 11 29  8 39 39.3990000  0 24                     
G 4  22055445.599 6 115902131.825 6     -2245.124          37.000  
G 7  23712085.162 4 124607934.473 4      3144.409          26.000  
G 8  20540728.711 7 107942286.257 7      1980.731          46.000  
G 9  22329219.151 5 117340808.72125      -854.616          31.000  
G16  20680324.938 7 108675834.673 7     -1458.325          43.000  
G18  24323309.366 6 127819843.767 6     -1840.823          38.000  
G21  24089259.543 5 126589902.033 5      3913.799          34.000  
G26  22462882.375 7 118043258.161 7     -2388.566          42.000  
G27  19696832.813 7 103507563.376 7      -207.298          45.000  
G31  23214037.956 6 121990555.052 6     -3290.660          41.000  
R 7  23410732.597 4               4      1014.453          26.000  
R14  23292087.848 5 124159891.26525     -2805.950          31.000  
R15  19986762.301 7 106803152.572 7      -837.783          45.000  
R16  20497959.163 7 109496385.709 7      2064.642          46.000  
R17  19789403.906 7 105897082.260 7      -870.059          43.000  
R18  20096382.147 7 107275803.543 7      2982.682          45.000  
R24  23384728.096 5 125048328.081 5     -3921.277          30.000  
E 4  25104558.623 6 131925317.834 6     -1931.434          36.000  
E14  22385119.639 7 117634614.042 7      3140.978          42.000  
E21  26101223.412 6 137162867.972 6     -1759.228          39.000  
E23  23466045.614 7 123314917.132 7      -219.668          44.000  
E26  25225718.050 6 132562067.422 6      1738.678          40.000  
J 2  38940132.146 7 204631773.92927      -116.670          43.000  
J 3  37207955.582 6 195529123.10226       110.729          41.000  
> 2024 11 29  8 39 39.5990000  0 24                     
G 4  22055530.914 6 115902580.929 6     -2245.459          37.000  
G 7  23711965.069 4 124607305.608 4      3144.376          26.000  
G 8  20540653.273 7 107941890.113 7      1980.713          46.000  
G 9  22329252.691 5 117340979.66225      -855.790          31.000  
G16  20680380.465 7 108676126.348 7     -1458.386          43.000  
G18  24323379.516 6 127820211.998 6     -1841.106          38.000  
G21  24089112.071 5 126589119.339 5      3913.538          34.000  
G26  22462973.168 7 118043735.871 7     -2388.494          42.000  
G27  19696840.526 7 103507604.908 7      -207.724          45.000  
G31  23214163.214 6 121991213.279 6     -3291.133          41.000  
R 7  23410697.243 4               4      1014.105          26.000  
R14  23292191.171 5 124160452.61725     -2806.133          31.000  
R15  19986793.589 7 106803320.086 7      -837.774          45.000  
R16  20497881.772 7 109495972.784 7      2064.673          47.000  
R17  19789436.416 7 105897256.293 7      -870.353          43.000  
R18  20096270.466 7 107275207.028 7      2982.493          45.000  
R24  23384875.568 5 125049112.324 5     -3921.319          30.000  
E 4  25104632.001 6 131925704.192 6     -1931.809          36.000  
E14  22384999.966 7 117633985.894 7      3140.693          42.000  
E21  26101291.398 6 137163219.890 6     -1759.333          39.000  
E23  23466053.920 7 123314961.065 7      -219.702          44.000  
E26  25225651.058 6 132561719.754 6      1738.369          40.000  
J 2  38940136.560 7 204631797.25827      -116.653          43.000  
J 3  37207951.376 6 195529100.94326       110.808          41.000  
> 2024 11 29  8 39 39.7990000  0 24                     
G 4  22055616.332 6 115903030.031 6     -2245.244          37.000  
G 7  23711846.251 4 124606676.869 4      3143.702          26.000  
G 8  20540577.941 7 107941493.982 7      1980.493          46.000  
G 9  22329285.846 5 117341150.54125      -854.443          31.000  
G16  20680435.904 7 108676418.037 7     -1458.380          43.000  
G18  24323449.596 6 127820580.236 6     -1841.294          40.000  
G21  24088962.627 5 126588336.630 5      3913.978          34.000  
G26  22463064.014 7 118044213.583 7     -2388.380          42.000  
G27  19696848.309 7 103507646.447 7      -207.799          45.000  
G31  23214288.489 6 121991871.524 6     -3290.934          41.000  
R 7  23410662.761 4               4      1014.801          26.000  
R14  23292296.029 5 124161014.01925     -2806.872          31.000  
R15  19986825.034 7 106803487.611 7      -837.535          45.000  
R16  20497804.624 7 109495559.875 7      2064.636          47.000  
R17  19789468.978 7 105897430.375 7      -870.355          43.000  
R18  20096158.610 7 107274610.532 7      2982.452          45.000  
R24  23385024.226 5 125049896.537 5     -3921.045          30.000  
E 4  25104705.571 6 131926090.522 6     -1931.889          36.000  
E14  22384880.379 7 117633357.776 7      3140.345          42.000  
E21  26101358.162 6 137163571.796 6     -1759.475          39.000  
E23  23466062.314 7 123315005.016 7      -219.725          44.000  
E26  25225587.278 6 132561372.095 6      1738.327          40.000  
J 2  38940140.975 7 204631820.58227      -116.312          43.000  
J 3  37207947.240 6 195529078.79626       110.970          41.000  
> 2024 11 29  8 39 39.9990000  0 24                     
G 4  22055701.751 6 115903479.157 6     -2245.128          37.000  
G 7  23711725.984 4 124606048.027 4      3144.103          26.000  
G 8  20540502.713 7 107941097.891 7      1980.658          46.000  
G 9  22329320.031 5 117341321.49325      -853.906          31.000  
G16  20680491.501 7 108676709.760 7     -1458.539          43.000  
G18  24323519.676 6 127820948.532 6     -1841.326          40.000  
G21  24088812.520 5 126587553.990 5      3912.949          33.000  
G26  22463154.843 7 118044691.350 7     -2388.784          42.000  
G27  19696856.214 7 103507688.037 7      -207.759          45.000  
G31  23214413.816 6 121992529.762 6     -3290.996          41.000  
R 7  23410628.576 4 125318835.27034      1013.672          27.000  
R14  23292402.266 5 124161575.34825     -2806.979          31.000  
R15  19986856.253 7 106803655.180 7      -837.704          45.000  
R16  20497727.267 7 109495146.993 7      2064.655          47.000  
R17  19789501.348 7 105897604.518 7      -870.616          43.000  
R18  20096046.928 7 107274014.099 7      2982.091          45.000  
R24  23385173.670 5 125050680.825 5     -3920.673          30.000  
E 4  25104779.106 6 131926476.891 6     -1931.533          36.000  
E14  22384760.968 7 117632729.661 7      3140.754          42.000  
E21  26101425.433 6 137163923.714 6     -1759.397          39.000  
E23  23466070.533 7 123315048.987 7      -219.759          44.000  
E26  25225520.199 6 132561024.460 6      1738.315          40.000  
J 2  38940145.460 7 204631843.93827      -116.503          43.000  
J 3  37207942.983 6 195529056.65126       110.848          41.000  
> 2024 11 29  8 39 40.1990000  0 24                     
G 4  22055787.065 6 115903928.326 6     -2246.008          37.000  
G 7  23711606.973 4 124605419.182 4      3144.566          26.000  
G 8  20540427.380 7 107940701.817 7      1980.347          46.000  
G 9  22329351.180 5 117341492.52225      -855.452          31.000  
G16  20680547.062 7 108677001.467 7     -1458.520          43.000  
G18  24323589.739 6 127821316.809 6     -1841.583          40.000  
G21  24088664.298 5 126586771.261 5      3914.215          33.000  
G26  22463245.845 7 118045169.071 7     -2388.846          42.000  
G27  19696864.136 7 103507729.633 7      -208.098          45.000  
G31  23214539.144 6 121993188.021 6     -3291.383          41.000  
R 7  23410593.239 4 125318711.42734      1014.233          27.000  
R14  23292507.613 5 124162136.66325     -2806.060          31.000  
R15  19986887.558 7 106803822.743 7      -837.911          45.000  
R16  20497649.980 7 109494734.099 7      2064.380          47.000  
R17  19789533.963 7 105897778.677 7      -870.906          43.000  
R18  20095935.282 7 107273417.666 7      2981.944          45.000  
R24  23385322.380 5 125051465.098 5     -3921.100          30.000  
E 4  25104852.554 6 131926863.281 6     -1932.127          36.000  
E14  22384641.399 7 117632101.560 7      3140.344          42.000  
E21  26101492.511 6 137164275.630 6     -1759.687          39.000  
E23  23466079.014 7 123315092.943 7      -219.857          44.000  
E26  25225453.487 6 132560676.835 6      1738.086          40.000  
J 2  38940149.875 7 204631867.27127      -116.696          43.000  
J 3  37207938.760 6 195529034.52726       110.536          41.000  
> 2024 11 29  8 39 40.3990000  0 24                     
G 4  22055872.589 6 115904377.485 6     -2245.900          37.000  
G 7  23711487.439 4 124604790.485 4      3143.420          26.000  
G 8  20540352.030 7 107940305.785 7      1979.889          46.000  
G 9  22329383.271 5 117341663.50825      -855.443          31.000  
G16  20680602.781 7 108677293.222 7     -1458.752          43.000  
G18  24323659.819 6 127821685.138 6     -1841.753          40.000  
G21  24088515.587 5 126585988.609 5      3913.181          34.000  
G26  22463336.621 7 118045646.813 7     -2388.735          42.000  
G27  19696872.041 7 103507771.275 7      -208.280          45.000  
G31  23214664.402 6 121993846.305 6     -3291.531          41.000  
R 7  23410558.636 4 125318508.68924      1013.538          27.000  
R14  23292612.977 5 124162698.06825     -2806.786          31.000  
R15  19986918.969 7 106803990.343 7      -838.094          45.000  
R16  20497572.746 7 109494321.228 7      2064.404          47.000  
R17  19789566.403 7 105897952.895 7      -871.251          43.000  
R18  20095823.618 7 107272821.300 7      2981.645          45.000  
R24  23385466.816 5 125052249.425 5     -3922.333          30.000  
E 4  25104926.090 6 131927249.689 6     -1931.928          36.000  
E14  22384522.022 7 117631473.481 7      3140.401          42.000  
E21  26101558.770 6 137164627.539 6     -1759.479          39.000  
E23  23466087.477 7 123315136.930 7      -220.127          44.000  
E26  25225388.520 6 132560329.230 6      1737.833          40.000  
J 2  38940154.325 7 204631890.62127      -116.893          43.000  
J 3  37207934.449 6 195529012.41526       110.613          41.000  
> 2024 11 29  8 39 40.5990000  0 24                     
G 4  22055957.973 6 115904826.670 6     -2246.112          37.000  
G 7  23711367.487 4 124604161.670 4      3144.107          26.000  
G 8  20540276.645 7 107939909.740 7      1980.084          46.000  
G 9  22329414.995 5 117341834.54825      -855.891          31.000  
G16  20680658.325 7 108677584.954 7     -1458.899          43.000  
G18  24323729.864 6 127822053.529 6     -1842.183          36.000  
G21  24088366.912 5 126585205.943 5      3912.832          33.000  
G26  22463427.432 7 118046124.551 7     -2388.941          42.000  
G27  19696879.998 7 103507812.921 7      -208.467          45.000  
G31  23214789.642 6 121994504.566 6     -3291.049          41.000  
R 7  23410523.543 4 125318305.96624      1013.623          28.000  
R14  23292717.347 5 124163259.47025     -2806.202          31.000  
R15  19986950.397 7 106804157.931 7      -838.120          45.000  
R16  20497495.406 7 109493908.348 7      2064.435          47.000  
R17  19789598.965 7 105898127.111 7      -871.056          43.000  
R18  20095711.710 7 107272224.916 7      2981.644          45.000  
R24  23385614.863 5 125053033.667 5     -3921.600          30.000  
E 4  25104999.520 6 131927636.099 6     -1932.213          36.000  
E14  22384402.418 7 117630845.387 7      3140.406          42.000  
E21  26101625.587 6 137164979.442 6     -1759.553          39.000  
E23  23466095.836 7 123315180.884 7      -219.686          44.000  
E26  25225321.668 6 132559981.632 6      1738.042          40.000  
J 2  38940158.775 7 204631913.92227      -116.553          43.000  
J 3  37207930.366 6 195528990.26326       110.687          41.000  
> 2024 11 29  8 39 40.7990000  0 24                     
G 4  22056043.357 6 115905275.865 6     -2246.646          37.000  
G 7  23711247.848 4 124603532.851 4      3143.860          26.000  
G 8  20540201.243 7 107939513.720 7      1979.950          46.000  
G 9  22329450.908 5 117342005.57025      -855.015          31.000  
G16  20680713.799 7 108677876.706 7     -1458.875          44.000  
G18  24323799.892 6 127822421.981 6     -1842.433          36.000  
G21  24088217.712 5 126584423.183 5      3914.590          34.000  
G26  22463518.383 7 118046602.321 7     -2388.706          42.000  
G27  19696888.043 7 103507854.592 7      -208.404          45.000  
G31  23214914.917 6 121995162.860 6     -3291.622          41.000  
R 7  23410488.224 4 125318103.29524      1013.123          28.000  
R14  23292822.694 5 124163820.82725     -2806.899          31.000  
R15  19986981.772 7 106804325.555 7      -838.153          45.000  
R16  20497418.154 7 109493495.484 7      2064.301          47.000  
R17  19789631.614 7 105898301.378 7      -871.293          43.000  
R18  20095599.976 7 107271628.564 7      2981.719          45.000  
R24  23385764.063 5 125053817.844 5     -3920.666          30.000  
E 4  25105073.108 6 131928022.539 6     -1932.376          36.000  
E14  22384283.128 7 117630217.308 7      3140.365          42.000  
E21  26101693.695 6 137165331.382 6     -1759.701          39.000  
E23  23466104.107 7 123315224.875 7      -220.083          44.000  
E26  25225256.177 6 132559634.064 6      1737.557          40.000  
J 2  38940163.242 7 204631937.25327      -116.822          43.000  
J 3  37207926.161 6 195528968.14426       110.379          41.000  
> 2024 11 29  8 39 40.9990000  0 24                     
G 4  22056128.758 6 115905725.096 6     -2246.124          37.000  
G 7  23711128.122 4 124602904.097 4      3143.891          26.000  
G 8  20540125.840 7 107939117.751 7      1979.858          46.000  
G 9  22329480.748 5 117342176.69625      -855.657          31.000  
G16  20680769.378 7 108678168.487 7     -1458.868          44.000  
G18  24323870.007 5 127822790.421 5     -1842.245          35.000  
G21  24088069.089 5 126583640.623 5      3912.925          33.000  
G26  22463609.194 7 118047080.102 7     -2389.071          42.000  
G27  19696896.122 7 103507896.324 7      -208.864          46.000  
G31  23215040.244 6 121995821.180 6     -3291.541          41.000  
R 7  23410454.039 4 125317900.63324      1013.239          28.000  
R14  23292928.530 5 124164382.34525     -2807.840          31.000  
R15  19987013.113 7 106804493.206 7      -838.507          45.000  
R16  20497340.763 7 109493082.647 7      2064.160          47.000  
R17  19789664.281 7 105898475.717 7      -871.766          43.000  
R18  20095488.364 7 107271032.301 7      2981.182          45.000  
R24  23385908.690 5 125054602.268 5     -3922.357          30.000  
E 4  25105146.556 6 131928409.012 6     -1932.659          36.000  
E14  22384163.559 7 117629589.259 7      3140.084          42.000  
E21  26101759.133 6 137165683.330 6     -1759.805          39.000  
E23  23466112.466 7 123315268.886 7      -220.212          44.000  
E26  25225191.472 6 132559286.508 6      1737.853          40.000  
J 2  38940167.622 7 204631960.60127      -116.792          43.000  
J 3  37207921.972 6 195528946.05226       110.369          41.000  
> 2024 11 29  8 39 41.1990000  0 24                     
G 4  22056214.299 6 115906174.348 6     -2246.087          37.000  
G 7  23711009.530 4 124602275.343 4      3143.541          26.000  
G 8  20540050.351 7 107938721.812 7      1979.736          46.000  
G 9  22329510.099 5 117342347.82125      -855.601          31.000  
G16  20680824.992 7 108678460.275 7     -1458.759          44.000  
G18  24323940.192 5 127823158.843 5     -1842.211          35.000  
G21  24087919.610 5 126582857.913 5      3913.047          33.000  
G26  22463700.197 7 118047557.893 7     -2388.876          42.000  
G27  19696904.149 7 103507938.069 7      -208.730          45.000  
G31  23215165.572 6 121996479.508 6     -3291.571          41.000  
R 7  23410419.837 4 125317698.03124      1012.878          28.000  
R14  23293032.201 5 124164943.73825     -2806.908          31.000  
R15  19987044.506 7 106804660.861 7      -838.082          45.000  
R16  20497263.545 7 109492669.816 7      2064.294          47.000  
R17  19789696.843 7 105898650.091 7      -871.562          43.000  
R18  20095376.613 7 107270436.043 7      2981.335          45.000  
R24  23386055.063 5 125055386.618 5     -3922.247          30.000  
E 4  25105220.196 6 131928795.460 6     -1932.112          36.000  
E14  22384044.095 7 117628961.217 7      3140.385          42.000  
E21  26101827.381 6 137166035.256 6     -1759.584          39.000  
E23  23466120.824 7 123315312.897 7      -220.055          44.000  
E26  25225125.248 6 132558938.993 6      1737.596          40.000  
J 2  38940172.054 7 204631983.93327      -116.367          43.000  
J 3  37207917.872 6 195528923.92626       110.689          41.000  
> 2024 11 29  8 39 41.3990000  0 24                     
G 4  22056299.875 6 115906623.652 6     -2246.216          37.000  
G 7  23710890.223 4 124601646.578 4      3144.124          26.000  
G 8  20539975.088 7 107938325.883 7      1979.584          46.000  
G 9  22329543.778 5 117342519.06225      -857.067          31.000  
G16  20680880.466 7 108678752.090 7     -1459.076          44.000  
G18  24324010.394 5 127823527.287 5     -1842.195          35.000  
G21  24087770.289 5 126582075.234 5      3913.893          33.000  
G26  22463791.112 7 118048035.695 7     -2388.998          42.000  
G27  19696912.037 7 103507979.870 7      -208.947          45.000  
G31  23215290.864 6 121997137.857 6     -3291.469          41.000  
R 7  23410385.023 4 125317495.46124      1012.939          28.000  
R14  23293138.404 5 124165505.18325     -2807.349          31.000  
R15  19987075.986 7 106804828.560 7      -838.432          45.000  
R16  20497186.346 7 109492257.012 7      2064.130          47.000  
R17  19789729.457 7 105898824.511 7      -871.956          43.000  
R18  20095265.036 7 107269839.830 7      2980.820          45.000  
R24  23386198.469 5 125056170.995 5     -3921.204          31.000  
E 4  25105293.748 6 131929182.000 6     -1932.724          36.000  
E14  22383924.439 7 117628333.202 7      3140.096          42.000  
E21  26101893.779 6 137166387.238 6     -1759.938          39.000  
E23  23466129.131 7 123315356.931 7      -220.206          44.000  
E26  25225056.844 6 132558591.483 6      1737.372          40.000  
J 2  38940176.417 7 204632007.29527      -116.819          43.000  
J 3  37207913.666 6 195528901.86226       110.463          41.000  
> 2024 11 29  8 39 41.5990000  0 24                     
G 4  22056385.259 6 115907072.925 6     -2246.089          37.000  
G 7  23710769.380 4 124601017.834 4      3144.050          26.000  
G 8  20539899.755 7 107937929.975 7      1979.572          46.000  
G 9  22329575.590 5 117342690.15325      -855.189          31.000  
G16  20680935.975 7 108679043.906 7     -1459.015          44.000  
G18  24324080.509 5 127823895.719 5     -1841.817          35.000  
G21  24087621.159 5 126581292.577 5      3914.101          33.000  
G26  22463882.098 7 118048513.496 7     -2388.913          42.000  
G27  19696920.046 7 103508021.653 7      -208.974          46.000  
G31  23215416.157 6 121997796.188 6     -3291.496          41.000  
R 7  23410350.297 4 125317292.91724      1012.897          29.000  
R14  23293245.077 5 124166066.63125     -2806.762          32.000  
R15  19987107.396 7 106804996.253 7      -838.333          45.000  
R16  20497109.128 7 109491844.177 7      2064.398          47.000  
R17  19789761.915 7 105898998.933 7      -872.212          43.000  
R18  20095153.372 7 107269243.607 7      2981.368          45.000  
R24  23386342.642 5 125056955.443 5     -3922.589          30.000  
E 4  25105367.214 6 131929568.482 6     -1932.810          36.000  
E14  22383804.870 7 117627705.166 7      3140.180          42.000  
E21  26101961.032 6 137166739.169 6     -1759.689          39.000  
E23  23466137.420 7 123315400.929 7      -219.887          44.000  
E26  25224991.423 6 132558243.995 6      1737.584          40.000  
J 2  38940180.744 7 204632030.61727      -116.547          43.000  
J 3  37207909.496 6 195528879.74626       110.662          41.000  
> 2024 11 29  8 39 41.7990000  0 24                     
G 4  22056470.782 6 115907522.276 6     -2246.875          37.000  
G 7  23710649.899 4 124600389.168 4      3143.352          25.000  
G 8  20539824.562 7 107937534.080 7      1979.309          46.000  
G 9  22329608.815 5 117342861.37125      -856.656          31.000  
G16  20680991.537 7 108679335.744 7     -1459.338          43.000  
G18  24324150.729 5 127824264.200 5     -1843.106          32.000  
G21  24087472.326 5 126580509.961 5      3912.788          33.000  
G26  22463973.066 7 118048991.309 7     -2389.043          42.000  
G27  19696928.021 7 103508063.481 7      -209.138          46.000  
G31  23215541.502 6 121998454.568 6     -3291.758          41.000  
R 7  23410315.397 4 125317090.40724      1012.573          29.000  
R14  23293350.651 5 124166628.08225     -2807.201          32.000  
R15  19987138.737 7 106805163.987 7      -838.822          45.000  
R16  20497031.964 7 109491431.384 7      2063.995          47.000  
R17  19789794.652 7 105899173.405 7      -872.550          43.000  
R18  20095041.639 7 107268647.463 7      2980.898          45.000  
R24  23386487.270 5 125057739.848 5     -3922.113          30.000  
E 4  25105440.941 6 131929954.965 6     -1932.157          36.000  
E14  22383685.144 7 117627077.152 7      3140.092          42.000  
E21  26102027.605 6 137167091.120 6     -1759.674          40.000  
E23  23466145.621 7 123315444.973 7      -220.262          44.000  
E26  25224924.955 6 132557896.505 6      1737.312          40.000  
J 2  38940185.072 7 204632053.96127      -116.623          43.000  
J 3  37207905.273 6 195528857.66426       110.759          41.000  
> 2024 11 29  8 39 41.9990000  0 24                     
G 4  22056556.271 6 115907971.545 6     -2246.106          37.000  
G 7  23710529.196 4 124599760.405 4      3144.038          25.000  
G 8  20539749.369 7 107937138.201 7      1979.834          46.000  
G 9  22329642.912 5 117343032.59525      -856.265          31.000  
G16  20681047.098 7 108679627.564 7     -1458.856          43.000  
G18  24324220.861 5 127824632.702 5     -1842.807          32.000  
G21  24087323.493 5 126579727.255 5      3913.392          33.000  
G26  22464063.947 7 118049469.111 7     -2388.898          42.000  
G27  19696936.066 7 103508105.323 7      -209.248          46.000  
G31  23215666.672 6 121999112.894 6     -3291.336          41.000  
R 7  23410280.409 4 125316887.89924      1012.769          29.000  
R14  23293455.055 5 124167189.55025     -2807.205          32.000  
R15  19987170.182 7 106805331.694 7      -838.463          45.000  
R16  20496954.781 7 109491018.564 7      2064.246          47.000  
R17  19789827.231 7 105899347.891 7      -872.620          43.000  
R18  20094929.905 7 107268051.299 7      2980.823          45.000  
R24  23386632.804 5 125058524.251 5     -3921.966          30.000  
E 4  25105514.476 6 131930341.525 6     -1932.710          36.000  
E14  22383565.663 7 117626449.151 7      3140.017          42.000  
E21  26102093.288 6 137167443.065 6     -1759.611          40.000  
E23  23466154.015 7 123315488.989 7      -220.043          44.000  
E26  25224859.325 6 132557549.028 6      1737.530          40.000  
J 2  38940189.504 7 204632077.28127      -116.520          43.000  
J 3  37207901.102 6 195528835.58226       110.460          41.000  
> 2024 11 29  8 39 42.1990000  0 24                     
G 4  22056641.777 6 115908420.914 6     -2246.528          37.000  
G 7  23710409.609 4 124599131.717 4      3142.744          25.000  
G 8  20539674.054 7 107936742.343 7      1979.114          46.000  
G 9  22329676.173 5 117343203.824 5      -856.373          31.000  
G16  20681102.677 7 108679919.402 7     -1459.161          44.000  
G18  24324290.994 5 127825001.277 5     -1843.573          32.000  
G21  24087174.748 5 126578944.606 5      3913.127          33.000  
G26  22464154.967 7 118049946.912 7     -2389.071          42.000  
G27  19696944.075 7 103508147.176 7      -209.253          46.000  
G31  23215791.947 6 121999771.282 6     -3292.189          41.000  
R 7  23410245.422 4 125316685.48624      1011.688          29.000  
R14  23293559.983 5 124167751.00825     -2807.454          32.000  
R15  19987201.540 7 106805499.437 7      -838.846          45.000  
R16  20496877.581 7 109490605.748 7      2064.087          47.000  
R17  19789859.811 7 105899522.420 7      -872.839          43.000  
R18  20094818.276 7 107267455.176 7      2980.423          45.000  
R24  23386779.543 5 125059587.23515     -3922.522          30.000  
E 4  25105587.872 5 131930728.048 5     -1932.865          35.000  
E14  22383446.146 7 117625821.139 7      3139.974          42.000  
E21  26102161.221 6 137167795.018 6     -1759.923          40.000  
E23  23466162.338 7 123315533.005 7      -220.081          44.000  
E26  25224792.263 6 132557201.577 6      1737.222          40.000  
J 2  38940193.954 7 204632100.59527      -116.820          43.000  
J 3  37207896.897 6 195528813.48726       110.060          41.000  
> 2024 11 29  8 39 42.3990000  0 24                     
G 4  22056727.283 6 115908870.267 6     -2246.726          37.000  
G 7  23710289.168 4 124598502.855 4      3144.160          25.000  
G 8  20539598.757 7 107936346.478 7      1979.535          46.000  
G 9  22329708.787 5 117343375.091 5      -857.119          31.000  
G16  20681158.099 7 108680211.231 7     -1459.253          44.000  
G18  24324361.161 5 127825369.783 5     -1842.265          32.000  
G21  24087025.845 5 126578161.878 5      3913.848          34.000  
G26  22464245.987 7 118050424.711 7     -2389.064          42.000  
G27  19696951.963 7 103508189.062 7      -209.562          46.000  
G31  23215917.345 6 122000429.627 6     -3291.519          41.000  
R 7  23410214.482 4 125316483.02624      1012.671          29.000  
R14  23293664.650 5 124168312.50425     -2808.299          32.000  
R15  19987232.898 7 106805667.169 7      -838.728          45.000  
R16  20496800.364 7 109490192.936 7      2064.197          47.000  
R17  19789892.355 7 105899696.993 7      -872.936          43.000  
R18  20094706.682 7 107266859.052 7      2980.696          45.000  
R24  23386923.141 5 125060371.600 5     -3921.625          30.000  
E 4  25105661.250 6 131931114.579 6     -1932.782          36.000  
E14  22383326.769 7 117625193.120 7      3140.150          42.000  
E21  26102228.439 6 137168146.952 6     -1759.833          39.000  
E23  23466170.680 7 123315577.026 7      -220.179          44.000  
E26  25224726.406 6 132556854.090 6      1737.390          40.000  
J 2  38940198.404 7 204632123.88727      -116.308          43.000  
J 3  37207892.604 6 195528791.36326       110.479          41.000  
> 2024 11 29  8 39 42.5990000  0 24                     
G 4  22056812.789 6 115909319.619 6     -2246.858          37.000  
G 7  23710169.424 4 124597874.106 4      3144.069          25.000  
G 8  20539523.476 7 107935950.640 7      1979.279          46.000  
G 9  22329739.936 5 117343546.358 5      -856.621          31.000  
G16  20681213.660 7 108680503.039 7     -1458.759          44.000  
G18  24324431.189 5 127825738.354 5     -1842.653          32.000  
G21  24086876.907 5 126577379.193 5      3913.940          34.000  
G26  22464336.798 7 118050902.506 7     -2388.992          42.000  
G27  19696959.955 7 103508230.939 7      -209.400          46.000  
G31  23216042.602 6 122001087.997 6     -3291.939          41.000  
R 7  23410185.986 5 125316280.59025      1013.110          30.000  
R14  23293770.555 5 124168873.92525     -2807.282          32.000  
R15  19987264.396 7 106805834.877 7      -838.402          45.000  
R16  20496723.042 7 109489780.090 7      2064.313          46.000  
R17  19789924.900 7 105899871.564 7      -872.834          43.000  
R18  20094595.035 7 107266262.965 7      2980.290          45.000  
R24  23387069.269 5 125061156.005 5     -3921.277          31.000  
E 4  25105734.733 5 131931501.100 5     -1932.514          35.000  
E14  22383207.287 7 117624565.107 7      3140.076          42.000  
E21  26102295.274 6 137168498.857 6     -1759.108          39.000  
E23  23466179.108 7 123315621.020 7      -219.973          44.000  
E26  25224660.427 6 132556506.644 6      1737.265          40.000  
J 2  38940202.784 7 204632147.18527      -116.474          43.000  
J 3  37207888.328 6 195528769.25826       110.918          41.000  
> 2024 11 29  8 39 42.7990000  0 24                     
G 4  22056898.295 6 115909768.900 6     -2246.166          37.000  
G 7  23710051.321 4 124597245.335 4      3143.812          25.000  
G 8  20539448.057 7 107935554.768 7      1979.547          46.000  
G 9  22329770.613 5 117343717.582 5      -856.121          30.000  
G16  20681269.204 7 108680794.832 7     -1458.606          44.000  
G18  24324501.391 5 127826106.857 5     -1842.437          33.000  
G21  24086727.970 5 126576596.371 5      3914.978          34.000  
G26  22464427.801 7 118051380.258 7     -2388.511          42.000  
G27  19696968.017 7 103508272.788 7      -208.888          46.000  
G31  23216167.947 6 122001746.280 6     -3291.344          41.000  
R 7  23410153.686 5 125316078.13625      1013.452          30.000  
R14  23293876.932 5 124169435.31525     -2805.602          31.000  
R15  19987295.737 7 106806002.579 7      -838.139          45.000  
R16  20496645.790 7 109489367.209 7      2064.856          46.000  
R17  19789957.497 7 105900046.108 7      -872.237          43.000  
R18  20094483.336 7 107265666.821 7      2981.046          45.000  
R24  23387215.415 5 125061940.382 5     -3921.576          31.000  
E 4  25105808.233 5 131931887.599 5     -1932.105          35.000  
E14  22383087.719 7 117623937.009 7      3140.902          42.000  
E21  26102362.213 6 137168850.726 6     -1758.946          39.000  
E23  23466187.798 7 123315664.978 7      -219.499          44.000  
E26  25224593.994 6 132556159.166 6      1737.634          40.000  
J 2  38940207.216 7 204632170.39927      -115.835          43.000  
J 3  37207884.228 6 195528747.07226       111.281          41.000  
> 2024 11 29  8 39 42.9990000  0 24                     
G 4  22056983.679 6 115910218.165 6     -2246.172          37.000  
G 7  23709931.875 4 124596616.349 4      3145.138          25.000  
G 8  20539372.724 7 107935158.862 7      1979.272          46.000  
G 9  22329803.123 5 117343888.769 5      -855.884          30.000  
G16  20681324.766 7 108681086.576 7     -1458.771          44.000  
G18  24324571.488 5 127826475.306 5     -1842.081          33.000  
G21  24086578.997 5 126575813.583 5      3914.432          33.000  
G26  22464518.734 7 118051857.960 7     -2388.674          42.000  
G27  19696975.870 7 103508314.628 7      -209.294          46.000  
G31  23216293.205 6 122002404.540 6     -3291.328          41.000  
R 7  23410120.635 5 125315875.66025      1012.170          30.000  
R14  23293984.477 5 124169996.70125     -2806.750          31.000  
R15  19987327.199 7 106806170.233 7      -838.424          45.000  
R16  20496568.486 7 109488954.293 7      2064.551          46.000  
R17  19789990.129 7 105900220.667 7      -872.923          43.000  
R18  20094371.672 7 107265070.652 7      2980.686          46.000  
R24  23387357.146 5 125062724.759 5     -3922.107          32.000  
E 4  25105881.698 5 131932274.059 5     -1932.277          35.000  
E14  22382968.097 7 117623308.890 7      3140.549          42.000  
E21  26102429.012 6 137169202.544 6     -1759.245          40.000  
E23  23466196.209 7 123315708.881 7      -219.514          44.000  
E26  25224527.229 6 132555811.627 6      1737.506          40.000  
J 2  38940211.614 7 204632193.56927      -115.856          43.000  
J 3  37207880.092 6 195528724.85126       111.081          41.000  
> 2024 11 29  8 39 43.1990000  0 24                     
G 4  22057069.115 6 115910667.479 6     -2246.498          37.000  
G 7  23709812.096 4 124595987.644 4      3143.367          25.000  
G 8  20539297.391 7 107934762.974 7      1979.535          46.000  
G 9  22329838.023 5 117344060.016 5      -856.304          30.000  
G16  20681380.380 7 108681378.323 7     -1458.502          44.000  
G18  24324641.586 5 127826843.807 5     -1842.265          33.000  
G21  24086429.955 5 126575030.809 5      3914.987          33.000  
G26  22464609.685 7 118052335.658 7     -2388.497          42.000  
G27  19696983.862 7 103508356.478 7      -209.249          46.000  
G31  23216418.515 6 122003062.816 6     -3291.308          41.000  
R 7  23410088.823 5 125315673.23925      1013.538          30.000  
R14  23294087.713 5 124170558.04025     -2806.251          31.000  
R15  19987358.610 7 106806337.898 7      -838.243          45.000  
R16  20496491.234 7 109488541.378 7      2064.697          46.000  
R17  19790022.778 7 105900395.247 7      -873.008          43.000  
R18  20094259.956 7 107264474.506 7      2980.736          45.000  
R24  23387501.860 5 125063509.118 5     -3921.643          32.000  
E 4  25105955.059 6 131932660.542 6     -1932.561          36.000  
E14  22382848.598 7 117622680.749 7      3140.878          42.000  
E21  26102495.916 6 137169554.359 6     -1759.040          40.000  
E23  23466204.411 7 123315752.808 7      -219.470          44.000  
E26  25224461.617 6 132555464.097 6      1737.879          40.000  
J 2  38940216.029 7 204632216.754 7      -115.827          43.000  
J 3  37207875.834 6 195528702.15516       111.041          41.000  
> 2024 11 29  8 39 43.3990000  0 24                     
G 4  22057154.674 6 115911116.793 6     -2246.423          37.000  
G 7  23709692.824 4 124595358.689 4      3144.993          25.000  
G 8  20539222.111 7 107934367.093 7      1979.407          46.000  
G 9  22329872.802 5 117344231.238 5      -855.674          31.000  
G16  20681435.837 7 108681670.089 7     -1458.795          44.000  
G18  24324711.823 5 127827212.303 5     -1842.189          33.000  
G21  24086281.000 5 126574248.020 5      3914.441          34.000  
G26  22464700.775 7 118052813.355 7     -2388.292          42.000  
G27  19696991.837 7 103508398.368 7      -209.466          45.000  
G31  23216543.773 6 122003721.103 6     -3291.326          41.000  
R 7  23410055.127 5 125315470.83625      1011.926          30.000  
R14  23294193.077 5 124171119.48525     -2807.588          31.000  
R15  19987389.933 7 106806505.580 7      -838.346          45.000  
R16  20496413.947 7 109488128.480 7      2064.471          46.000  
R17  19790055.428 7 105900569.854 7      -873.090          43.000  
R18  20094148.310 7 107263878.397 7      2980.468          45.000  
R24  23387650.135 5 125064293.472 5     -3921.710          33.000  
E 4  25106028.577 6 131933047.009 6     -1932.551          36.000  
E14  22382728.994 7 117622052.638 7      3140.477          42.000  
E21  26102563.536 6 137169906.184 6     -1759.229          40.000  
E23  23466212.665 7 123315796.722 7      -219.748          44.000  
E26  25224395.253 6 132555116.600 6      1737.426          40.000  
J 2  38940220.391 7 204632239.908 7      -115.666          43.000  
J 3  37207871.629 6 195528679.932 6       111.116          41.000  
> 2024 11 29  8 39 43.5990000  0 24                     
G 4  22057240.232 6 115911566.118 6     -2247.046          37.000  
G 7  23709572.958 4 124594729.879 4      3143.844          25.000  
G 8  20539146.691 7 107933971.234 7      1979.047          46.000  
G 9  22329905.137 5 117344402.482 5      -856.191          31.000  
G16  20681491.363 7 108681961.837 7     -1458.819          44.000  
G18  24324782.008 5 127827580.855 5     -1842.400          32.000  
G21  24086132.062 5 126573465.182 5      3913.819          34.000  
G26  22464791.725 7 118053291.061 7     -2388.424          42.000  
G27  19696999.584 7 103508440.256 7      -209.702          46.000  
G31  23216669.083 6 122004379.388 6     -3291.604          41.000  
R 7  23410023.088 5 125315268.47125      1011.737          30.000  
R14  23294299.105 5 124171680.81225     -2806.511          32.000  
R15  19987421.134 7 106806673.259 7      -838.498          45.000  
R16  20496336.590 7 109487715.554 7      2064.557          46.000  
R17  19790088.112 7 105900744.496 7      -873.375          43.000  
R18  20094036.698 7 107263282.297 7      2980.462          44.000  
R24  23387798.392 5 125065077.844 5     -3921.558          33.000  
E 4  25106102.025 6 131933433.483 6     -1932.619          36.000  
E14  22382609.548 7 117621424.506 7      3140.578          42.000  
E21  26102630.196 6 137170257.977 6     -1758.928          40.000  
E23  23466220.989 7 123315840.622 7      -219.526          44.000  
E26  25224329.257 6 132554769.085 6      1737.605          40.000  
J 2  38940224.736 7 204632263.051 7      -115.680          43.000  
J 3  37207867.371 6 195528657.721 6       110.898          41.000  
> 2024 11 29  8 39 43.7990000  0 24                     
G 4  22057325.843 6 115912015.477 6     -2246.816          37.000  
G 7  23709453.634 4 124594101.009 4      3144.131          25.000  
G 8  20539071.463 7 107933575.433 7      1978.809          46.000  
G 9  22329935.640 5 117344573.828 5      -856.003          31.000  
G16  20681546.925 7 108682253.663 7     -1459.308          44.000  
G18  24324852.280 5 127827949.481 5     -1844.221          32.000  
G21  24085983.177 5 126572682.410 5      3914.148          34.000  
G26  22464882.763 7 118053768.826 7     -2389.001          42.000  
G27  19697007.612 7 103508482.218 7      -210.031          46.000  
G31  23216794.375 6 122005037.728 6     -3291.643          41.000  
R 7  23409988.816 5 125315066.11625      1012.311          30.000  
R14  23294407.226 5 124172242.23225     -2806.514          32.000  
R15  19987452.597 7 106806841.012 7      -838.888          45.000  
R16  20496259.181 7 109487302.700 7      2064.203          46.000  
R17  19790120.883 7 105900919.219 7      -873.889          43.000  
R18  20093925.139 7 107262686.287 7      2979.961          44.000  
R24  23387945.584 5 125065862.294 5     -3922.565          33.000  
E 4  25106175.386 5 131933820.041 5     -1932.898          35.000  
E14  22382490.153 7 117620796.463 7      3140.227          42.000  
E21  26102697.274 6 137170609.867 6     -1759.515          40.000  
E23  23466229.190 7 123315884.602 7      -220.002          44.000  
E26  25224263.452 6 132554421.666 6      1736.894          40.000  
J 2  38940229.134 7 204632286.250 7      -115.979          43.000  
J 3  37207863.026 6 195528635.548 6       110.671          41.000  
> 2024 11 29  8 39 43.9990000  0 24                     
G 4  22057411.314 6 115912464.924 6     -2246.996          37.000  
G 7  23709334.152 4 124593472.291 4      3143.729          25.000  
G 8  20538996.096 7 107933179.696 7      1978.668          46.000  
G 9  22329965.916 5 117344745.233 5      -857.459          31.000  
G16  20681602.486 7 108682545.509 7     -1459.186          44.000  
G18  24324922.325 5 127828318.142 5     -1843.988          32.000  
G21  24085834.152 5 126571899.661 5      3913.334          34.000  
G26  22464973.679 7 118054246.613 7     -2388.917          42.000  
G27  19697015.639 7 103508524.244 7      -210.165          46.000  
G31  23216919.598 6 122005696.116 6     -3291.987          41.000  
R 7  23409955.469 5 125314863.92125      1011.047          30.000  
R14  23294513.324 5 124172803.73725     -2807.318          31.000  
R15  19987483.989 7 106807008.808 7      -839.008          45.000  
R16  20496181.702 7 109486889.877 7      2064.136          46.000  
R17  19790153.498 7 105901094.014 7      -874.099          43.000  
R18  20093813.597 7 107262090.332 7      2979.625          44.000  
R24  23388094.068 5 125066646.775 5     -3922.094          33.000  
E 4  25106248.886 5 131934206.641 5     -1932.898          35.000  
E14  22382370.619 7 117620168.451 7      3140.137          42.000  
E21  26102764.650 6 137170961.763 6     -1759.474          40.000  
E23  23466237.636 7 123315928.605 7      -220.048          44.000  
E26  25224197.368 6 132554074.279 6      1736.821          40.000  
J 2  38940233.619 7 204632309.482 7      -116.250          43.000  
J 3  37207858.803 6 195528613.417 6       110.717          41.000  
> 2024 11 29  8 39 44.1990000  0 24                     
G 4  22057496.838 6 115912914.416 6     -2247.435          37.000  
G 7  23709215.159 4 124592843.577 4      3143.826          25.000  
G 8  20538920.746 7 107932784.013 7      1978.607          46.000  
G 9  22330001.357 5 117344916.689 5      -857.626          31.000  
G16  20681658.152 7 108682837.426 7     -1459.485          44.000  
G18  24324992.527 5 127828686.826 5     -1843.712          32.000  
G21  24085685.249 5 126571116.933 5      3913.689          34.000  
G26  22465064.717 7 118054724.458 7     -2389.056          42.000  
G27  19697023.509 7 103508566.325 7      -210.282          46.000  
G31  23217044.768 6 122006354.543 6     -3292.220          41.000  
R 7  23409922.313 5 125314661.75125      1010.596          31.000  
R14  23294620.293 5 124173364.76915     -2808.598          31.000  
R15  19987515.173 7 106807176.655 7      -839.130          45.000  
R16  20496104.275 7 109486477.103 7      2063.910          46.000  
R17  19790186.182 7 105901268.881 7      -874.242          43.000  
R18  20093702.073 7 107261494.432 7      2979.466          44.000  
R24  23388241.523 5 125067431.81535     -3922.443          33.000  
E 4  25106322.613 5 131934593.273 5     -1932.722          35.000  
E14  22382251.085 7 117619540.489 7      3139.748          42.000  
E21  26102831.449 6 137171313.700 6     -1759.523          40.000  
E23  23466245.995 7 123315972.660 7      -220.376          44.000  
E26  25224131.249 6 132553726.938 6      1736.763          40.000  
J 2  38940238.121 7 204632332.735 7      -116.291          43.000  
J 3  37207854.632 6 195528591.316 6       110.676          41.000  
> 2024 11 29  8 39 44.3990000  0 24                     
G 4  22057582.396 6 115913363.945 6     -2247.853          37.000  
G 7  23709095.067 4 124592214.896 4      3143.241          25.000  
G 8  20538845.448 7 107932388.370 7      1978.363          46.000  
G 9  22330034.705 5 117345088.218 5      -857.521          31.000  
G16  20681713.871 7 108683129.348 7     -1459.515          44.000  
G18  24325062.729 5 127829055.562 5     -1843.605          32.000  
G21  24085536.434 5 126570334.244 5      3913.907          34.000  
G26  22465155.754 7 118055202.311 7     -2389.158          42.000  
G27  19697031.658 7 103508608.441 7      -210.413          46.000  
G31  23217170.096 6 122007012.991 6     -3292.039          41.000  
R 7  23409890.205 5 125314459.61925      1010.284          31.000  
R14  23294726.024 5 124173926.276 5     -2806.555          31.000  
R15  19987546.566 7 106807344.528 7      -839.080          45.000  
R16  20496026.883 7 109486064.348 7      2063.940          46.000  
R17  19790218.884 7 105901443.804 7      -874.486          43.000  
R18  20093590.479 7 107260898.573 7      2979.414          44.000  
R24  23388388.349 5 125068216.37725     -3922.327          32.000  
E 4  25106396.270 5 131934979.974 5     -1933.605          35.000  
E14  22382131.516 7 117618912.538 7      3139.855          42.000  
E21  26102898.406 6 137171665.647 6     -1759.579          40.000  
E23  23466254.214 7 123316016.706 7      -220.194          43.000  
E26  25224065.060 6 132553379.625 6      1736.632          40.000  
J 2  38940242.623 7 204632355.994 7      -115.966          43.000  
J 3  37207850.479 6 195528569.250 6       110.518          41.000  
> 2024 11 29  8 39 44.5990000  0 24                     
G 4  22057667.989 6 115913813.431 6     -2247.564          37.000  
G 7  23708975.969 4 124591586.052 4      3144.336          26.000  
G 8  20538770.168 7 107931992.692 7      1978.156          46.000  
G 9  22330066.970 5 117345259.704 5      -857.993          31.000  
G16  20681769.502 7 108683421.245 7     -1459.448          44.000  
G18  24325132.984 5 127829424.312 5     -1844.374          32.000  
G21  24085387.479 5 126569551.483 5      3914.187          34.000  
G26  22465246.565 7 118055680.121 7     -2389.087          42.000  
G27  19697039.545 7 103508650.557 7      -210.679          46.000  
G31  23217295.458 6 122007671.416 6     -3292.225          41.000  
R 7  23409854.118 5 125314257.44325      1010.986          31.000  
R14  23294831.075 5 124174487.823 5     -2808.842          31.000  
R15  19987577.819 7 106807512.389 7      -839.437          45.000  
R16  20495949.684 7 109485651.567 7      2063.696          46.000  
R17  19790251.638 7 105901618.732 7      -874.978          44.000  
R18  20093478.989 7 107260302.712 7      2979.161          44.000  
R24  23388532.906 5 125069000.93725     -3923.859          32.000  
E 4  25106469.823 5 131935366.571 5     -1933.088          35.000  
E14  22382011.948 7 117618284.546 7      3139.868          42.000  
E21  26102965.519 6 137172017.557 6     -1759.547          40.000  
E23  23466262.415 7 123316060.732 7      -220.263          43.000  
E26  25223998.785 6 132553032.297 6      1736.505          40.000  
J 2  38940247.038 7 204632379.232 7      -116.185          43.000  
J 3  37207846.204 6 195528547.125 6       110.564          41.000  
> 2024 11 29  8 39 44.7990000  0 24                     
G 4  22057753.443 6 115914262.943 6     -2247.562          37.000  
G 7  23708857.308 4 124590957.400 4      3143.142          26.000  
G 8  20538694.800 7 107931597.042 7      1978.387          46.000  
G 9  22330098.730 5 117345431.175 5      -858.397          31.000  
G16  20681825.064 7 108683713.165 7     -1459.589          44.000  
G18  24325203.169 5 127829793.035 5     -1844.042          32.000  
G21  24085238.559 5 126568768.774 5      3913.857          34.000  
G26  22465337.551 7 118056157.952 7     -2389.042          42.000  
G27  19697047.590 7 103508692.688 7      -210.797          46.000  
G31  23217420.768 6 122008329.840 6     -3292.133          41.000  
R 7  23409819.392 5 125314055.34625      1010.638          31.000  
R14  23294935.514 5 124175049.283 5     -2807.767          30.000  
R15  19987609.125 7 106807680.253 7      -839.475          45.000  
R16  20495872.414 7 109485238.779 7      2063.898          46.000  
R17  19790284.287 7 105901793.676 7      -874.670          44.000  
R18  20093367.430 7 107259706.872 7      2978.988          44.000  
R24  23388682.088 5 125069785.45925     -3923.016          32.000  
E 4  25106543.376 5 131935753.258 5     -1933.278          35.000  
E14  22381892.606 7 117617656.585 7      3139.931          42.000  
E21  26103032.406 6 137172369.473 6     -1759.537          40.000  
E23  23466270.879 7 123316104.759 7      -220.118          43.000  
E26  25223932.561 6 132552684.964 6      1736.701          40.000  
J 2  38940251.505 7 204632402.453 7      -116.094          43.000  
J 3  37207842.033 6 195528525.018 6       110.700          41.000  
> 2024 11 29  8 39 44.9990000  0 24                     
G 4  22057838.984 6 115914712.465 6     -2247.326          37.000  
G 7  23708737.250 4 124590328.568 4      3144.170          26.000  
G 8  20538619.660 7 107931201.410 7      1978.162          46.000  
G 9  22330129.215 5 117345602.670 5      -857.541          31.000  
G16  20681880.555 7 108684005.074 7     -1459.619          44.000  
G18  24325273.284 5 127830161.802 5     -1843.818          32.000  
G21  24085089.656 5 126567985.994 5      3913.859          34.000  
G26  22465428.536 7 118056635.773 7     -2389.158          42.000  
G27  19697055.617 7 103508734.835 7      -210.826          46.000  
G31  23217546.165 6 122008988.271 6     -3292.009          41.000  
R 7  23409781.036 5 125313853.26525      1010.828          30.000  
R14  23295040.128 5 124175610.824 5     -2807.943          30.000  
R15  19987640.500 7 106807848.129 7      -839.450          45.000  
R16  20495795.179 7 109484826.000 7      2063.965          46.000  
R17  19790317.006 7 105901968.668 7      -874.941          44.000  
R18  20093255.836 7 107259111.050 7      2979.064          44.000  
R24  23388828.443 5 125070570.00425     -3922.693          32.000  
E 4  25106616.998 5 131936139.923 5     -1933.560          35.000  
E14  22381773.054 6 117617028.626 6      3139.686          41.000  
E21  26103099.310 6 137172721.382 6     -1759.474          40.000  
E23  23466279.237 7 123316148.787 7      -220.124          43.000  
E26  25223866.529 6 132552337.667 6      1736.522          40.000  
J 2  38940255.868 7 204632425.668 7      -116.014          43.000  
J 3  37207837.793 6 195528502.906 6       110.530          41.000  
> 2024 11 29  8 39 45.1990000  0 24                     
G 4  22057924.525 6 115915162.049 6     -2247.701          37.000  
G 7  23708618.083 4 124589699.859 4      3143.880          26.000  
G 8  20538544.397 7 107930805.823 7      1978.046          46.000  
G 9  22330161.044 5 117345774.238 5      -857.953          30.000  
G16  20681936.030 7 108684297.018 7     -1459.552          44.000  
G18  24325343.451 5 127830530.577 5     -1843.328          32.000  
G21  24084940.858 5 126567203.304 5      3913.795          34.000  
G26  22465519.626 7 118057113.635 7     -2389.193          42.000  
G27  19697063.522 7 103508777.035 7      -210.930          46.000  
G31  23217671.493 6 122009646.736 6     -3292.243          41.000  
R 7  23409746.764 5 125313651.22025      1010.773          30.000  
R14  23295145.580 5 124176172.361 5     -2807.585          30.000  
R15  19987671.928 7 106808016.033 7      -839.483          45.000  
R16  20495717.840 7 109484413.257 7      2063.867          46.000  
R17  19790349.725 7 105902143.716 7      -875.233          43.000  
R18  20093144.207 7 107258515.280 7      2979.042          44.000  
R24  23388974.990 5 125071354.58825     -3922.858          32.000  
E 4  25106690.481 5 131936526.621 5     -1933.348          35.000  
E14  22381653.590 6 117616400.690 6      3139.851          41.000  
E21  26103166.336 6 137173073.322 6     -1759.496          40.000  
E23  23466287.596 7 123316192.845 7      -220.145          43.000  
E26  25223800.498 6 132551990.386 6      1736.566          40.000  
J 2  38940260.300 7 204632448.905 7      -116.024          43.000  
J 3  37207833.709 6 195528480.818 6       110.423          41.000  
> 2024 11 29  8 39 45.3990000  0 24                     
G 4  22058010.153 6 115915611.660 6     -2248.561          37.000  
G 7  23708499.229 4 124589071.192 4      3143.507          26.000  
G 8  20538469.064 7 107930410.263 7      1977.563          46.000  
G 9  22330195.666 5 117345945.830 5      -858.064          30.000  
G16  20681991.574 7 108684588.990 7     -1460.010          44.000  
G18  24325413.583 5 127830899.456 5     -1844.462          32.000  
G21  24084791.955 5 126566420.643 5      3912.794          34.000  
G26  22465610.629 7 118057591.516 7     -2389.608          42.000  
G27  19697071.532 7 103508819.271 7      -211.365          46.000  
G31  23217796.663 6 122010305.226 6     -3292.481          41.000  
R 7  23409710.712 5 125313449.26325      1010.083          30.000  
R14  23295251.189 5 124176733.903 5     -2807.795          30.000  
R15  19987703.269 7 106808183.980 7      -839.873          45.000  
R16  20495640.658 7 109484000.547 7      2063.287          46.000  
R17  19790382.340 7 105902318.824 7      -875.750          43.000  
R18  20093032.735 7 107257919.569 7      2978.354          44.000  
R24  23389120.769 5 125072139.23925     -3923.535          32.000  
E 4  25106764.086 5 131936913.348 5     -1933.842          35.000  
E14  22381533.934 6 117615772.792 6      3139.185          41.000  
E21  26103233.258 6 137173425.282 6     -1760.029          40.000  
E23  23466296.007 7 123316236.928 7      -220.637          43.000  
E26  25223734.361 6 132551643.150 6      1736.068          40.000  
J 2  38940264.750 7 204632472.159 7      -116.535          43.000  
J 3  37207829.399 6 195528458.744 6       110.108          41.000  
> 2024 11 29  8 39 45.5990000  0 24                     
G 4  22058095.677 6 115916061.327 6     -2248.453          37.000  
G 7  23708378.666 4 124588442.563 4      3142.976          26.000  
G 8  20538393.802 7 107930014.784 7      1977.264          46.000  
G 9  22330226.203 5 117346117.571 5      -858.898          30.000  
G16  20682047.048 7 108684881.029 7     -1460.266          44.000  
G18  24325483.716 5 127831268.386 5     -1844.961          32.000  
G21  24084643.018 5 126565637.940 5      3913.616          34.000  
G26  22465701.684 7 118058069.449 7     -2389.825          42.000  
G27  19697079.576 7 103508861.581 7      -211.542          46.000  
G31  23217921.903 6 122010963.779 6     -3292.663          41.000  
R 7  23409674.101 5 125313247.35825      1009.595          30.000  
R14  23295357.879 5 124177295.565 5     -2808.548          30.000  
R15  19987734.662 7 106808351.997 7      -840.014          45.000  
R16  20495563.231 7 109483587.869 7      2063.397          46.000  
R17  19790415.024 7 105902494.014 7      -875.939          43.000  
R18  20092921.141 7 107257323.918 7      2978.235          44.000  
R24  23389267.072 5 125072923.88825     -3923.218          32.000  
E 4  25106837.569 5 131937300.142 5     -1933.977          35.000  
E14  22381414.452 6 117615144.929 6      3139.258          41.000  
E21  26103300.284 6 137173777.287 6     -1760.228          40.000  
E23  23466304.453 7 123316281.065 7      -220.859          43.000  
E26  25223668.365 6 132551295.975 6      1735.964          40.000  
J 2  38940269.112 7 204632495.442 7      -116.277          43.000  
J 3  37207825.176 6 195528436.731 6       110.083          41.000  
> 2024 11 29  8 39 45.7990000  0 24                     
G 4  22058181.322 6 115916511.088 6     -2249.126          37.000  
G 7  23708259.690 4 124587813.948 4      3142.975          26.000  
G 8  20538318.626 7 107929619.375 7      1976.825          46.000  
G 9  22330260.668 5 117346289.321 5      -859.780          30.000  
G16  20682102.609 7 108685173.124 7     -1460.596          44.000  
G18  24325554.040 5 127831637.399 5     -1845.522          32.000  
G21  24084494.080 5 126564855.378 5      3912.616          34.000  
G26  22465792.687 7 118058547.437 7     -2390.078          42.000  
G27  19697087.551 7 103508903.977 7      -212.128          46.000  
G31  23218047.248 6 122011622.400 6     -3293.320          41.000  
R 7  23409637.020 5 125313045.54725      1009.644          30.000  
R14  23295464.640 5 124177857.258 5     -2808.318          30.000  
R15  19987765.968 7 106808520.078 7      -840.499          45.000  
R16  20495485.874 7 109483175.282 7      2062.787          46.000  
R17  19790447.848 7 105902669.293 7      -876.578          43.000  
R18  20092809.546 7 107256728.368 7      2977.554          44.000  
R24  23389410.931 5 125073708.67325     -3924.158          32.000  
E 4  25106911.034 5 131937686.994 5     -1934.346          35.000  
E14  22381294.918 6 117614517.153 6      3138.794          41.000  
E21  26103367.258 6 137174129.338 6     -1760.440          40.000  
E23  23466312.794 7 123316325.242 7      -221.011          43.000  
E26  25223602.316 6 132550948.881 6      1735.150          40.000  
J 2  38940273.527 7 204632518.801 7      -116.766          43.000  
J 3  37207821.040 6 195528414.762 6       109.800          41.000  
> 2024 11 29  8 39 45.9990000  0 24                     
G 4  22058267.108 6 115916960.839 6     -2248.915          37.000  
G 7  23708140.086 4 124587185.349 4      3143.492          26.000  
G 8  20538243.328 7 107929223.972 7      1977.094          46.000  
G 9  22330291.275 5 117346461.061 5      -859.172          30.000  
G16  20682158.136 7 108685465.220 7     -1460.297          44.000  
G18  24325624.347 5 127832006.385 5     -1845.105          32.000  
G21  24084345.212 5 126564072.756 5      3912.805          34.000  
G26  22465883.690 7 118059025.430 7     -2389.804          42.000  
G27  19697095.665 7 103508946.379 7      -211.994          46.000  
G31  23218172.419 6 122012281.009 6     -3293.005          41.000  
R 7  23409600.147 5 125312843.77925      1008.997          30.000  
R14  23295571.557 5 124178418.936 5     -2807.735          30.000  
R15  19987797.378 7 106808688.175 7      -840.436          45.000  
R16  20495408.622 7 109482762.680 7      2063.056          46.000  
R17  19790480.480 7 105902844.591 7      -876.421          43.000  
R18  20092697.952 7 107256132.825 7      2977.593          44.000  
R24  23389558.211 5 125074493.43225     -3924.042          32.000  
E 4  25106984.622 5 131938073.854 5     -1934.123          35.000  
E14  22381175.646 6 117613889.370 6      3139.173          41.000  
E21  26103434.372 6 137174481.396 6     -1760.275          40.000  
E23  23466321.345 7 123316369.433 7      -220.875          43.000  
E26  25223536.109 6 132550601.771 6      1735.559          40.000  
J 2  38940278.012 7 204632542.133 7      -116.605          43.000  
J 3  37207816.922 6 195528392.791 6       110.074          41.000  
> 2024 11 29  8 39 46.1990000  0 24                     
G 4  22058352.701 6 115917410.609 6     -2249.042          37.000  
G 7  23708020.273 4 124586556.873 4      3141.905          26.000  
G 8  20538168.118 7 107928828.623 7      1976.544          46.000  
G 9  22330326.385 5 117346632.898 5      -860.100          31.000  
G16  20682213.715 7 108685757.359 7     -1460.828          44.000  
G18  24325694.427 5 127832375.414 5     -1845.652          31.000  
G21  24084196.379 5 126563290.164 5      3913.001          34.000  
G26  22465974.658 7 118059503.466 7     -2390.466          42.000  
G27  19697103.780 7 103508988.839 7      -212.401          46.000  
G31  23218297.834 6 122012939.644 6     -3293.258          41.000  
R 7  23409562.193 5 125312642.06325      1007.928          30.000  
R14  23295678.440 5 124178980.671 5     -2808.827          31.000  
R15  19987828.876 7 106808856.302 7      -840.843          45.000  
R16  20495331.457 7 109482350.109 7      2062.628          46.000  
R17  19790513.129 7 105903019.947 7      -876.794          43.000  
R18  20092586.480 7 107255537.337 7      2977.262          44.000  
R24  23389706.224 5 125075278.22725     -3923.681          32.000  
E 4  25107058.332 5 131938460.764 5     -1934.671          35.000  
E14  22381056.164 6 117613261.614 6      3138.620          41.000  
E21  26103501.363 6 137174833.452 6     -1760.346          40.000  
E23  23466329.861 7 123316413.637 7      -221.107          43.000  
E26  25223470.078 6 132550254.709 6      1735.239          40.000  
J 2  38940282.357 7 204632565.487 7      -116.827          43.000  
J 3  37207812.786 6 195528370.858 6       109.572          41.000  
> 2024 11 29  8 39 46.3990000  0 24                     
G 4  22058438.364 6 115917860.411 6     -2248.892          37.000  
G 7  23707900.198 4 124585928.263 4      3143.241          26.000  
G 8  20538092.733 7 107928433.280 7      1976.624          46.000  
G 9  22330358.528 5 117346804.742 5      -859.379          31.000  
G16  20682269.241 7 108686049.490 7     -1460.492          44.000  
G18  24325764.455 5 127832744.468 5     -1845.642          31.000  
G21  24084047.477 5 126562507.563 5      3912.983          34.000  
G26  22466065.644 7 118059981.465 7     -2390.079          42.000  
G27  19697111.929 7 103509031.310 7      -212.323          46.000  
G31  23218423.248 6 122013598.309 6     -3293.230          41.000  
R 7  23409524.379 5 125312440.35025      1008.484          30.000  
R14  23295785.898 5 124179542.389 5     -2808.094          31.000  
R15  19987860.391 7 106809024.434 7      -840.751          45.000  
R16  20495254.240 7 109481937.545 7      2062.817          46.000  
R17  19790546.006 7 105903195.338 7      -876.991          43.000  
R18  20092474.973 7 107254941.880 7      2977.166          44.000  
R24  23389854.219 5 125076063.05825     -3924.249          33.000  
E 4  25107131.884 5 131938847.674 5     -1934.659          35.000  
E14  22380936.473 6 117612633.857 6      3138.885          41.000  
E21  26103568.320 6 137175185.550 6     -1760.414          40.000  
E23  23466338.115 7 123316457.862 7      -221.041          43.000  
E26  25223403.872 6 132549907.659 6      1735.293          40.000  
J 2  38940286.772 7 204632588.827 7      -116.539          43.000  
J 3  37207808.668 6 195528348.911 6       109.816          41.000  
> 2024 11 29  8 39 46.5990000  0 24                     
G 4  22058523.992 6 115918310.264 6     -2249.342          37.000  
G 7  23707780.385 4 124585299.659 4      3142.762          26.000  
G 8  20538017.400 7 107928037.971 7      1976.550          46.000  
G 9  22330390.236 5 117346976.615 5      -858.607          31.000  
G16  20682324.785 7 108686341.662 7     -1460.815          44.000  
G18  24325834.657 5 127833113.580 5     -1846.225          31.000  
G21  24083898.522 5 126561725.006 5      3912.933          34.000  
G26  22466156.489 7 118060459.509 7     -2390.132          42.000  
G27  19697120.026 7 103509073.813 7      -212.373          46.000  
G31  23218548.593 6 122014256.970 6     -3293.304          41.000  
R 7  23409485.901 5 125312238.71125      1008.276          30.000  
R14  23295892.030 5 124180104.172 5     -2809.239          31.000  
R15  19987891.888 7 106809192.604 7      -840.637          45.000  
R16  20495177.023 7 109481524.989 7      2063.019          46.000  
R17  19790578.707 7 105903370.781 7      -877.254          43.000  
R18  20092363.344 7 107254346.449 7      2977.123          44.000  
R24  23390001.394 5 125076847.86625     -3923.761          33.000  
E 4  25107205.437 5 131939234.590 5     -1934.207          35.000  
E14  22380816.974 6 117612006.138 6      3138.597          41.000  
E21  26103635.224 6 137175537.636 6     -1760.406          40.000  
E23  23466346.526 7 123316502.086 7      -221.150          43.000  
E26  25223337.805 6 132549560.642 6      1735.084          40.000  
J 2  38940291.135 7 204632612.194 7      -116.732          43.000  
J 3  37207804.428 6 195528326.985 6       109.927          41.000  
> 2024 11 29  8 39 46.7990000  0 24                     
G 4  22058609.603 6 115918760.120 6     -2249.876          37.000  
G 7  23707660.624 4 124584671.177 4      3142.456          26.000  
G 8  20537942.207 7 107927642.708 7      1976.013          46.000  
G 9  22330425.101 5 117347148.552 5      -859.971          31.000  
G16  20682380.260 7 108686633.829 7     -1461.212          44.000  
G18  24325905.104 5 127833482.704 5     -1846.185          31.000  
G21  24083749.566 5 126560942.441 5      3912.083          34.000  
G26  22466247.545 7 118060937.561 7     -2390.573          42.000  
G27  19697128.193 7 103509116.372 7      -213.104          46.000  
G31  23218673.956 6 122014915.668 6     -3293.630          41.000  
R 7  23409451.088 5 125312037.09025      1007.312          30.000  
R14  23295998.826 5 124180665.891 5     -2809.132          31.000  
R15  19987923.264 7 106809360.797 7      -841.360          45.000  
R16  20495099.823 7 109481112.465 7      2062.415          46.000  
R17  19790611.426 7 105903546.266 7      -877.778          43.000  
R18  20092251.837 7 107253751.065 7      2976.583          44.000  
R24  23390148.151 5 125077632.77125     -3925.195          33.000  
E 4  25107279.077 5 131939621.601 5     -1935.249          35.000  
E14  22380697.510 7 117611378.412 7      3138.274          42.000  
E21  26103702.390 6 137175889.731 6     -1760.989          40.000  
E23  23466354.919 7 123316546.334 7      -221.453          43.000  
E26  25223271.791 6 132549213.641 6      1734.686          40.000  
J 2  38940295.427 7 204632635.545 7      -116.860          43.000  
J 3  37207800.170 6 195528305.088 6       109.193          41.000  
> 2024 11 29  8 39 46.9990000  0 24                     
G 4  22058695.196 6 115919209.989 6     -2249.425          37.000  
G 7  23707541.823 4 124584042.612 4      3142.642          26.000  
G 8  20537866.962 7 107927247.435 7      1976.245          46.000  
G 9  22330455.761 5 117347320.432 5      -859.882          31.000  
G16  20682435.891 7 108686926.011 7     -1461.096          44.000  
G18  24325975.271 5 127833851.771 5     -1845.179          30.000  
G21  24083600.594 5 126560159.868 5      3911.938          34.000  
G26  22466338.513 7 118061415.619 7     -2390.533          42.000  
G27  19697136.237 7 103509158.934 7      -213.071          46.000  
G31  23218799.300 6 122015574.361 6     -3293.556          41.000  
R 7  23409412.174 5 125311835.47225      1007.379          30.000  
R14  23296104.312 5 124181227.680 5     -2809.357          31.000  
R15  19987954.849 7 106809528.984 7      -841.187          45.000  
R16  20495022.693 7 109480699.932 7      2062.299          46.000  
R17  19790644.146 7 105903721.773 7      -877.751          43.000  
R18  20092140.243 7 107253155.692 7      2976.658          45.000  
R24  23390294.576 5 125078417.61525     -3924.463          33.000  
E 4  25107352.717 5 131940008.562 5     -1935.048          35.000  
E14  22380578.046 7 117610750.700 7      3138.350          42.000  
E21  26103769.381 6 137176241.821 6     -1760.568          40.000  
E23  23466363.365 7 123316590.576 7      -221.154          43.000  
E26  25223205.725 6 132548866.647 6      1734.801          40.000  
J 2  38940299.912 7 204632658.908 7      -116.940          43.000  
J 3  37207796.034 6 195528283.164 6       109.152          41.000  
> 2024 11 29  8 39 47.1990000  0 24                     
G 4  22058780.825 6 115919659.895 6     -2249.236          37.000  
G 7  23707422.900 4 124583414.152 4      3141.952          26.000  
G 8  20537791.717 7 107926852.208 7      1976.178          46.000  
G 9  22330487.154 5 117347492.386 5      -859.501          31.000  
G16  20682491.453 7 108687218.220 7     -1461.066          44.000  
G18  24326045.473 5 127834220.982 5     -1846.094          30.000  
G21  24083451.691 5 126559377.275 5      3912.560          34.000  
G26  22466429.568 7 118061893.689 7     -2390.251          42.000  
G27  19697144.334 7 103509201.542 7      -213.060          46.000  
G31  23218924.715 6 122016233.086 6     -3293.504          41.000  
R 7  23409374.429 5 125311633.93925      1007.697          30.000  
R14  23296208.577 5 124181789.445 5     -2809.295          31.000  
R15  19987986.311 7 106809697.221 7      -841.162          45.000  
R16  20494945.458 7 109480287.416 7      2062.586          46.000  
R17  19790676.900 7 105903897.337 7      -877.671          43.000  
R18  20092028.719 7 107252560.369 7      2976.605          45.000  
R24  23390442.466 5 125079202.51625     -3924.212          33.000  
E 4  25107426.322 5 131940395.540 5     -1934.547          35.000  
E14  22380458.599 7 117610122.992 7      3138.711          42.000  
E21  26103836.285 6 137176593.930 6     -1760.542          40.000  
E23  23466371.898 7 123316634.855 7      -221.382          44.000  
E26  25223139.815 6 132548519.682 6      1734.952          40.000  
J 2  38940304.414 7 204632682.271 7      -116.859          43.000  
J 3  37207791.846 6 195528261.245 6       109.802          41.000  
> 2024 11 29  8 39 47.3990000  0 24                     
G 4  22058866.523 6 115920109.839 6     -2249.563          37.000  
G 7  23707303.052 4 124582785.587 4      3142.954          26.000  
G 8  20537716.541 7 107926457.016 7      1976.038          46.000  
G 9  22330519.577 5 117347664.433 5      -860.266          31.000  
G16  20682547.154 7 108687510.453 7     -1461.249          44.000  
G18  24326115.588 5 127834590.229 5     -1846.177          30.000  
G21  24083302.789 5 126558594.760 5      3912.002          34.000  
G26  22466520.518 7 118062371.795 7     -2390.669          42.000  
G27  19697152.431 7 103509244.190 7      -213.524          46.000  
G31  23219050.095 6 122016891.820 6     -3293.702          41.000  
R 7  23409339.267 5 125311432.36225      1009.222          30.000  
R14  23296313.104 5 124182351.271 5     -2809.223          31.000  
R15  19988017.635 7 106809865.473 7      -841.340          45.000  
R16  20494868.084 7 109479874.949 7      2062.360          46.000  
R17  19790709.776 7 105904072.957 7      -878.102          43.000  
R18  20091917.264 7 107251965.094 7      2976.231          45.000  
R24  23390588.367 5 125079987.43525     -3924.878          34.000  
E 4  25107499.944 5 131940782.592 5     -1935.336          35.000  
E14  22380339.135 7 117609495.339 7      3138.149          42.000  
E21  26103903.329 6 137176946.079 6     -1760.784          40.000  
E23  23466380.362 7 123316679.143 7      -221.551          44.000  
E26  25223073.679 6 132548172.769 6      1734.529          40.000  
J 2  38940308.916 7 204632705.656 7      -117.071          43.000  
J 3  37207787.815 6 195528239.368 6       109.335          41.000  
> 2024 11 29  8 39 47.5990000  0 24                     
G 4  22058952.081 6 115920559.783 6     -2249.645          37.000  
G 7  23707183.553 4 124582157.086 4      3142.565          26.000  
G 8  20537641.244 7 107926061.831 7      1975.952          46.000  
G 9  22330555.070 5 117347836.445 5      -859.985          31.000  
G16  20682602.680 7 108687802.666 7     -1461.108          43.000  
G18  24326185.860 5 127834959.457 5     -1846.648          30.000  
G21  24083153.816 5 126557812.153 5      3912.252          34.000  
G26  22466611.609 7 118062849.869 7     -2390.378          42.000  
G27  19697160.563 7 103509286.840 7      -213.302          46.000  
G31  23219175.457 6 122017550.554 6     -3293.529          41.000  
R 7  23409300.283 4 125311230.96224      1007.074          29.000  
R14  23296420.545 5 124182913.023 5     -2808.578          32.000  
R15  19988048.975 7 106810033.716 7      -841.125          45.000  
R16  20494790.972 7 109479462.451 7      2062.628          46.000  
R17  19790742.530 7 105904248.593 7      -878.136          43.000  
R18  20091805.618 7 107251369.805 7      2976.439          45.000  
R24  23390736.886 5 125080772.34325     -3924.499          34.000  
E 4  25107573.602 5 131941169.598 5     -1934.907          35.000  
E14  22380219.583 7 117608867.630 7      3138.567          42.000  
E21  26103970.320 6 137177298.164 6     -1760.200          40.000  
E23  23466388.947 7 123316723.396 7      -221.124          44.000  
E26  25223007.560 6 132547825.834 6      1734.612          40.000  
J 2  38940313.488 7 204632728.990 7      -116.486          43.000  
J 3  37207783.732 6 195528217.462 6       109.813          41.000  
> 2024 11 29  8 39 47.7990000  0 24                     
G 4  22059037.744 6 115921009.766 6     -2250.008          37.000  
G 7  23707062.727 4 124581528.568 4      3142.829          26.000  
G 8  20537565.946 7 107925666.677 7      1975.525          46.000  
G 9  22330588.156 5 117348008.495 5      -859.742          31.000  
G16  20682658.312 7 108688094.921 7     -1461.426          43.000  
G18  24326256.080 5 127835328.731 5     -1847.174          30.000  
G21  24083004.844 5 126557029.585 5      3912.073          34.000  
G26  22466702.559 7 118063327.978 7     -2390.842          42.000  
G27  19697168.642 7 103509329.528 7      -213.714          46.000  
G31  23219300.820 6 122018209.309 6     -3293.991          41.000  
R 7  23409264.056 5 125311029.51925      1006.909          30.000  
R14  23296527.969 5 124183474.848 5     -2809.144          32.000  
R15  19988080.560 7 106810202.003 7      -841.619          45.000  
R16  20494713.720 7 109479049.990 7      2062.079          46.000  
R17  19790775.354 7 105904424.286 7      -878.823          43.000  
R18  20091694.076 7 107250774.591 7      2975.808          45.000  
R24  23390882.369 5 125081557.34125     -3925.702          34.000  
E 4  25107647.416 5 131941556.653 5     -1935.419          35.000  
E14  22380100.067 7 117608239.973 7      3138.303          42.000  
E21  26104037.486 6 137177650.323 6     -1760.992          40.000  
E23  23466397.445 7 123316767.699 7      -221.550          44.000  
E26  25222941.581 6 132547478.933 6      1734.270          40.000  
J 2  38940318.095 7 204632752.373 7      -116.863          43.000  
J 3  37207779.579 6 195528195.610 6       109.020          41.000  
> 2024 11 29  8 39 47.9990000  0 24                     
G 4  22059123.495 6 115921459.739 6     -2250.098          38.000  
G 7  23706942.443 4 124580900.096 4      3142.404          25.000  
G 8  20537490.805 7 107925271.529 7      1975.543          46.000  
G 9  22330623.266 5 117348180.577 5      -860.781          31.000  
G16  20682713.978 7 108688387.164 7     -1461.359          43.000  
G18  24326326.387 4 127835697.958 4     -1846.821          29.000  
G21  24082855.766 5 126556247.013 5      3912.961          34.000  
G26  22466793.649 7 118063806.062 7     -2390.620          42.000  
G27  19697176.809 7 103509372.231 7      -213.570          46.000  
G31  23219426.112 6 122018868.084 6     -3294.101          41.000  
R 7  23409227.690 4 125310828.12024      1006.091          29.000  
R14  23296633.717 5 124184036.657 5     -2808.774          32.000  
R15  19988112.197 7 106810370.288 7      -841.595          45.000  
R16  20494636.450 7 109478637.507 7      2062.256          46.000  
R17  19790808.125 7 105904599.996 7      -878.964          43.000  
R18  20091582.639 7 107250179.362 7      2975.937          45.000  
R24  23391027.188 5 125082342.25225     -3925.165          34.000  
E 4  25107720.986 5 131941943.701 5     -1935.311          35.000  
E14  22379980.760 7 117607612.311 7      3138.372          42.000  
E21  26104104.477 6 137178002.435 6     -1760.717          40.000  
E23  23466405.926 7 123316811.974 7      -221.458          44.000  
E26  25222875.706 6 132547132.024 6      1734.450          40.000  
J 2  38940322.423 7 204632775.729 7      -116.997          43.000  
J 3  37207775.443 6 195528173.719 6       109.250          41.000  
> 2024 11 29  8 39 48.1990000  0 24                     
G 4  22059209.228 6 115921909.722 6     -2250.002          38.000  
G 7  23706823.118 4 124580271.594 4      3142.622          26.000  
G 8  20537415.612 7 107924876.377 7      1975.848          46.000  
G 9  22330655.863 5 117348352.647 5      -860.254          31.000  
G16  20682769.609 7 108688679.396 7     -1461.053          43.000  
G18  24326396.659 4 127836067.273 4     -1847.961          29.000  
G21  24082706.811 5 126555464.455 5      3912.913          34.000  
G26  22466884.652 7 118064284.143 7     -2390.323          42.000  
G27  19697184.958 7 103509414.947 7      -213.449          46.000  
G31  23219551.475 6 122019526.819 6     -3293.789          41.000  
R 7  23409189.875 5 125310626.17115      1007.184          30.000  
R14  23296740.163 5 124184598.500 5     -2809.186          32.000  
R15  19988143.555 7 106810538.564 7      -841.403          45.000  
R16  20494559.372 7 109478225.021 7      2062.445          46.000  
R17  19790840.879 7 105904775.710 7      -878.790          43.000  
R18  20091471.150 7 107249584.148 7      2975.987          45.000  
R24  23391173.665 5 125083127.19225     -3924.817          34.000  
E 4  25107794.609 5 131942330.763 5     -1935.153          35.000  
E14  22379861.487 6 117606984.642 6      3138.201          41.000  
E21  26104171.451 6 137178354.538 6     -1760.416          40.000  
E23  23466414.669 7 123316856.243 7      -221.161          44.000  
E26  25222809.674 6 132546785.121 6      1734.702          40.000  
J 2  38940326.907 7 204632798.05937      -116.620          43.000  
J 3  37207771.395 6 195528158.30736       109.516          41.000  
> 2024 11 29  8 39 48.3990000  0 24                     
G 4  22059294.908 6 115922359.774 6     -2250.382          38.000  
G 7  23706703.567 4 124579643.127 4      3142.281          26.000  
G 8  20537340.541 7 107924481.308 7      1975.311          46.000  
G 9  22330688.285 5 117348524.777 5      -861.053          31.000  
G16  20682825.118 7 108688971.703 7     -1461.792          43.000  
G18  24326466.861 4 127836436.600 4     -1846.735          29.000  
G21  24082557.874 5 126554681.892 5      3912.856          34.000  
G26  22466975.672 7 118064762.293 7     -2390.744          42.000  
G27  19697193.142 7 103509457.721 7      -213.979          46.000  
G31  23219676.750 6 122020185.604 6     -3293.853          41.000  
R 7  23409152.445 4 125310424.846 4      1006.549          29.000  
R14  23296845.039 5 124185160.348 5     -2809.136          32.000  
R15  19988175.070 7 106810706.912 7      -841.804          45.000  
R16  20494482.173 7 109477812.581 7      2062.085          46.000  
R17  19790873.703 7 105904951.512 7      -878.992          43.000  
R18  20091359.747 7 107248989.010 7      2975.523          45.000  
R24  23391319.008 5 125083912.18825     -3925.500          33.000  
E 4  25107868.423 5 131942717.886 5     -1936.019          35.000  
E14  22379742.110 6 117606357.014 6      3138.228          41.000  
E21  26104238.530 6 137178706.702 6     -1761.139          40.000  
E23  23466422.940 7 123316900.573 7      -221.883          44.000  
E26  25222743.800 6 132546438.303 6      1733.967          40.000  
J 2  38940331.287 7 204632821.43727      -116.994          43.000  
J 3  37207767.137 6 195528136.46026       108.997          41.000  
> 2024 11 29  8 39 48.5990000  0 24                     
G 4  22059380.414 6 115922809.834 6     -2250.439          38.000  
G 7  23706582.672 4 124579014.708 4      3142.317          26.000  
G 8  20537265.418 7 107924086.238 7      1975.500          46.000  
G 9  22330721.092 5 117348696.903 5      -860.164          31.000  
G16  20682880.732 7 108689263.997 7     -1461.475          43.000  
G18  24326537.151 4 127836805.923 4     -1845.062          29.000  
G21  24082408.919 5 126553899.374 5      3912.358          34.000  
G26  22467066.571 6 118065240.417 6     -2390.706          41.000  
G27  19697201.239 7 103509500.527 7      -213.936          46.000  
G31  23219802.077 6 122020844.428 6     -3293.665          41.000  
R 7  23409115.572 4 125310223.557 4      1006.604          29.000  
R14  23296950.020 5 124185722.234 5     -2809.288          32.000  
R15  19988206.568 7 106810875.254 7      -841.628          45.000  
R16  20494404.903 7 109477400.146 7      2062.439          46.000  
R17  19790906.597 7 105905127.364 7      -879.130          43.000  
R18  20091248.241 7 107248393.892 7      2975.592          45.000  
R24  23391466.305 5 125084697.15725     -3924.658          33.000  
E 4  25107942.080 6 131943104.961 6     -1935.438          36.000  
E14  22379622.699 7 117605729.419 7      3138.145          42.000  
E21  26104305.469 6 137179058.838 6     -1760.218          40.000  
E23  23466431.456 7 123316944.874 7      -221.462          44.000  
E26  25222677.751 6 132546091.443 6      1734.324          40.000  
J 2  38940335.667 7 204632844.80327      -116.793          43.000  
J 3  37207762.896 6 195528114.59726       109.471          41.000  
> 2024 11 29  8 39 48.7990000  0 24                     
G 4  22059465.955 6 115923259.856 6     -2250.298          38.000  
G 7  23706463.312 4 124578386.190 4      3142.583          26.000  
G 8  20537190.347 7 107923691.177 7      1975.391          46.000  
G 9  22330752.205 5 117348869.048 5      -859.791          31.000  
G16  20682936.328 7 108689556.280 7     -1461.304          43.000  
G18  24326607.388 5 127837175.303 5     -1847.203          30.000  
G21  24082259.894 5 126553116.755 5      3913.118          34.000  
G26  22467157.434 6 118065718.540 6     -2390.443          41.000  
G27  19697209.441 7 103509543.323 7      -214.136          46.000  
G31  23219927.509 6 122021503.210 6     -3293.872          41.000  
R 7  23409079.625 4 125310022.253 4      1006.635          29.000  
R14  23297053.988 5 124186284.078 5     -2809.221          32.000  
R15  19988238.223 7 106811043.598 7      -841.913          45.000  
R16  20494327.616 7 109476987.701 7      2062.152          46.000  
R17  19790939.403 7 105905303.217 7      -879.386          43.000  
R18  20091136.803 7 107247798.770 7      2975.659          45.000  
R24  23391611.770 5 125085482.17525     -3925.232          33.000  
E 4  25108015.685 6 131943492.096 6     -1935.781          36.000  
E14  22379503.234 7 117605101.785 7      3138.146          42.000  
E21  26104372.391 6 137179410.972 6     -1760.669          40.000  
E23  23466439.884 7 123316989.181 7      -221.527          44.000  
E26  25222611.789 6 132545744.609 6      1734.113          40.000  
J 2  38940340.082 7 204632868.14827      -116.761          43.000  
J 3  37207758.743 6 195528092.70926       109.507          41.000  
> 2024 11 29  8 39 48.9990000  0 24                     
G 4  22059551.618 6 115923709.927 6     -2250.173          37.000  
G 7  23706343.394 4 124577757.749 4      3142.239          26.000  
G 8  20537115.137 7 107923296.138 7      1975.183          46.000  
G 9  22330784.174 5 117349041.302 5      -861.163          31.000  
G16  20682992.012 7 108689848.579 7     -1461.548          43.000  
G18  24326677.555 5 127837544.626 5     -1847.440          30.000  
G21  24082110.851 5 126552334.187 5      3913.136          34.000  
G26  22467248.437 6 118066196.666 6     -2390.802          41.000  
G27  19697217.712 7 103509586.143 7      -213.928          46.000  
G31  23220052.784 6 122022162.008 6     -3294.007          41.000  
R 7  23409041.426 4 125309820.978 4      1006.653          29.000  
R14  23297156.299 5 124186845.970 5     -2809.398          32.000  
R15  19988269.808 7 106811211.933 7      -841.688          45.000  
R16  20494250.538 7 109476575.252 7      2062.299          46.000  
R17  19790972.349 7 105905479.116 7      -879.661          43.000  
R18  20091025.297 7 107247203.703 7      2975.397          45.000  
R24  23391758.282 5 125086267.17825     -3925.390          33.000  
E 4  25108089.325 6 131943879.210 6     -1935.825          36.000  
E14  22379383.718 7 117604474.175 7      3137.887          42.000  
E21  26104439.434 6 137179763.089 6     -1760.558          40.000  
E23  23466448.313 7 123317033.485 7      -221.522          44.000  
E26  25222545.845 6 132545397.790 6      1733.991          41.000  
J 2  38940344.602 7 204632891.47827      -116.720          43.000  
J 3  37207754.573 6 195528070.85726       109.340          41.000  
> 2024 11 29  8 39 49.1990000  0 24                     
G 4  22059637.212 6 115924160.044 6     -2250.788          37.000  
G 7  23706224.192 4 124577129.268 4      3142.195          26.000  
G 8  20537039.822 7 107922901.124 7      1975.317          46.000  
G 9  22330815.986 5 117349213.519 5      -861.705          31.000  
G16  20683047.504 7 108690140.901 7     -1461.529          43.000  
G18  24326747.792 4 127837914.076 4     -1849.157          29.000  
G21  24081961.879 5 126551551.653 5      3913.095          34.000  
G26  22467339.475 6 118066674.786 6     -2390.400          41.000  
G27  19697225.861 7 103509629.010 7      -213.901          46.000  
G31  23220178.094 6 122022820.809 6     -3293.741          41.000  
R 7  23409003.210 4 125309619.793 4      1005.884          29.000  
R14  23297261.122 5 124187407.859 5     -2809.291          32.000  
R15  19988301.427 7 106811380.314 7      -841.639          45.000  
R16  20494173.286 7 109476162.827 7      2062.311          46.000  
R17  19791005.156 7 105905655.048 7      -879.541          43.000  
R18  20090913.964 7 107246608.639 7      2975.404          45.000  
R24  23391904.986 5 125087052.19725     -3925.073          34.000  
E 4  25108163.070 6 131944266.357 6     -1935.746          36.000  
E14  22379264.393 7 117603846.547 7      3138.358          42.000  
E21  26104506.548 6 137180115.244 6     -1760.562          41.000  
E23  23466456.619 7 123317077.798 7      -221.437          44.000  
E26  25222480.040 6 132545050.982 6      1734.286          41.000  
J 2  38940348.982 7 204632914.82627      -116.526          43.000  
J 3  37207750.472 6 195528049.00326       109.213          41.000  
> 2024 11 29  8 39 49.3990000  0 24                     
G 4  22059722.840 6 115924610.157 6     -2250.454          37.000  
G 7  23706104.745 4 124576500.801 4      3142.201          26.000  
G 8  20536964.768 7 107922506.133 7      1974.988          46.000  
G 9  22330846.262 5 117349385.758 5      -861.067          31.000  
G16  20683103.222 7 108690433.237 7     -1461.853          43.000  
G18  24326816.564 4 127838283.372 4     -1846.936          29.000  
G21  24081813.029 5 126550769.141 5      3911.965          34.000  
G26  22467430.390 6 118067152.943 6     -2390.476          41.000  
G27  19697234.098 7 103509671.913 7      -214.643          46.000  
G31  23220303.492 6 122023479.667 6     -3294.208          41.000  
R 7  23408967.542 4 125309418.590 4      1005.750          29.000  
R14  23297367.865 5 124187969.751 5     -2809.195          31.000  
R15  19988333.030 7 106811548.722 7      -842.054          45.000  
R16  20494096.261 7 109475750.418 7      2062.134          46.000  
R17  19791037.997 7 105905831.032 7      -880.083          43.000  
R18  20090802.527 7 107246013.649 7      2975.018          45.000  
R24  23392052.423 5 125087837.24525     -3925.079          34.000  
E 4  25108236.745 6 131944653.510 6     -1935.745          36.000  
E14  22379144.824 7 117603218.978 7      3137.666          42.000  
E21  26104573.679 6 137180467.402 6     -1760.617          41.000  
E23  23466465.344 7 123317122.142 7      -221.756          44.000  
E26  25222414.008 6 132544704.213 6      1733.983          41.000  
J 2  38940353.571 7 204632938.17727      -116.834          43.000  
J 3  37207746.371 6 195528027.15226       109.302          41.000  
> 2024 11 29  8 39 49.5990000  0 24                     
G 4  22059808.416 6 115925060.261 6     -2250.255          37.000  
G 7  23705985.072 4 124575872.295 4      3142.602          26.000  
G 8  20536889.523 7 107922111.143 7      1974.921          46.000  
G 9  22330876.486 5 117349558.050 5      -862.339          30.000  
G16  20683158.696 7 108690725.556 7     -1461.713          43.000  
G18  24326885.754 5 127838652.775 5     -1847.068          30.000  
G21  24081664.091 5 126549986.537 5      3912.699          34.000  
G26  22467521.323 6 118067631.091 6     -2390.806          41.000  
G27  19697242.247 7 103509714.815 7      -214.711          46.000  
G31  23220428.784 6 122024138.494 6     -3294.141          41.000  
R 7  23408930.286 4 125309217.425 4      1005.542          29.000  
R14  23297471.659 5 124188531.664 5     -2810.239          31.000  
R15  19988364.562 7 106811717.109 7      -842.001          45.000  
R16  20494018.957 7 109475337.984 7      2062.201          46.000  
R17  19791070.838 7 105906007.017 7      -879.906          43.000  
R18  20090691.125 7 107245418.627 7      2974.967          45.000  
R24  23392198.935 5 125088622.30225     -3924.884          34.000  
E 4  25108310.298 6 131945040.670 6     -1935.805          36.000  
E14  22379025.552 7 117602591.354 7      3138.129          42.000  
E21  26104640.670 6 137180819.538 6     -1760.615          40.000  
E23  23466473.895 7 123317166.447 7      -221.528          44.000  
E26  25222348.011 6 132544357.418 6      1733.870          41.000  
J 2  38940358.004 7 204632961.50927      -116.659          43.000  
J 3  37207742.200 6 195528005.26126       109.656          41.000  
> 2024 11 29  8 39 49.7990000  0 24                     
G 4  22059894.114 6 115925510.356 6     -2250.020          37.000  
G 7  23705865.956 4 124575243.798 4      3142.755          26.000  
G 8  20536814.435 7 107921716.128 7      1975.110          46.000  
G 9  22330912.503 5 117349730.222 5      -860.665          30.000  
G16  20683214.275 7 108691017.832 7     -1461.255          43.000  
G18  24326953.635 5 127839022.195 5     -1847.061          34.000  
G21  24081515.171 5 126549203.907 5      3913.276          34.000  
G26  22467612.326 6 118068109.183 6     -2390.295          41.000  
G27  19697250.396 7 103509757.687 7      -214.463          46.000  
G31  23220554.007 6 122024797.279 6     -3293.773          41.000  
R 7  23408896.607 4 125309016.191 4      1006.396          28.000  
R14  23297577.704 5 124189093.452 5     -2808.742          31.000  
R15  19988396.147 7 106811885.458 7      -841.592          45.000  
R16  20493941.792 7 109474925.512 7      2062.451          46.000  
R17  19791103.680 7 105906183.009 7      -879.856          42.000  
R18  20090579.635 7 107244823.598 7      2975.294          45.000  
R24  23392345.971 5 125089407.31025     -3924.847          34.000  
E 4  25108384.042 6 131945427.778 6     -1935.366          36.000  
E14  22378906.123 7 117601963.721 7      3138.279          42.000  
E21  26104707.644 6 137181171.613 6     -1760.243          40.000  
E23  23466482.410 7 123317210.729 7      -221.316          44.000  
E26  25222282.172 6 132544010.593 6      1734.250          41.000  
J 2  38940362.419 7 204632984.78727      -116.408          43.000  
J 3  37207737.977 6 195527983.36226       109.605          41.000  
> 2024 11 29  8 39 49.9990000  0 24                     
G 4  22059979.864 6 115925960.463 6     -2250.122          37.000  
G 7  23705747.609 4 124574615.282 4      3142.055          26.000  
G 8  20536739.120 7 107921321.131 7      1974.921          46.000  
G 9  22330946.304 5 117349902.492 5      -861.403          30.000  
G16  20683269.994 7 108691310.120 7     -1461.377          43.000  
G18  24327023.872 5 127839391.607 5     -1847.254          34.000  
G21  24081366.268 5 126548421.291 5      3912.895          34.000  
G26  22467703.346 6 118068587.267 6     -2390.094          41.000  
G27  19697258.511 7 103509800.572 7      -214.382          46.000  
G31  23220679.300 6 122025456.064 6     -3294.354          40.000  
R 7  23408860.293 4 125308815.043 4      1005.884          28.000  
R14  23297683.644 5 124189655.306 5     -2808.913          32.000  
R15  19988427.732 7 106812053.825 7      -841.992          45.000  
R16  20493864.575 7 109474513.035 7      2062.488          46.000  
R17  19791136.678 7 105906359.022 7      -880.149          42.000  
R18  20090468.181 7 107244228.603 7      2975.048          45.000  
R24  23392493.303 5 125090192.31625     -3924.829          35.000  
E 4  25108457.787 5 131945814.918 5     -1935.834          35.000  
E14  22378786.519 7 117601336.085 7      3138.214          42.000  
E21  26104774.496 6 137181523.705 6     -1760.490          40.000  
E23  23466490.682 7 123317254.999 7      -221.372          43.000  
E26  25222216.280 6 132543663.791 6      1734.103          40.000  
J 2  38940366.903 7 204633008.04527      -116.384          43.000  
J 3  37207733.772 6 195527961.45926       109.465          41.000  
> 2024 11 29  8 39 50.1990000  0 24                     
G 4  22060065.457 6 115926410.622 6     -2251.224          37.000  
G 7  23705627.272 4 124573986.801 4      3142.469          26.000  
G 8  20536664.014 7 107920926.148 7      1974.774          46.000  
G 9  22330977.889 5 117350074.739 5      -861.028          30.000  
G16  20683325.625 7 108691602.426 7     -1461.719          44.000  
G18  24327095.732 5 127839761.097 5     -1847.699          34.000  
G21  24081217.330 5 126547638.634 5      3913.270          34.000  
G26  22467794.437 6 118069065.374 6     -2390.585          41.000  
G27  19697266.643 7 103509843.496 7      -214.827          46.000  
G31  23220804.732 6 122026114.872 6     -3294.130          40.000  
R 7  23408824.922 4 125308613.928 4      1005.267          28.000  
R14  23297788.764 5 124190217.180 5     -2808.813          32.000  
R15  19988459.160 7 106812222.211 7      -842.225          46.000  
R16  20493787.462 7 109474100.580 7      2062.189          46.000  
R17  19791169.554 7 105906535.083 7      -880.617          42.000  
R18  20090356.639 7 107243633.634 7      2974.508          45.000  
R24  23392640.024 5 125090977.361 5     -3925.629          34.000  
E 4  25108531.601 5 131946202.077 5     -1935.930          35.000  
E14  22378667.055 7 117600708.474 7      3137.906          42.000  
E21  26104841.418 6 137181875.791 6     -1760.708          40.000  
E23  23466499.023 7 123317299.276 7      -221.348          43.000  
E26  25222150.300 6 132543317.021 6      1733.713          40.000  
J 2  38940371.283 7 204633031.31527      -116.348          43.000  
J 3  37207729.549 6 195527939.54426       109.256          41.000  
> 2024 11 29  8 39 50.3990000  0 24                     
G 4  22060151.138 6 115926860.730 6     -2250.997          37.000  
G 7  23705506.936 4 124573358.249 4      3143.011          26.000  
G 8  20536588.995 7 107920531.191 7      1974.487          46.000  
G 9  22331010.486 5 117350247.064 5      -862.788          30.000  
G16  20683381.257 7 108691894.715 7     -1461.615          44.000  
G18  24327166.004 5 127840130.582 5     -1847.882          33.000  
G21  24081068.428 5 126546856.066 5      3912.432          34.000  
G26  22467885.370 6 118069543.484 6     -2390.668          41.000  
G27  19697274.949 7 103509886.438 7      -214.798          46.000  
G31  23220929.989 6 122026773.686 6     -3294.198          40.000  
R 7  23408787.543 4 125308412.831 4      1005.133          28.000  
R14  23297893.640 5 124190779.041 5     -2810.010          32.000  
R15  19988490.762 7 106812390.580 7      -842.016          46.000  
R16  20493710.245 7 109473688.116 7      2062.189          46.000  
R17  19791202.308 7 105906711.160 7      -880.747          42.000  
R18  20090245.289 7 107243038.673 7      2974.613          45.000  
R24  23392786.659 5 125091762.458 5     -3926.556          31.000  
E 4  25108605.084 5 131946589.212 5     -1935.850          35.000  
E14  22378547.695 7 117600080.829 7      3138.190          42.000  
E21  26104908.392 6 137182227.854 6     -1760.551          40.000  
E23  23466507.486 7 123317343.555 7      -221.520          43.000  
E26  25222084.374 6 132542970.233 6      1733.809          40.000  
J 2  38940375.751 7 204633054.55827      -116.291          43.000  
J 3  37207725.448 6 195527917.61226       109.528          41.000  
> 2024 11 29  8 39 50.5990000  0 24                     
G 4  22060236.731 6 115927310.850 6     -2250.239          37.000  
G 7  23705388.414 4 124572729.719 4      3142.341          26.000  
G 8  20536513.837 7 107920136.229 7      1974.927          46.000  
G 9  22331042.193 5 117350419.360 5      -860.463          30.000  
G16  20683436.713 7 108692187.025 7     -1461.224          44.000  
G18  24327235.456 5 127840500.060 5     -1846.577          33.000  
G21  24080919.403 5 126546073.354 5      3913.765          34.000  
G26  22467976.355 6 118070021.579 6     -2390.193          41.000  
G27  19697283.116 7 103509929.395 7      -214.751          46.000  
G31  23221055.404 6 122027432.480 6     -3293.545          40.000  
R 7  23408749.659 4 125308211.743 4      1005.621          28.000  
R14  23297999.074 5 124191340.883 5     -2808.452          32.000  
R15  19988522.434 7 106812558.980 7      -841.675          46.000  
R16  20493632.958 7 109473275.644 7      2062.659          46.000  
R17  19791235.080 7 105906887.257 7      -880.158          42.000  
R18  20090133.835 7 107242443.742 7      2974.738          45.000  
R24  23392933.450 5 125092547.475 5     -3925.592          31.000  
E 4  25108678.637 5 131946976.375 5     -1935.323          35.000  
E14  22378428.318 7 117599453.206 7      3138.369          42.000  
E21  26104975.540 6 137182579.934 6     -1760.142          40.000  
E23  23466515.932 7 123317387.823 7      -221.137          43.000  
E26  25222018.499 6 132542623.448 6      1734.032          40.000  
J 2  38940380.183 7 204633077.82227      -116.185          43.000  
J 3  37207721.330 6 195527895.69726       109.921          41.000  
> 2024 11 29  8 39 50.7990000  0 24                     
G 4  22060322.429 6 115927761.032 6     -2251.044          37.000  
G 7  23705269.578 4 124572101.264 4      3142.156          26.000  
G 8  20536438.609 7 107919741.281 7      1974.432          46.000  
G 9  22331075.104 5 117350591.648 5      -861.897          30.000  
G16  20683492.345 7 108692479.334 7     -1461.768          44.000  
G18  24327304.070 5 127840869.554 5     -1847.828          33.000  
G21  24080770.395 5 126545290.724 5      3913.089          34.000  
G26  22468067.323 7 118070499.676 7     -2390.377          42.000  
G27  19697291.352 7 103509972.350 7      -215.086          46.000  
G31  23221180.749 6 122028091.298 6     -3294.431          40.000  
R 7  23408710.291 4 125308010.603 4      1006.323          28.000  
R14  23298104.282 5 124191902.798 5     -2809.656          33.000  
R15  19988554.054 7 106812727.387 7      -842.405          46.000  
R16  20493555.793 7 109472863.179 7      2062.146          46.000  
R17  19791267.938 7 105907063.375 7      -880.611          42.000  
R18  20090022.363 7 107241848.816 7      2974.274          45.000  
R24  23393080.206 5 125093332.547 5     -3926.324          31.000  
E 4  25108752.346 5 131947363.522 5     -1935.928          35.000  
E14  22378308.819 7 117598825.577 7      3137.823          42.000  
E21  26105042.584 6 137182931.987 6     -1760.475          40.000  
E23  23466524.431 7 123317432.092 7      -221.628          43.000  
E26  25221952.485 6 132542276.675 6      1733.675          40.000  
J 2  38940384.546 7 204633101.05027      -116.236          43.000  
J 3  37207717.089 6 195527873.77726       109.115          41.000  
> 2024 11 29  8 39 50.9990000  0 24                     
G 4  22060408.057 6 115928211.179 6     -2250.883          37.000  
G 7  23705150.812 4 124571472.752 4      3142.641          26.000  
G 8  20536363.486 7 107919346.344 7      1975.037          46.000  
G 9  22331106.445 5 117350764.014 5      -860.172          30.000  
G16  20683547.976 7 108692771.624 7     -1461.420          44.000  
G18  24327376.297 4 127841239.039 4     -1847.745          28.000  
G21  24080621.406 5 126544508.058 5      3913.866          34.000  
G26  22468158.239 6 118070977.756 6     -2390.132          41.000  
G27  19697299.432 7 103510015.333 7      -214.744          46.000  
G31  23221306.077 7 122028750.083 7     -3294.238          42.000  
R 7  23408671.901 4 125307809.666 4      1004.034          27.000  
R14  23298211.339 5 124192464.595 5     -2808.021          32.000  
R15  19988585.465 7 106812895.761 7      -841.798          46.000  
R16  20493478.611 7 109472450.699 7      2062.561          46.000  
R17  19791300.867 7 105907239.544 7      -880.768          43.000  
R18  20089910.873 7 107241253.898 7      2974.823          45.000  
R24  23393226.997 5 125094117.594 5     -3926.373          30.000  
E 4  25108826.109 5 131947750.702 5     -1935.756          35.000  
E14  22378189.512 7 117598197.940 7      3138.564          42.000  
E21  26105109.697 6 137183284.036 6     -1759.878          40.000  
E23  23466532.754 7 123317476.346 7      -221.074          43.000  
E26  25221886.348 6 132541929.927 6      1733.965          40.000  
J 2  38940389.030 7 204633124.25727      -115.863          43.000  
J 3  37207712.867 6 195527851.81026       110.203          41.000  
> 2024 11 29  8 39 51.1990000  0 24                     
G 4  22060493.808 6 115928661.400 6     -2251.696          37.000  
G 7  23705031.173 4 124570844.162 4      3142.953          26.000  
G 8  20536288.415 7 107918951.469 7      1974.207          46.000  
G 9  22331139.408 5 117350936.440 5      -863.410          30.000  
G16  20683603.660 7 108693063.961 7     -1461.755          43.000  
G18  24327442.869 4 127841608.451 4     -1846.857          28.000  
G21  24080472.468 5 126543725.406 5      3913.661          34.000  
G26  22468249.154 7 118071455.876 7     -2390.734          42.000  
G27  19697307.686 7 103510058.373 7      -215.266          46.000  
G31  23221431.352 6 122029408.865 6     -3293.282          40.000  
R 7  23408635.412 4 125307608.638 4      1004.474          27.000  
R14  23298316.389 5 124193026.582 5     -2810.404          32.000  
R15  19988617.084 7 106813064.199 7      -842.270          46.000  
R16  20493401.411 7 109472038.252 7      2062.281          46.000  
R17  19791333.726 7 105907415.779 7      -881.091          44.000  
R18  20089799.332 7 107240659.063 7      2974.397          45.000  
R24  23393373.824 5 125094902.652 5     -3924.530          30.000  
E 4  25108899.905 6 131948137.904 6     -1935.900          36.000  
E14  22378069.943 7 117597570.327 7      3138.168          42.000  
E21  26105176.671 6 137183636.158 6     -1760.791          40.000  
E23  23466541.183 7 123317520.631 7      -221.503          43.000  
E26  25221820.404 6 132541583.194 6      1733.343          40.000  
J 2  38940393.515 7 204633147.49427      -116.123          43.000  
J 3  37207708.696 6 195527829.90726       110.015          41.000  
> 2024 11 29  8 39 51.3990000  0 24                     
G 4  22060579.488 6 115929111.599 6     -2250.900          37.000  
G 7  23704911.447 4 124570215.716 4      3142.812          26.000  
G 8  20536213.100 7 107918556.584 7      1974.695          46.000  
G 9  22331172.721 5 117351108.790 5      -861.191          30.000  
G16  20683659.308 7 108693356.319 7     -1461.810          43.000  
G18  24327509.948 4 127841978.040 4     -1848.212          28.000  
G21  24080323.600 5 126542942.825 5      3913.236          34.000  
G26  22468340.000 7 118071933.995 7     -2390.256          42.000  
G27  19697315.870 7 103510101.433 7      -215.287          46.000  
G31  23221556.819 6 122030067.782 6     -3294.234          40.000  
R 7  23408595.678 4 125307407.676 4      1004.804          27.000  
R14  23298421.178 5 124193588.440 5     -2809.765          32.000  
R15  19988648.739 7 106813232.667 7      -842.090          46.000  
R16  20493324.194 7 109471625.822 7      2062.408          46.000  
R17  19791366.672 7 105907592.040 7      -881.174          43.000  
R18  20089687.877 7 107240064.247 7      2974.233          45.000  
R24  23393522.412 5 125095687.934 5     -3927.264          30.000  
E 4  25108973.545 6 131948525.104 6     -1936.103          36.000  
E14  22377950.409 7 117596942.732 7      3138.095          42.000  
E21  26105243.663 6 137183988.210 6     -1760.297          40.000  
E23  23466549.629 7 123317564.941 7      -221.433          43.000  
E26  25221754.320 6 132541236.503 6      1733.557          40.000  
J 2  38940397.878 7 204633170.74427      -116.224          43.000  
J 3  37207704.595 6 195527808.03426       109.392          41.000  
> 2024 11 29  8 39 51.5990000  0 24                     
G 4  22060665.204 6 115929561.843 6     -2251.096          37.000  
G 7  23704791.302 4 124569587.191 4      3142.628          26.000  
G 8  20536137.890 7 107918161.783 7      1973.865          46.000  
G 9  22331205.475 5 117351281.212 5      -860.581          30.000  
G16  20683714.940 7 108693648.690 7     -1462.042          43.000  
G18  24327577.114 4 127842347.615 4     -1848.122          28.000  
G21  24080174.663 5 126542160.186 5      3911.968          34.000  
G26  22468430.951 7 118072412.161 7     -2390.687          42.000  
G27  19697324.019 7 103510144.522 7      -215.884          45.000  
G31  23221682.268 6 122030726.652 6     -3294.514          41.000  
R 7  23408556.485 4 125307206.756 4      1004.633          27.000  
R14  23298526.926 5 124194150.414 5     -2809.739          32.000  
R15  19988680.341 7 106813401.159 7      -842.512          46.000  
R16  20493247.046 7 109471213.423 7      2061.914          46.000  
R17  19791399.600 7 105907768.337 7      -881.583          43.000  
R18  20089576.545 7 107239469.475 7      2973.679          45.000  
R24  23393668.872 4 125096472.875 4     -3924.890          29.000  
E 4  25109047.325 6 131948912.376 6     -1936.367          36.000  
E14  22377830.998 7 117596315.147 7      3137.961          42.000  
E21  26105310.671 6 137184340.302 6     -1760.256          40.000  
E23  23466557.970 7 123317609.249 7      -221.709          43.000  
E26  25221688.236 6 132540889.820 6      1733.167          40.000  
J 2  38940402.240 7 204633193.99127      -116.302          43.000  
J 3  37207700.302 6 195527786.15226       108.855          41.000  
> 2024 11 29  8 39 51.7990000  0 24                     
G 4  22060751.007 6 115930012.111 6     -2251.373          37.000  
G 7  23704671.768 4 124568958.808 4      3141.808          26.000  
G 8  20536062.697 7 107917766.951 7      1973.804          46.000  
G 9  22331237.391 5 117351453.684 5      -861.591          30.000  
G16  20683770.606 7 108693941.057 7     -1461.926          43.000  
G18  24327646.252 4 127842717.274 4     -1848.245          28.000  
G21  24080025.777 5 126541377.525 5      3912.853          34.000  
G26  22468521.919 7 118072890.300 7     -2390.722          42.000  
G27  19697332.098 7 103510187.640 7      -215.672          46.000  
G31  23221807.666 6 122031385.512 6     -3294.467          41.000  
R 7  23408519.089 4 125307005.815 4      1005.145          27.000  
R14  23298632.360 5 124194712.326 5     -2811.052          32.000  
R15  19988711.961 7 106813569.657 7      -842.550          46.000  
R16  20493169.655 7 109470801.003 7      2061.896          46.000  
R17  19791432.529 7 105907944.681 7      -881.791          43.000  
R18  20089465.108 7 107238874.700 7      2973.542          45.000  
R24  23393816.344 4 125097258.119 4     -3926.251          29.000  
E 4  25109121.192 6 131949299.637 6     -1936.477          36.000  
E14  22377711.621 7 117595687.566 7      3137.732          42.000  
E21  26105377.767 6 137184692.417 6     -1760.731          40.000  
E23  23466566.433 7 123317653.555 7      -221.453          43.000  
E26  25221622.274 6 132540543.145 6      1733.439          40.000  
J 2  38940406.760 7 204633217.21627      -116.114          43.000  
J 3  37207696.010 6 195527764.23226       109.294          41.000  
> 2024 11 29  8 39 51.9990000  0 24                     
G 4  22060836.652 6 115930462.432 6     -2251.329          37.000  
G 7  23704553.246 4 124568330.277 4      3142.690          26.000  
G 8  20535987.521 7 107917372.210 7      1973.413          46.000  
G 9  22331272.257 5 117351626.286 5      -863.357          30.000  
G16  20683826.342 7 108694233.503 7     -1462.427          43.000  
G18  24327720.380 4 127843086.992 4     -1848.395          29.000  
G21  24079876.752 5 126540594.912 5      3913.060          34.000  
G26  22468612.922 7 118073368.497 7     -2391.028          42.000  
G27  19697340.248 7 103510230.825 7      -216.099          46.000  
G31  23221933.063 6 122032044.445 6     -3294.764          40.000  
R 7  23408478.238 4 125306805.090 4      1003.516          26.000  
R14  23298734.915 5 124195274.259 5     -2809.305          32.000  
R15  19988743.389 7 106813738.235 7      -843.146          46.000  
R16  20493092.402 7 109470388.653 7      2061.664          46.000  
R17  19791465.562 7 105908121.107 7      -882.209          43.000  
R18  20089353.775 7 107238280.014 7      2973.758          45.000  
R24  23393964.950 4 125098043.285 4     -3926.056          29.000  
E 4  25109194.744 6 131949686.949 6     -1936.484          36.000  
E14  22377592.471 7 117595060.060 7      3137.407          42.000  
E21  26105444.881 6 137185044.555 6     -1760.857          40.000  
E23  23466574.844 7 123317697.934 7      -222.149          43.000  
E26  25221556.504 6 132540196.544 6      1732.817          40.000  
J 2  38940411.192 7 204633240.52327      -116.564          43.000  
J 3  37207691.665 6 195527742.38426       109.394          41.000  
> 2024 11 29  8 39 52.1990000  0 24                     
G 4  22060922.595 6 115930912.812 6     -2251.962          37.000  
G 7  23704433.852 4 124567701.963 4      3141.481          26.000  
G 8  20535912.485 7 107916977.480 7      1973.560          46.000  
G 9  22331303.475 5 117351798.857 5      -863.033          30.000  
G16  20683882.043 7 108694525.952 7     -1462.292          43.000  
G18  24327792.746 5 127843456.731 5     -1848.955          33.000  
G21  24079727.902 5 126539812.342 5      3913.116          34.000  
G26  22468703.837 7 118073846.725 7     -2391.227          42.000  
G27  19697348.397 7 103510274.041 7      -215.931          46.000  
G31  23222058.495 6 122032703.398 6     -3294.424          40.000  
R 7  23408442.640 4 125306604.307 4      1003.613          26.000  
R14  23298839.774 5 124195836.308 5     -2810.074          32.000  
R15  19988775.044 7 106813906.807 7      -842.977          46.000  
R16  20493015.046 7 109469976.324 7      2061.646          46.000  
R17  19791498.508 7 105908297.573 7      -882.430          43.000  
R18  20089242.268 7 107237685.398 7      2973.196          45.000  
R24  23394111.322 4 125098828.551 4     -3926.971          29.000  
E 4  25109268.506 6 131950074.307 6     -1936.975          36.000  
E14  22377472.937 7 117594432.550 7      3137.341          42.000  
E21  26105511.872 6 137185396.723 6     -1760.976          40.000  
E23  23466583.412 7 123317742.298 7      -221.638          43.000  
E26  25221490.333 6 132539849.967 6      1732.718          40.000  
J 2  38940415.694 7 204633263.80727      -116.594          43.000  
J 3  37207687.494 6 195527720.58026       109.208          41.000  
> 2024 11 29  8 39 52.3990000  0 24                     
G 4  22061008.397 6 115931363.132 6     -2251.820          37.000  
G 7  23704313.829 4 124567073.434 4      3143.017          26.000  
G 8  20535837.345 7 107916582.746 7      1973.962          46.000  
G 9  22331337.782 5 117351971.451 5      -863.247          30.000  
G16  20683937.622 7 108694818.381 7     -1461.816          43.000  
G18  24327865.880 5 127843826.360 5     -1847.616          33.000  
G21  24079578.895 5 126539029.720 5      3914.032          34.000  
G26  22468794.770 7 118074324.935 7     -2390.887          42.000  
G27  19697356.668 7 103510317.266 7      -215.963          45.000  
G31  23222183.892 6 122033362.342 6     -3294.757          41.000  
R 7  23408404.703 4 125306403.506 4      1004.260          26.000  
R14  23298945.731 5 124196398.221 5     -2809.241          31.000  
R15  19988806.664 7 106814075.374 7      -842.523          46.000  
R16  20492937.811 7 109469563.960 7      2062.012          46.000  
R17  19791531.611 7 105908474.046 7      -882.254          43.000  
R18  20089130.988 7 107237090.757 7      2972.693          45.000  
R24  23394257.276 4 125099613.755 4     -3926.312          29.000  
E 4  25109342.251 6 131950461.607 6     -1936.570          36.000  
E14  22377353.368 7 117593805.004 7      3138.032          42.000  
E21  26105578.864 6 137185748.859 6     -1760.433          40.000  
E23  23466591.858 7 123317786.658 7      -221.624          43.000  
E26  25221424.319 6 132539503.351 6      1733.396          40.000  
J 2  38940420.161 7 204633287.06227      -116.194          43.000  
J 3  37207683.306 6 195527698.72426       109.356          41.000  
> 2024 11 29  8 39 52.5990000  0 24                     
G 4  22061094.252 6 115931813.509 6     -2251.836          37.000  
G 7  23704194.522 4 124566445.053 4      3142.245          26.000  
G 8  20535762.204 7 107916188.052 7      1973.529          46.000  
G 9  22331373.800 5 117352144.012 5      -863.124          30.000  
G16  20683993.271 7 108695110.845 7     -1462.134          43.000  
G18  24327937.182 5 127844196.045 5     -1848.511          33.000  
G21  24079429.957 5 126538247.173 5      3913.252          34.000  
G26  22468885.669 7 118074803.118 7     -2391.029          42.000  
G27  19697364.765 7 103510360.510 7      -216.089          45.000  
G31  23222309.167 6 122034021.271 6     -3295.069          41.000  
R 7  23408367.359 4 125306202.823 4      1003.308          26.000  
R14  23299052.038 5 124196960.219 5     -2809.348          31.000  
R15  19988838.196 7 106814243.982 7      -842.973          46.000  
R16  20492860.646 7 109469151.618 7      2061.786          46.000  
R17  19791564.505 7 105908650.574 7      -882.746          43.000  
R18  20089019.429 7 107236496.114 7      2973.038          45.000  
R24  23394403.927 4 125100399.076 4     -3926.697          28.000  
E 4  25109415.908 6 131950848.960 6     -1936.970          36.000  
E14  22377233.921 7 117593177.516 7      3137.159          42.000  
E21  26105645.838 6 137186100.984 6     -1760.700          40.000  
E23  23466600.304 7 123317831.025 7      -221.920          43.000  
E26  25221358.375 6 132539156.815 6      1732.310          40.000  
J 2  38940424.489 7 204633310.31927      -116.132          43.000  
J 3  37207679.240 6 195527676.86026       109.448          41.000  
> 2024 11 29  8 39 52.7990000  0 24                     
G 4  22061179.950 6 115932263.820 6     -2252.055          37.000  
G 7  23704075.215 4 124565816.582 4      3142.083          26.000  
G 8  20535686.994 7 107915793.291 7      1973.474          46.000  
G 9  22331404.617 5 117352316.579 5      -863.577          30.000  
G16  20684048.832 7 108695403.216 7     -1462.036          43.000  
G18  24328007.000 5 127844565.659 5     -1848.427          33.000  
G21  24079281.107 5 126537464.497 5      3912.951          34.000  
G26  22468976.637 7 118075281.239 7     -2390.708          42.000  
G27  19697372.949 7 103510403.706 7      -216.176          45.000  
G31  23222434.547 6 122034680.128 6     -3294.408          41.000  
R 7  23408329.737 4 125306002.086 4      1003.467          26.000  
R14  23299156.373 5 124197522.151 5     -2809.854          31.000  
R15  19988869.746 7 106814412.497 7      -842.830          46.000  
R16  20492783.499 7 109468739.204 7      2061.884          46.000  
R17  19791597.503 7 105908827.040 7      -882.706          43.000  
R18  20088908.009 7 107235901.440 7      2973.548          45.000  
R24  23394550.788 4 125101184.265 4     -3925.879          28.000  
E 4  25109489.653 6 131951236.221 6     -1936.522          36.000  
E14  22377114.544 7 117592549.904 7      3138.100          42.000  
E21  26105712.759 6 137186453.035 6     -1760.145          40.000  
E23  23466608.645 7 123317875.313 7      -221.588          43.000  
E26  25221292.378 6 132538810.121 6      1733.565          40.000  
J 2  38940428.956 7 204633333.49327      -115.864          43.000  
J 3  37207675.122 6 195527654.93526       109.777          41.000  
> 2024 11 29  8 39 52.9990000  0 24                     
G 4  22061265.683 6 115932714.169 6     -2251.927          37.000  
G 7  23703955.716 4 124565188.024 4      3142.799          26.000  
G 8  20535611.905 7 107915398.559 7      1973.779          46.000  
G 9  22331437.598 5 117352489.122 5      -862.338          30.000  
G16  20684104.429 7 108695695.627 7     -1461.823          43.000  
G18  24328075.161 5 127844935.349 5     -1848.225          34.000  
G21  24079132.221 5 126536681.817 5      3913.251          34.000  
G26  22469067.587 7 118075759.407 7     -2390.740          42.000  
G27  19697381.221 7 103510446.942 7      -216.067          46.000  
G31  23222559.997 6 122035339.061 6     -3294.326          41.000  
R 7  23408293.266 4 125305801.225 4      1004.657          25.000  
R14  23299261.284 5 124198084.104 5     -2809.726          31.000  
R15  19988901.488 7 106814581.056 7      -842.611          46.000  
R16  20492706.229 7 109468326.816 7      2062.054          46.000  
R17  19791630.571 7 105909003.558 7      -882.361          43.000  
R18  20088796.677 7 107235306.847 7      2972.985          45.000  
R24  23394697.248 4 125101969.476 4     -3926.123          28.000  
E 4  25109563.276 6 131951623.508 6     -1936.398          36.000  
E14  22376995.202 7 117591922.380 7      3137.700          42.000  
E21  26105779.873 6 137186805.118 6     -1760.382          40.000  
E23  23466617.335 7 123317919.620 7      -221.448          43.000  
E26  25221226.521 6 132538463.546 6      1733.052          40.000  
J 2  38940433.389 7 204633356.68927      -115.751          43.000  
J 3  37207670.986 6 195527633.05026       109.631          41.000  
> 2024 11 29  8 39 53.1990000  0 24                     
G 4  22061351.416 6 115933164.497 6     -2251.823          38.000  
G 7  23703835.117 4 124564559.558 4      3142.780          26.000  
G 8  20535536.835 7 107915003.839 7      1973.602          46.000  
G 9  22331472.550 5 117352661.750 5      -863.787          30.000  
G16  20684160.130 7 108695988.028 7     -1462.036          43.000  
G18  24328144.508 5 127845305.048 5     -1848.575          34.000  
G21  24078983.284 5 126535899.133 5      3913.387          34.000  
G26  22469158.590 7 118076237.540 7     -2390.849          42.000  
G27  19697389.475 7 103510490.184 7      -216.386          46.000  
G31  23222685.289 6 122035997.937 6     -3294.755          41.000  
R 7  23408254.247 4 125305600.638 4      1002.386          25.000  
R14  23299366.805 5 124198646.008 5     -2810.373          30.000  
R15  19988933.003 7 106814749.612 7      -842.798          46.000  
R16  20492628.768 7 109467914.405 7      2061.951          46.000  
R17  19791663.605 7 105909180.110 7      -882.927          43.000  
R18  20088685.310 7 107234712.214 7      2973.088          45.000  
R24  23394844.510 4 125102754.695 4     -3926.318          28.000  
E 4  25109637.020 6 131952010.835 6     -1936.678          36.000  
E14  22376875.720 7 117591294.801 7      3137.868          42.000  
E21  26105846.951 6 137187157.174 6     -1760.266          40.000  
E23  23466625.712 7 123317963.919 7      -221.470          43.000  
E26  25221160.629 6 132538116.921 6      1733.041          40.000  
J 2  38940437.699 7 204633379.86627      -115.894          43.000  
J 3  37207666.763 6 195527611.11726       109.650          41.000  
> 2024 11 29  8 39 53.3990000  0 24                     
G 4  22061437.306 6 115933614.866 6     -2252.442          37.000  
G 7  23703715.165 4 124563931.036 4      3143.072          26.000  
G 8  20535461.624 7 107914609.140 7      1973.187          46.000  
G 9  22331502.617 5 117352834.319 5      -862.986          30.000  
G16  20684215.743 7 108696280.441 7     -1462.317          43.000  
G18  24328216.856 5 127845674.796 5     -1849.022          35.000  
G21  24078834.364 5 126535116.430 5      3913.326          34.000  
G26  22469249.436 7 118076715.685 7     -2390.944          42.000  
G27  19697397.641 7 103510533.447 7      -216.713          46.000  
G31  23222810.634 6 122036656.837 6     -3294.607          41.000  
R 7  23408217.706 4               4      1002.386          24.000  
R14  23299471.716 5 124199207.941 5     -2809.092          30.000  
R15  19988964.606 7 106814918.195 7      -843.245          46.000  
R16  20492551.568 7 109467502.012 7      2061.792          46.000  
R17  19791696.516 7 105909356.700 7      -883.391          43.000  
R18  20088573.820 7 107234117.641 7      2972.660          45.000  
R24  23394991.162 4 125103539.840 4     -3925.934          28.000  
E 4  25109710.765 6 131952398.156 6     -1937.128          36.000  
E14  22376756.204 7 117590667.253 7      3137.644          42.000  
E21  26105914.065 6 137187509.240 6     -1760.353          40.000  
E23  23466634.140 7 123318008.221 7      -221.711          43.000  
E26  25221094.650 6 132537770.340 6      1732.709          40.000  
J 2  38940441.992 7 204633403.04427      -116.243          43.000  
J 3  37207662.697 6 195527589.21726       109.426          41.000  
> 2024 11 29  8 39 53.5990000  0 24                     
G 4  22061522.969 6 115934065.261 6     -2252.506          38.000  
G 7  23703595.892 4               4      3142.887          26.000  
G 8  20535386.606 7 107914214.478 7      1972.900          46.000  
G 9  22331536.977 5 117353006.954 5      -862.578          30.000  
G16  20684271.322 7 108696572.878 7     -1462.317          43.000  
G18  24328290.583 5 127846044.587 5     -1849.435          35.000  
G21  24078685.566 5 126534333.780 5      3913.164          34.000  
G26  22469340.404 7 118077193.873 7     -2391.569          42.000  
G27  19697405.808 7 103510576.753 7      -216.679          46.000  
G31  23222936.154 6 122037315.791 6     -3295.158          41.000  
R 7  23408179.543 4               4      1001.731          24.000  
R14  23299576.853 5 124199769.939 5     -2810.373          30.000  
R15  19988996.208 7 106815086.807 7      -843.417          46.000  
R16  20492474.333 7 109467089.648 7      2061.493          46.000  
R17  19791729.549 7 105909533.333 7      -883.547          43.000  
R18  20088462.401 7 107233523.100 7      2972.285          45.000  
R24  23395137.726 4 125104325.042 4     -3925.830          28.000  
E 4  25109784.457 6 131952785.482 6     -1937.314          36.000  
E14  22376636.740 7 117590039.717 7      3137.404          42.000  
E21  26105980.969 6 137187861.335 6     -1760.690          40.000  
E23  23466642.481 7 123318052.549 7      -221.819          43.000  
E26  25221028.618 6 132537423.769 6      1732.637          40.000  
J 2  38940446.354 7 204633426.21827      -116.233          43.000  
J 3  37207658.457 6 195527567.32826       108.969          41.000  
> 2024 11 29  8 39 53.7990000  0 24                     
G 4  22061608.824 6 115934515.705 6     -2252.787          37.000  
G 7  23703476.358 4               4      3140.740          26.000  
G 8  20535311.500 7 107913819.869 7      1972.955          46.000  
G 9  22331570.778 4 117353179.816 4      -866.001          29.000  
G16  20684326.797 7 108696865.361 7     -1462.622          43.000  
G18  24328358.552 5 127846414.391 5     -1849.210          35.000  
G21  24078536.593 5 126533551.174 5      3912.556          34.000  
G26  22469431.424 7 118077672.064 7     -2391.187          42.000  
G27  19697414.010 7 103510620.125 7      -216.897          46.000  
G31  23223061.586 6 122037974.744 6     -3295.028          41.000  
R 7  23408141.658 4               4      1007.727          24.000  
R14  23299682.375 5 124200331.887 5     -2809.985          30.000  
R15  19989027.740 7 106815255.455 7      -843.355          46.000  
R16  20492397.203 7 109466677.323 7      2061.487          46.000  
R17  19791762.600 7 105909710.056 7      -883.969          43.000  
R18  20088351.051 7 107232928.617 7      2972.350          45.000  
R24  23395284.291 4 125105110.370 4     -3926.715          28.000  
E 4  25109858.324 6 131953172.867 6     -1936.999          36.000  
E14  22376517.275 7 117589412.221 7      3137.353          42.000  
E21  26106048.048 6 137188213.439 6     -1760.563          40.000  
E23  23466651.067 7 123318096.914 7      -221.900          43.000  
E26  25220962.743 6 132537077.256 6      1732.592          40.000  
J 2  38940450.856 7 204633449.43027      -116.092          43.000  
J 3  37207654.269 6 195527545.45526       109.445          41.000  
> 2024 11 29  8 39 53.9990000  0 24                     
G 4  22061694.365 6 115934966.160 6     -2251.838          37.000  
G 7  23703355.882 4               4      3143.126          26.000  
G 8  20535236.429 7 107913425.298 7      1973.108          46.000  
G 9  22331602.729 4 117353352.482 4      -863.601          29.000  
G16  20684382.428 7 108697157.867 7     -1462.366          43.000  
G18  24328430.063 6 127846784.266 6     -1849.404          36.000  
G21  24078387.586 5 126532768.490 5      3913.843          34.000  
G26  22469522.514 7 118078150.301 7     -2391.095          42.000  
G27  19697422.368 7 103510663.532 7      -216.758          46.000  
G31  23223187.088 6 122038633.734 6     -3294.626          41.000  
R 7  23408103.861 3               3      1003.267          23.000  
R14  23299787.128 5 124200893.936 5     -2809.744          30.000  
R15  19989059.186 7 106815424.139 7      -843.216          46.000  
R16  20492320.056 7 109466265.018 7      2061.761          46.000  
R17  19791795.598 7 105909886.804 7      -883.653          43.000  
R18  20088239.823 7 107232334.183 7      2972.099          45.000  
R24  23395431.466 4 125105895.666 4     -3926.611          28.000  
E 4  25109932.173 6 131953560.291 6     -1936.776          36.000  
E14  22376397.898 7 117588784.754 7      3137.459          42.000  
E21  26106115.004 6 137188565.589 6     -1760.543          40.000  
E23  23466659.600 7 123318141.300 7      -221.754          43.000  
E26  25220896.607 6 132536730.781 6      1732.546          40.000  
J 2  38940455.254 7 204633472.66127      -115.750          43.000  
J 3  37207650.098 6 195527523.63626       109.275          41.000  
> 2024 11 29  8 39 54.1990000  0 24                     
G 4  22061780.133 6 115935416.692 6     -2252.736          37.000  
G 7  23703235.406 4               4      3142.042          26.000  
G 8  20535161.498 7 107913030.754 7      1972.742          46.000  
G 9  22331633.249 4 117353525.251 4      -864.179          29.000  
G16  20684438.007 7 108697450.402 7     -1462.622          43.000  
G18  24328500.893 6 127847154.149 6     -1849.383          36.000  
G21  24078238.648 5 126531985.915 5      3913.923          34.000  
G26  22469613.430 7 118078628.548 7     -2391.288          42.000  
G27  19697430.640 7 103510706.983 7      -217.482          46.000  
G31  23223312.572 6 122039292.772 6     -3294.932          41.000  
R 7  23408065.767 3               3      1003.267          22.000  
R14  23299891.655 5 124201456.018 5     -2810.592          30.000  
R15  19989090.718 7 106815592.855 7      -843.642          46.000  
R16  20492242.804 7 109465852.744 7      2061.316          46.000  
R17  19791828.597 7 105910063.619 7      -884.115          43.000  
R18  20088128.473 7 107231739.783 7      2971.990          45.000  
R24  23395577.350 4 125106680.983 4     -3926.520          28.000  
E 4  25110005.865 6 131953947.742 6     -1937.392          36.000  
E14  22376278.364 7 117588157.306 7      3137.096          42.000  
E21  26106182.118 6 137188917.737 6     -1760.925          40.000  
E23  23466667.906 7 123318185.704 7      -222.151          43.000  
E26  25220830.680 6 132536384.335 6      1732.068          40.000  
J 2  38940459.756 7 204633495.90327      -116.284          43.000  
J 3  37207645.893 6 195527501.79126       109.314          41.000  
> 2024 11 29  8 39 54.3990000  0 24                     
G 4  22061865.849 6 115935867.196 6     -2252.516          37.000  
G 7  23703114.772 4               4      3141.884          26.000  
G 8  20535086.444 7 107912636.221 7      1972.528          46.000  
G 9  22331664.642 4 117353698.075 4      -864.319          29.000  
G16  20684493.725 7 108697742.922 7     -1462.512          43.000  
G18  24328571.706 6 127847524.053 6     -1849.529          38.000  
G21  24078089.728 5 126531203.332 5      3912.571          34.000  
G26  22469704.450 7 118079106.781 7     -2391.215          42.000  
G27  19697438.964 7 103510750.415 7      -217.104          46.000  
G31  23223438.005 6 122039951.769 6     -3295.051          41.000  
R 7  23408028.337 3               3      1003.267          22.000  
R14  23299996.601 4 124202018.049 4     -2810.205          29.000  
R15  19989122.181 7 106815761.563 7      -843.570          46.000  
R16  20492165.674 7 109465440.451 7      2061.444          46.000  
R17  19791861.665 7 105910240.446 7      -884.240          43.000  
R18  20088017.036 7 107231145.395 7      2971.947          45.000  
R24  23395719.098 4 125107466.283 4     -3925.751          29.000  
E 4  25110079.540 6 131954335.186 6     -1937.135          36.000  
E14  22376159.092 7 117587529.844 7      3137.377          42.000  
E21  26106248.970 6 137189269.878 6     -1760.516          40.000  
E23  23466676.527 7 123318230.081 7      -221.750          43.000  
E26  25220764.771 6 132536037.863 6      1732.435          40.000  
J 2  38940464.241 7 204633519.11027      -115.953          43.000  
J 3  37207641.705 6 195527479.96126       109.425          41.000  
> 2024 11 29  8 39 54.5990000  0 24                     
G 4  22061951.529 6 115936317.741 6     -2252.603          37.000  
G 7  23702994.610 4               4      3143.305          26.000  
G 8  20535011.391 7 107912241.742 7      1972.339          46.000  
G 9  22331696.419 4 117353870.916 4      -864.247          29.000  
G16  20684549.252 7 108698035.495 7     -1462.927          43.000  
G18  24328640.094 6 127847894.027 6     -1849.729          38.000  
G21  24077940.738 5 126530420.756 5      3912.423          34.000  
G26  22469795.540 7 118079585.055 7     -2391.433          42.000  
G27  19697447.095 7 103510793.928 7      -217.302          46.000  
G31  23223563.367 6 122040610.830 6     -3295.456          41.000  
R 7  23407990.906 3               3      1003.267          21.000  
R14  23300100.587 4 124202580.101 4     -2810.457          29.000  
R15  19989153.626 7 106815930.317 7      -843.700          46.000  
R16  20492088.404 7 109465028.195 7      2061.432          46.000  
R17  19791894.785 7 105910417.352 7      -884.653          43.000  
R18  20087905.529 7 107230551.072 7      2971.526          45.000  
R24  23395864.580 4 125108251.708 4     -3927.429          29.000  
E 4  25110153.232 6 131954722.708 6     -1938.017          36.000  
E14  22376039.768 7 117586902.435 7      3136.883          42.000  
E21  26106315.961 6 137189622.043 6     -1760.736          40.000  
E23  23466684.815 7 123318274.516 7      -222.223          43.000  
E26  25220698.826 6 132535691.454 6      1732.069          40.000  
J 2  38940468.690 7 204633542.36527      -116.210          43.000  
J 3  37207637.516 6 195527458.17226       108.805          41.000  
> 2024 11 29  8 39 54.7990000  0 24                     
G 4  22062037.262 6 115936768.354 6     -2252.967          37.000  
G 7  23702874.588 4               4      3142.650          26.000  
G 8  20534936.285 7 107911847.292 7      1972.381          46.000  
G 9  22331730.831 4 117354043.810 4      -864.467          29.000  
G16  20684604.866 7 108698328.076 7     -1462.768          43.000  
G18  24328711.256 6 127848264.027 6     -1849.970          40.000  
G21  24077791.783 5 126529638.130 5      3913.118          34.000  
G26  22469886.421 7 118080063.353 7     -2391.390          42.000  
G27  19697455.402 7 103510837.493 7      -217.783          45.000  
G31  23223688.921 6 122041269.894 6     -3295.325          41.000  
R 7  23407953.876 3               3      1003.267          21.000  
R14  23300205.951 4 124203142.219 4     -2810.743          29.000  
R15  19989185.298 7 106816099.100 7      -843.908          46.000  
R16  20492011.204 7 109464615.962 7      2061.401          46.000  
R17  19791927.766 7 105910594.284 7      -884.543          43.000  
R18  20087794.302 7 107229956.785 7      2971.429          45.000  
R24  23396011.372 4 125109037.111 4     -3926.880          29.000  
E 4  25110227.012 6 131955110.189 6     -1937.717          36.000  
E14  22375920.443 7 117586275.045 7      3137.094          42.000  
E21  26106383.022 6 137189974.228 6     -1760.874          40.000  
E23  23466693.418 7 123318318.958 7      -222.137          43.000  
E26  25220632.864 6 132535345.072 6      1732.227          40.000  
J 2  38940473.070 7 204633565.62527      -116.383          43.000  
J 3  37207633.276 6 195527436.38826       108.943          41.000  
> 2024 11 29  8 39 54.9990000  0 24                     
G 4  22062123.170 6 115937218.953 6     -2253.320          37.000  
G 7  23702754.984 4               4      3141.490          26.000  
G 8  20534861.337 7 107911452.845 7      1971.973          46.000  
G 9  22331763.864 4 117354216.683 4      -864.500          29.000  
G16  20684660.584 7 108698620.670 7     -1463.147          43.000  
G18  24328784.250 6 127848634.022 6     -1850.141          40.000  
G21  24077642.863 5 126528855.541 5      3912.927          35.000  
G26  22469977.459 7 118080541.646 7     -2391.471          42.000  
G27  19697463.603 7 103510881.059 7      -218.200          46.000  
G31  23223814.353 6 122041928.975 6     -3295.576          41.000  
R 7  23407916.446 3               3      1003.267          20.000  
R14  23300311.001 4 124203704.328 4     -2810.510          29.000  
R15  19989216.918 7 106816267.886 7      -844.132          46.000  
R16  20491934.022 7 109464203.741 7      2060.950          46.000  
R17  19791960.974 7 105910771.290 7      -885.128          43.000  
R18  20087682.899 7 107229362.524 7      2971.004          45.000  
R24  23396158.128 4 125109822.551 4     -3927.392          29.000  
E 4  25110300.757 6 131955497.714 6     -1937.549          36.000  
E14  22375800.944 7 117585647.668 7      3136.549          42.000  
E21  26106450.031 6 137190326.405 6     -1760.990          40.000  
E23  23466701.777 7 123318363.412 7      -222.576          43.000  
E26  25220566.937 6 132534998.715 6      1731.532          40.000  
J 2  38940477.555 7 204633588.86727      -116.290          43.000  
J 3  37207629.053 6 195527414.60626       108.467          41.000  
> 2024 11 29  8 39 55.1990000  0 24                     
G 4  22062208.885 6 115937669.585 6     -2253.472          37.000  
G 7  23702635.101 4               4      3143.312          26.000  
G 8  20534786.318 7 107911058.435 7      1971.814          46.000  
G 9  22331797.910 4 117354389.670 4      -865.135          29.000  
G16  20684716.355 7 108698913.273 7     -1463.104          43.000  
G18  24328854.522 6 127849004.050 6     -1850.432          40.000  
G21  24077493.978 5 126528072.959 5      3912.721          35.000  
G26  22470068.497 7 118081019.945 7     -2391.524          42.000  
G27  19697471.857 7 103510924.654 7      -218.343          46.000  
G31  23223939.820 6 122042588.045 6     -3295.696          41.000  
R 7  23407878.753 3               3      1003.267          19.000  
R14  23300416.575 4 124204266.475 4     -2810.866          29.000  
R15  19989248.416 7 106816436.689 7      -844.095          46.000  
R16  20491856.787 7 109463791.524 7      2060.834          46.000  
R17  19791994.164 7 105910948.289 7      -885.344          43.000  
R18  20087571.584 7 107228768.282 7      2970.751          45.000  
R24  23396302.720 4 125110607.974 4     -3927.081          29.000  
E 4  25110374.449 6 131955885.271 6     -1938.074          36.000  
E14  22375681.637 7 117585020.271 7      3136.947          42.000  
E21  26106517.232 6 137190678.581 6     -1760.920          40.000  
E23  23466710.188 7 123318407.839 7      -222.247          43.000  
E26  25220500.923 6 132534652.343 6      1731.675          40.000  
J 2  38940481.988 7 204633612.109 7      -116.403          43.000  
J 3  37207624.952 6 195527392.29916       108.530          41.000  
> 2024 11 29  8 39 55.3990000  0 24                     
G 4  22062294.635 6 115938120.236 6     -2253.309          37.000  
G 7  23702516.788 4               4      3141.227          26.000  
G 8  20534711.160 7 107910664.072 7      1971.814          46.000  
G 9  22331828.570 4 117354562.619 4      -864.833          29.000  
G16  20684772.039 7 108699205.911 7     -1462.982          43.000  
G18  24328926.365 6 127849374.108 6     -1850.357          40.000  
G21  24077344.970 5 126527290.368 5      3913.654          35.000  
G26  22470159.534 7 118081498.280 7     -2391.639          42.000  
G27  19697480.321 7 103510968.294 7      -218.221          46.000  
G31  23224065.288 6 122043247.173 6     -3295.353          41.000  
R 7  23407841.846 3               3      1003.267          19.000  
R14  23300521.381 4 124204828.599 4     -2810.805          29.000  
R15  19989280.018 7 106816605.544 7      -844.314          46.000  
R16  20491779.623 7 109463379.335 7      2061.084          46.000  
R17  19792027.320 7 105911125.374 7      -885.414          43.000  
R18  20087460.095 7 107228174.097 7      2971.089          45.000  
R24  23396448.500 4 125111393.450 4     -3927.575          29.000  
E 4  25110448.159 6 131956272.846 6     -1938.018          36.000  
E14  22375562.155 7 117584392.946 7      3136.637          42.000  
E21  26106584.241 6 137191030.803 6     -1760.898          40.000  
E23  23466718.651 7 123318452.326 7      -222.218          43.000  
E26  25220435.049 6 132534306.031 6      1731.775          40.000  
J 2  38940486.315 7 204633635.382 7      -116.226          43.000  
J 3  37207620.886 6 195527370.553 6       108.834          41.000  
> 2024 11 29  8 39 55.5990000  0 23                     
G 4  22062380.456 6 115938570.905 6     -2252.810          37.000  
G 7  23702397.569 4               4      3142.068          26.000  
G 8  20534636.211 7 107910269.707 7      1971.997          46.000  
G 9  22331861.446 4 117354735.637 4      -865.205          29.000  
G16  20684827.757 7 108699498.555 7     -1462.988          43.000  
G18  24328997.614 6 127849744.190 6     -1850.292          40.000  
G21  24077196.085 5 126526507.841 5      3913.132          35.000  
G26  22470250.625 7 118081976.613 7     -2391.708          42.000  
G27  19697488.609 7 103511011.957 7      -218.335          46.000  
G31  23224190.772 6 122043906.310 6     -3295.512          41.000  
R14  23300626.484 4 124205390.750 4     -2811.031          29.000  
R15  19989311.481 7 106816774.378 7      -844.034          46.000  
R16  20491702.248 7 109462967.145 7      2061.163          46.000  
R17  19792060.370 7 105911302.477 7      -885.416          43.000  
R18  20087348.728 7 107227579.927 7      2971.022          45.000  
R24  23396591.155 4 125112178.911 4     -3927.319          29.000  
E 4  25110521.956 6 131956660.422 6     -1937.839          36.000  
E14  22375442.883 7 117583765.579 7      3137.008          42.000  
E21  26106651.372 6 137191383.030 6     -1761.090          40.000  
E23  23466727.254 7 123318496.794 7      -222.168          43.000  
E26  25220369.069 6 132533959.724 6      1731.637          40.000  
J 2  38940490.765 7 204633658.630 7      -116.000          43.000  
J 3  37207616.716 6 195527348.788 6       108.788          41.000  
> 2024 11 29  8 39 55.7990000  0 23                     
G 4  22062466.363 6 115939021.594 6     -2253.582          37.000  
G 7  23702276.464 4               4      3141.615          26.000  
G 8  20534561.123 7 107909875.351 7      1971.692          46.000  
G 9  22331895.282 4 117354908.661 4      -865.332          29.000  
G16  20684883.336 7 108699791.184 7     -1463.245          43.000  
G18  24329066.542 6 127850114.261 6     -1850.628          38.000  
G21  24077047.025 5 126525725.254 5      3912.935          34.000  
G26  22470341.715 7 118082454.924 7     -2391.730          42.000  
G27  19697497.090 7 103511055.612 7      -218.374          46.000  
G31  23224316.152 6 122044565.415 6     -3295.699          41.000  
R14  23300730.714 4 124205952.880 4     -2810.546          29.000  
R15  19989343.101 7 106816943.223 7      -844.152          46.000  
R16  20491624.891 7 109462554.937 7      2061.035          46.000  
R17  19792093.351 7 105911479.591 7      -885.666          43.000  
R18  20087237.325 7 107226985.780 7      2970.690          45.000  
R24  23396740.040 4 125112964.377 4     -3927.374          29.000  
E 4  25110595.787 6 131957048.012 6     -1937.861          36.000  
E14  22375323.576 7 117583138.218 7      3136.733          42.000  
E21  26106718.433 6 137191735.189 6     -1761.000          40.000  
E23  23466735.753 7 123318541.256 7      -222.206          43.000  
E26  25220303.055 6 132533613.401 6      1731.877          40.000  
J 2  38940495.110 7 204633681.867 7      -116.085          43.000  
J 3  37207612.563 6 195527326.997 6       109.013          41.000  
> 2024 11 29  8 39 55.9990000  0 23                     
G 4  22062552.148 6 115939472.257 6     -2253.751          37.000  
G 7  23702156.075 4               4      3139.830          26.000  
G 8  20534486.087 7 107909480.990 7      1971.655          46.000  
G 9  22331927.286 4 117355081.624 4      -864.922          29.000  
G16  20684939.090 7 108700083.805 7     -1463.293          43.000  
G18  24329136.832 6 127850484.346 6     -1850.643          38.000  
G21  24076898.018 5 126524942.651 5      3912.362          34.000  
G26  22470432.648 6 118082933.224 6     -2391.562          41.000  
G27  19697505.362 7 103511099.277 7      -218.572          46.000  
G31  23224441.532 6 122045224.519 6     -3295.737          41.000  
R14  23300835.642 4 124206515.014 4     -2810.761          29.000  
R15  19989374.546 7 106817112.063 7      -844.290          46.000  
R16  20491547.761 7 109462142.725 7      2060.828          46.000  
R17  19792126.559 7 105911656.731 7      -886.183          43.000  
R18  20087126.063 7 107226391.629 7      2970.560          45.000  
R24  23396884.842 4 125113749.843 4     -3927.411          29.000  
E 4  25110669.672 6 131957435.590 6     -1938.362          36.000  
E14  22375204.269 7 117582510.833 7      3136.785          42.000  
E21  26106785.494 6 137192087.350 6     -1760.730          40.000  
E23  23466744.443 7 123318585.694 7      -222.350          43.000  
E26  25220237.093 6 132533267.094 6      1731.439          40.000  
J 2  38940499.577 7 204633705.079 7      -116.266          43.000  
J 3  37207608.462 6 195527305.191 6       108.918          41.000  
> 2024 11 29  8 39 56.1990000  0 23                     
G 4  22062637.846 6 115939922.962 6     -2253.256          37.000  
G 7  23702036.332 4               4      3141.103          26.000  
G 8  20534411.104 7 107909086.685 7      1971.545          46.000  
G 9  22331961.244 4 117355254.706 4      -865.441          29.000  
G16  20684994.791 7 108700376.463 7     -1463.361          43.000  
G18  24329208.168 6 127850854.494 6     -1850.636          38.000  
G21  24076749.132 5 126524160.044 5      3912.998          34.000  
G26  22470523.720 6 118083411.568 6     -2391.719          41.000  
G27  19697513.598 7 103511142.998 7      -218.497          46.000  
G31  23224566.981 6 122045883.642 6     -3295.390          41.000  
R14  23300941.076 4 124207077.171 4     -2810.939          28.000  
R15  19989406.236 7 106817280.955 7      -844.534          45.000  
R16  20491470.579 7 109461730.545 7      2060.913          46.000  
R17  19792159.749 7 105911833.926 7      -885.975          43.000  
R18  20087014.696 7 107225797.533 7      2970.471          45.000  
R24  23397033.902 4 125114535.397 4     -3927.869          29.000  
E 4  25110743.434 6 131957823.152 6     -1937.799          36.000  
E14  22375084.839 7 117581883.497 7      3136.867          42.000  
E21  26106852.485 6 137192439.573 6     -1761.229          40.000  
E23  23466752.802 7 123318630.178 7      -222.310          43.000  
E26  25220171.149 6 132532920.818 6      1731.371          40.000  
J 2  38940504.010 7 204633728.317 7      -116.102          43.000  
J 3  37207604.344 6 195527283.438 6       108.960          41.000  
> 2024 11 29  8 39 56.3990000  0 23                     
G 4  22062723.719 6 115940373.713 6     -2253.873          37.000  
G 7  23701917.496 4               4      3140.415          26.000  
G 8  20534336.155 7 107908692.393 7      1971.332          46.000  
G 9  22331998.692 4 117355427.794 4      -865.633          29.000  
G16  20685050.475 7 108700669.122 7     -1463.464          43.000  
G18  24329278.266 6 127851224.666 6     -1851.034          38.000  
G21  24076600.195 5 126523377.471 5      3912.728          34.000  
G26  22470614.741 6 118083889.905 6     -2392.001          41.000  
G27  19697521.939 7 103511186.745 7      -218.973          46.000  
G31  23224692.379 6 122046542.807 6     -3296.245          41.000  
R14  23301047.087 4 124207639.361 4     -2810.901          28.000  
R15  19989437.716 7 106817449.846 7      -844.771          45.000  
R16  20491393.449 7 109461318.362 7      2060.663          46.000  
R17  19792192.992 7 105912011.150 7      -886.322          43.000  
R18  20086903.416 7 107225203.464 7      2970.157          45.000  
R24  23397180.519 4 125115320.931 4     -3927.618          29.000  
E 4  25110817.248 6 131958210.810 6     -1938.316          36.000  
E14  22374965.358 7 117581256.170 7      3136.411          42.000  
E21  26106919.459 6 137192791.752 6     -1761.055          40.000  
E23  23466761.195 7 123318674.653 7      -222.530          43.000  
E26  25220105.170 6 132532574.554 6      1731.079          40.000  
J 2  38940508.425 7 204633751.541 7      -116.295          43.000  
J 3  37207600.156 6 195527261.681 6       108.513          41.000  
> 2024 11 29  8 39 56.5990000  0 23                     
G 4  22062809.556 6 115940824.484 6     -2253.758          37.000  
G 7  23701798.590 4               4      3141.283          26.000  
G 8  20534261.241 7 107908298.132 7      1971.472          46.000  
G 9  22332027.537 4 117355600.911 4      -865.431          29.000  
G16  20685106.176 7 108700961.813 7     -1463.361          43.000  
G18  24329349.183 6 127851594.840 6     -1850.231          37.000  
G21  24076451.170 5 126522594.866 5      3913.615          34.000  
G26  22470705.604 6 118084368.258 6     -2391.718          41.000  
G27  19697530.315 7 103511230.521 7      -218.849          46.000  
G31  23224817.811 6 122047201.968 6     -3295.746          41.000  
R14  23301152.154 4 124208201.536 4     -2811.025          28.000  
R15  19989469.283 7 106817618.769 7      -844.599          45.000  
R16  20491316.162 7 109460906.206 7      2060.901          46.000  
R17  19792226.200 7 105912188.437 7      -886.152          43.000  
R18  20086791.996 7 107224609.442 7      2970.110          45.000  
R24  23397325.792 4 125116106.404 4     -3927.289          29.000  
E 4  25110890.993 6 131958598.464 6     -1938.156          36.000  
E14  22374846.016 7 117580628.856 7      3136.696          42.000  
E21  26106986.538 6 137193143.969 6     -1760.894          40.000  
E23  23466769.606 7 123318719.155 7      -222.432          43.000  
E26  25220039.243 6 132532228.313 6      1731.405          40.000  
J 2  38940512.909 7 204633774.782 7      -115.897          43.000  
J 3  37207595.950 6 195527239.924 6       108.768          41.000  
> 2024 11 29  8 39 56.7990000  0 23                     
G 4  22062895.359 6 115941275.262 6     -2254.131          37.000  
G 7  23701678.480 4               4      3140.775          26.000  
G 8  20534186.380 7 107907903.901 7      1971.130          46.000  
G 9  22332059.611 4 117355774.053 4      -865.939          29.000  
G16  20685161.877 7 108701254.517 7     -1463.519          43.000  
G18  24329420.450 6 127851965.094 6     -1851.450          37.000  
G21  24076302.424 5 126521812.323 5      3912.981          35.000  
G26  22470796.712 6 118084846.632 6     -2391.964          41.000  
G27  19697538.674 7 103511274.324 7      -218.982          46.000  
G31  23224943.191 6 122047861.139 6     -3295.566          41.000  
R14  23301257.152 4 124208763.781 4     -2811.372          28.000  
R15  19989500.868 7 106817787.709 7      -844.616          45.000  
R16  20491238.945 7 109460494.065 7      2060.559          46.000  
R17  19792259.408 7 105912365.749 7      -886.611          43.000  
R18  20086680.786 7 107224015.450 7      2969.822          45.000  
R24  23397469.215 4 125116892.033 4     -3928.528          29.000  
E 4  25110964.668 6 131958986.143 6     -1938.590          36.000  
E14  22374726.621 7 117580001.556 7      3136.375          42.000  
E21  26107053.494 6 137193496.181 6     -1761.055          40.000  
E23  23466778.000 7 123318763.654 7      -222.636          43.000  
E26  25219973.316 6 132531882.105 6      1730.978          40.000  
J 2  38940517.254 7 204633798.032 7      -116.208          43.000  
J 3  37207591.675 6 195527218.190 6       108.466          41.000  
> 2024 11 29  8 39 56.9990000  0 23                     
G 4  22062981.092 6 115941726.066 6     -2254.326          37.000  
G 7  23701558.963 4               4      3140.824          26.000  
G 8  20534111.448 7 107907509.699 7      1970.935          46.000  
G 9  22332090.497 4 117355947.211 4      -865.840          29.000  
G16  20685217.560 7 108701547.243 7     -1463.776          43.000  
G18  24329490.059 6 127852335.344 6     -1851.563          37.000  
G21  24076153.574 5 126521029.795 5      3912.573          35.000  
G26  22470887.767 6 118085325.003 6     -2391.923          41.000  
G27  19697547.120 7 103511318.171 7      -219.310          46.000  
G31  23225068.658 6 122048520.358 6     -3296.187          41.000  
R14  23301362.203 4 124209325.938 4     -2810.513          28.000  
R15  19989532.436 7 106817956.678 7      -845.069          45.000  
R16  20491161.745 7 109460081.926 7      2060.455          46.000  
R17  19792292.598 7 105912543.110 7      -886.868          43.000  
R18  20086569.506 7 107223421.487 7      2969.676          45.000  
R24  23397616.024 4 125117677.575 4     -3927.612          29.000  
E 4  25111038.325 6 131959373.812 6     -1938.567          36.000  
E14  22374607.157 7 117579374.281 7      3136.302          42.000  
E21  26107120.503 6 137193848.402 6     -1761.099          40.000  
E23  23466786.411 7 123318808.171 7      -222.637          43.000  
E26  25219907.424 6 132531535.904 6      1730.931          40.000  
J 2  38940521.652 7 204633821.282 7      -116.454          43.000  
J 3  37207587.574 6 195527196.443 6       108.639          41.000  
> 2024 11 29  8 39 57.1990000  0 23                     
G 4  22063067.000 6 115942176.911 6     -2254.008          37.000  
G 7  23701439.534 4               4      3140.102          26.000  
G 8  20534036.343 7 107907115.540 7      1970.807          46.000  
G 9  22332126.462 4 117356120.472 4      -866.261          29.000  
G16  20685273.296 7 108701839.992 7     -1463.739          43.000  
G18  24329560.017 6 127852705.617 6     -1851.365          37.000  
G21  24076004.654 5 126520247.231 5      3912.498          35.000  
G26  22470978.683 6 118085803.415 6     -2392.036          41.000  
G27  19697555.461 7 103511362.061 7      -219.406          46.000  
G31  23225194.055 6 122049179.572 6     -3296.032          41.000  
R14  23301467.113 4 124209888.250 4     -2811.402          28.000  
R15  19989564.021 7 106818125.675 7      -844.891          45.000  
R16  20491084.650 7 109459669.816 7      2060.645          46.000  
R17  19792325.753 7 105912720.535 7      -887.074          43.000  
R18  20086458.103 7 107222827.571 7      2969.864          45.000  
R24  23397762.641 4 125118463.203 4     -3928.052          29.000  
E 4  25111112.157 6 131959761.531 6     -1938.379          36.000  
E14  22374487.675 7 117578747.032 7      3136.205          42.000  
E21  26107187.582 6 137194200.664 6     -1761.196          40.000  
E23  23466794.822 7 123318852.715 7      -222.533          43.000  
E26  25219841.689 6 132531189.765 6      1730.783          40.000  
J 2  38940526.084 7 204633844.554 7      -116.356          43.000  
J 3  37207583.491 6 195527174.745 6       108.497          41.000  
> 2024 11 29  8 39 57.3990000  0 24                     
G 4  22063152.855 6 115942627.816 6     -2254.450          37.000  
G 7  23701320.227 4               4      3140.366          26.000  
G 8  20533961.377 7 107906721.428 7      1970.215          46.000  
G 9  22332159.269 4 117356293.711 4      -866.318          29.000  
G16  20685328.928 7 108702132.787 7     -1464.221          43.000  
G18  24329629.818 6 127853075.980 6     -1852.153          37.000  
G21  24075855.803 5 126519464.708 5      3912.704          34.000  
G26  22471069.685 6 118086281.856 6     -2392.500          41.000  
G27  19697563.802 7 103511406.020 7      -220.141          46.000  
G31  23225319.400 6 122049838.855 6     -3296.745          41.000  
R 7  23407467.905 2               2      1001.000          17.000  
R14  23301572.582 4 124210450.540 4     -2811.666          28.000  
R15  19989595.762 7 106818294.729 7      -845.583          45.000  
R16  20491007.520 7 109459257.759 7      2059.967          46.000  
R17  19792358.874 7 105912898.031 7      -887.906          43.000  
R18  20086346.597 7 107222233.732 7      2968.893          45.000  
R24  23397907.809 4 125119248.899 4     -3928.381          29.000  
E 4  25111185.954 6 131960149.317 6     -1939.245          36.000  
E14  22374368.351 7 117578119.826 7      3135.744          42.000  
E21  26107254.573 6 137194552.948 6     -1761.750          40.000  
E23  23466803.268 7 123318897.301 7      -223.238          43.000  
E26  25219775.867 6 132530843.639 6      1730.438          40.000  
J 2  38940530.569 7 204633867.844 7      -116.741          43.000  
J 3  37207579.425 6 195527153.072 6       108.190          41.000  
> 2024 11 29  8 39 57.5990000  0 24                     
G 4  22063238.622 6 115943078.719 6     -2254.627          37.000  
G 7  23701200.990 4               4      3141.994          26.000  
G 8  20533886.271 7 107906327.293 7      1970.691          46.000  
G 9  22332193.000 4 117356467.069 4      -867.148          29.000  
G16  20685384.472 7 108702425.546 7     -1463.788          44.000  
G18  24329701.643 6 127853446.288 6     -1851.689          36.000  
G21  24075706.918 5 126518682.166 5      3913.066          34.000  
G26  22471160.671 6 118086760.275 6     -2392.155          41.000  
G27  19697572.109 7 103511449.943 7      -220.007          46.000  
G31  23225444.762 6 122050498.100 6     -3296.433          41.000  
R 7  23407430.649 3               3       998.202          18.000  
R14  23301677.755 4 124211012.842 4     -2811.345          28.000  
R15  19989627.522 7 106818463.753 7      -845.082          45.000  
R16  20490930.373 7 109458845.653 7      2060.333          46.000  
R17  19792391.924 7 105913075.497 7      -887.437          43.000  
R18  20086235.404 7 107221639.867 7      2969.186          45.000  
R24  23398052.070 4 125120034.511 4     -3927.808          28.000  
E 4  25111259.611 6 131960537.042 6     -1938.480          36.000  
E14  22374248.922 7 117577492.582 7      3136.369          42.000  
E21  26107321.652 6 137194905.189 6     -1761.046          40.000  
E23  23466811.766 7 123318941.839 7      -222.537          43.000  
E26  25219709.765 6 132530497.515 6      1730.727          40.000  
J 2  38940534.897 7 204633891.095 7      -116.375          43.000  
J 3  37207575.237 6 195527131.359 6       108.558          41.000  
> 2024 11 29  8 39 57.7990000  0 24                     
G 4  22063324.443 6 115943529.605 6     -2254.393          38.000  
G 7  23701081.159 4               4      3140.475          26.000  
G 8  20533811.357 7 107905933.216 7      1970.288          46.000  
G 9  22332226.295 4 117356640.288 4      -865.572          29.000  
G16  20685440.208 7 108702718.351 7     -1464.038          44.000  
G18  24329773.067 6 127853816.672 6     -1852.001          36.000  
G21  24075558.085 5 126517899.651 5      3912.312          35.000  
G26  22471251.726 6 118087238.710 6     -2392.213          41.000  
G27  19697580.485 7 103511493.904 7      -219.618          46.000  
G31  23225570.125 6 122051157.355 6     -3296.227          41.000  
R 7  23407394.894 3               3       996.178          19.000  
R14  23301783.538 4 124211575.070 4     -2811.108          28.000  
R15  19989659.107 7 106818632.818 7      -845.382          45.000  
R16  20490853.051 7 109458433.582 7      2060.455          46.000  
R17  19792424.888 7 105913253.054 7      -887.845          43.000  
R18  20086124.246 7 107221046.054 7      2968.998          45.000  
R24  23398192.893 4 125120820.210 4     -3928.790          28.000  
E 4  25111333.513 6 131960924.848 6     -1938.950          36.000  
E14  22374129.562 7 117576865.376 7      3136.066          42.000  
E21  26107388.783 6 137195257.463 6     -1761.354          40.000  
E23  23466820.142 7 123318986.413 7      -222.709          43.000  
E26  25219644.013 6 132530151.422 6      1730.472          40.000  
J 2  38940539.591 7 204633914.374 7      -116.474          43.000  
J 3  37207571.101 6 195527109.693 6       108.201          41.000  
> 2024 11 29  8 39 57.9990000  0 24                     
G 4  22063410.263 6 115943980.534 6     -2254.118          38.000  
G 7  23700961.224 4               4      3140.557          26.000  
G 8  20533736.304 7 107905539.139 7      1970.398          46.000  
G 9  22332259.677 4 117356813.706 4      -867.114          29.000  
G16  20685495.926 7 108703011.149 7     -1464.001          44.000  
G18  24329842.623 6 127854187.040 6     -1851.859          36.000  
G21  24075409.130 5 126517117.072 5      3913.390          35.000  
G26  22471342.764 6 118087717.133 6     -2391.908          41.000  
G27  19697588.809 7 103511537.908 7      -219.991          46.000  
G31  23225695.592 6 122051816.627 6     -3296.240          41.000  
R 7  23407358.196 3               3      1005.220          20.000  
R14  23301888.536 4 124212137.455 4     -2811.879          28.000  
R15  19989690.709 7 106818801.886 7      -845.307          45.000  
R16  20490775.851 7 109458021.509 7      2060.297          46.000  
R17  19792458.131 7 105913430.614 7      -888.006          43.000  
R18  20086013.105 7 107220452.250 7      2969.098          45.000  
R24  23398335.444 4 125121605.887 4     -3928.308          28.000  
E 4  25111407.327 6 131961312.639 6     -1939.074          36.000  
E14  22374010.203 7 117576238.146 7      3136.173          42.000  
E21  26107455.862 6 137195609.715 6     -1761.194          40.000  
E23  23466828.518 7 123319030.989 7      -222.899          43.000  
E26  25219578.138 6 132529805.337 6      1730.451          40.000  
J 2  38940544.006 7 204633937.619 7      -116.177          43.000  
J 3  37207566.965 6 195527087.995 6       108.302          41.000  
> 2024 11 29  8 39 58.1990000  0 24                     
G 4  22063495.996 6 115944431.527 6     -2255.312          38.000  
G 7  23700841.847 4               4      3142.183          26.000  
G 8  20533661.320 7 107905145.108 7      1969.824          46.000  
G 9  22332291.978 5 117356987.055 5      -867.589          30.000  
G16  20685551.645 7 108703303.979 7     -1464.441          44.000  
G18  24329913.471 6 127854557.467 6     -1852.238          36.000  
G21  24075260.175 5 126516334.606 5      3912.472          34.000  
G26  22471433.802 6 118088195.601 6     -2392.295          41.000  
G27  19697597.167 7 103511581.956 7      -220.533          46.000  
G31  23225821.059 6 122052475.943 6     -3296.860          40.000  
R 7  23407321.864 3               3       999.189          22.000  
R14  23301994.249 4 124212699.670 4     -2811.200          27.000  
R15  19989722.468 7 106818970.982 7      -845.775          45.000  
R16  20490698.791 7 109457609.464 7      2060.107          46.000  
R17  19792491.356 7 105913608.229 7      -888.337          43.000  
R18  20085901.860 7 107219858.510 7      2968.559          45.000  
R24  23398479.705 4 125122391.584 4     -3928.546          28.000  
E 4  25111481.142 6 131961700.435 6     -1939.291          36.000  
E14  22373890.895 7 117575610.967 7      3135.667          42.000  
E21  26107522.818 6 137195962.012 6     -1761.539          40.000  
E23  23466837.069 7 123319075.590 7      -223.299          43.000  
E26  25219512.246 6 132529459.287 6      1729.907          40.000  
J 2  38940548.403 7 204633960.905 7      -116.560          43.000  
J 3  37207562.760 6 195527066.329 6       108.145          41.000  
> 2024 11 29  8 39 58.3990000  0 24                     
G 4  22063581.833 6 115944882.487 6     -2255.246          38.000  
G 7  23700722.871 4               4      3141.545          26.000  
G 8  20533586.319 7 107904751.073 7      1970.050          46.000  
G 9  22332323.946 5 117357160.448 5      -867.661          30.000  
G16  20685607.416 7 108703596.791 7     -1464.032          44.000  
G18  24329983.796 6 127854927.880 6     -1851.902          36.000  
G21  24075111.272 5 126515552.071 5      3912.063          34.000  
G26  22471524.857 6 118088674.062 6     -2392.369          41.000  
G27  19697605.596 7 103511625.985 7      -220.336          46.000  
G31  23225946.491 6 122053135.224 6     -3296.430          41.000  
R 7  23407284.887 3               3       999.335          23.000  
R14  23302099.823 4 124213262.026 4     -2811.885          27.000  
R15  19989754.158 7 106819140.074 7      -845.378          45.000  
R16  20490621.556 7 109457197.405 7      2060.303          46.000  
R17  19792524.598 7 105913785.882 7      -888.270          43.000  
R18  20085790.650 7 107219264.762 7      2968.613          45.000  
R24  23398627.438 4 125123177.334 4     -3928.827          28.000  
E 4  25111555.148 6 131962088.237 6     -1938.660          36.000  
E14  22373771.710 7 117574983.751 7      3136.174          42.000  
E21  26107589.984 6 137196314.282 6     -1761.449          40.000  
E23  23466845.532 7 123319120.157 7      -222.877          43.000  
E26  25219446.372 6 132529113.212 6      1730.407          40.000  
J 2  38940552.783 7 204633984.166 7      -116.504          43.000  
J 3  37207558.554 6 195527044.643 6       108.431          41.000  
> 2024 11 29  8 39 58.5990000  0 24                     
G 4  22063667.706 6 115945333.444 6     -2255.032          38.000  
G 7  23700602.849 4               4      3141.555          26.000  
G 8  20533511.231 7 107904357.036 7      1969.965          46.000  
G 9  22332359.056 5 117357333.810 5      -867.612          30.000  
G16  20685663.169 7 108703889.599 7     -1464.166          44.000  
G18  24330054.102 6 127855298.322 6     -1852.446          36.000  
G21  24074962.387 5 126514769.462 5      3912.942          34.000  
G26  22471615.825 6 118089152.498 6     -2392.529          41.000  
G27  19697613.937 7 103511670.031 7      -220.437          46.000  
G31  23226071.940 6 122053794.499 6     -3296.542          41.000  
R 7  23407247.666 4               4       997.736          24.000  
R14  23302204.839 4 124213824.351 4     -2811.417          27.000  
R15  19989785.726 7 106819309.175 7      -845.640          45.000  
R16  20490544.426 7 109456785.332 7      2060.162          46.000  
R17  19792557.597 7 105913963.542 7      -888.668          43.000  
R18  20085679.335 7 107218671.029 7      2968.350          45.000  
R24  23398772.083 4 125123963.013 4     -3928.461          28.000  
E 4  25111628.928 6 131962476.050 6     -1939.081          36.000  
E14  22373652.334 7 117574356.550 7      3135.823          42.000  
E21  26107656.888 6 137196666.533 6     -1761.508          40.000  
E23  23466854.013 7 123319164.715 7      -222.854          43.000  
E26  25219380.584 6 132528767.150 6      1730.270          40.000  
J 2  38940557.076 7 204634007.384 7      -116.336          43.000  
J 3  37207554.471 6 195527022.931 6       108.436          41.000  
> 2024 11 29  8 39 58.7990000  0 24                     
G 4  22063753.439 6 115945784.423 6     -2254.415          38.000  
G 7  23700483.332 4               4      3140.497          26.000  
G 8  20533436.212 7 107903963.038 7      1970.087          46.000  
G 9  22332388.722 5 117357507.241 5      -867.856          30.000  
G16  20685718.835 7 108704182.437 7     -1463.929          44.000  
G18  24330125.090 6 127855668.788 6     -1852.337          36.000  
G21  24074813.467 5 126513986.946 5      3913.041          35.000  
G26  22471706.863 6 118089630.956 6     -2392.197          41.000  
G27  19697622.313 7 103511714.127 7      -220.296          46.000  
G31  23226197.373 6 122054453.798 6     -3296.022          41.000  
R 7  23407211.056 4               4       998.114          24.000  
R14  23302310.639 4 124214386.691 4     -2811.831          27.000  
R15  19989817.293 7 106819478.305 7      -845.661          45.000  
R16  20490467.209 7 109456373.289 7      2060.395          46.000  
R17  19792590.839 7 105914141.248 7      -888.451          43.000  
R18  20085568.107 7 107218077.337 7      2968.550          45.000  
R24  23398917.269 4 125124748.734 4     -3928.638          28.000  
E 4  25111702.742 6 131962863.902 6     -1939.120          36.000  
E14  22373533.009 7 117573729.360 7      3136.000          42.000  
E21  26107723.827 6 137197018.809 6     -1761.524          40.000  
E23  23466862.494 7 123319209.316 7      -222.796          43.000  
E26  25219314.797 6 132528421.141 6      1730.149          40.000  
J 2  38940561.543 7 204634030.639 7      -116.216          43.000  
J 3  37207550.475 6 195527001.255 6       108.644          41.000  
> 2024 11 29  8 39 58.9990000  0 24                     
G 4  22063839.364 6 115946235.447 6     -2255.144          38.000  
G 7  23700364.060 4               4      3140.850          26.000  
G 8  20533361.211 7 107903569.055 7      1969.745          46.000  
G 9  22332425.873 5 117357680.648 5      -867.695          30.000  
G16  20685774.589 7 108704475.268 7     -1464.173          44.000  
G18  24330195.798 6 127856039.237 6     -1852.472          36.000  
G21  24074664.460 5 126513204.397 5      3912.535          35.000  
G26  22471797.918 6 118090109.402 6     -2392.181          41.000  
G27  19697630.741 7 103511758.230 7      -220.577          46.000  
G31  23226322.892 6 122055113.124 6     -3296.818          41.000  
R 7  23407174.515 4               4       997.961          25.000  
R14  23302416.108 4 124214949.003 4     -2811.905          27.000  
R15  19989848.826 7 106819647.417 7      -845.732          45.000  
R16  20490390.184 7 109455961.234 7      2060.266          46.000  
R17  19792624.100 7 105914318.988 7      -888.740          43.000  
R18  20085456.950 7 107217483.652 7      2968.258          45.000  
R24  23399059.139 4 125125534.446 4     -3928.668          27.000  
E 4  25111776.644 6 131963251.769 6     -1939.683          36.000  
E14  22373413.615 7 117573102.170 7      3135.806          42.000  
E21  26107790.784 6 137197371.048 6     -1761.063          40.000  
E23  23466870.905 7 123319253.882 7      -222.848          43.000  
E26  25219248.923 6 132528075.107 6      1729.886          40.000  
J 2  38940566.080 7 204634053.855 7      -116.086          43.000  
J 3  37207546.357 6 195526979.564 6       108.400          41.000  
