     3.03           OBSERVATION DATA    M: Mixed            RINEX VERSION / TYPE
Emlid RGL 1.2.7                         20241128 130253 UTC PGM / RUN BY / DATE 
format: u-blox                                              COMMENT             
                                                            MARKER NAME         
                                                            MARKER NUMBER       
                                                            MARKER TYPE         
                                                            OBSERVER / AGENCY   
                    EMLID REACH M+                          REC # / TYPE / VERS 
                                                            ANT # / TYPE        
 -3035464.5841  4047984.4498  3870400.7284                  APPROX POSITION XYZ 
        0.0000        0.0000        0.0000                  ANTENNA: DELTA H/E/N
G    4 C1C L1C D1C S1C                                      SYS / # / OBS TYPES 
R    4 C1C L1C D1C S1C                                      SYS / # / OBS TYPES 
E    4 C1C L1C D1C S1C                                      SYS / # / OBS TYPES 
J    4 C1C L1C D1C S1C                                      SYS / # / OBS TYPES 
C    4 C1I L1I D1I S1I                                      SYS / # / OBS TYPES 
  2024    11    28    12    59   56.1970000     GPS         TIME OF FIRST OBS   
  2024    11    28    13     3   11.5970000     GPS         TIME OF LAST OBS    
G                                                           SYS / PHASE SHIFT   
R                                                           SYS / PHASE SHIFT   
E                                                           SYS / PHASE SHIFT   
J                                                           SYS / PHASE SHIFT   
C                                                           SYS / PHASE SHIFT   
  0                                                         GLONASS SLOT / FRQ #
 C1C    0.000 C1P    0.000 C2C    0.000 C2P    0.000        GLONASS COD/PHS/BIS 
                                                            END OF HEADER       
> 2024 11 28 12 59 56.1970000  0 22                     
G 2  20249884.972 7 106413855.240 7     -1803.579          45.000  
G 3  21035608.213 5 110542896.509 5      2895.697          31.000  
G 7  23007680.843 5 120906242.689 5     -3126.233          31.000  
G 8  22639932.581 5 118973436.40615     -2514.938          31.000  
G14  19669564.335 7 103364304.608 7      1672.597          44.000  
G17  21331572.387 7 112098131.392 7      1829.197          44.000  
G19  23767462.922 5 124898929.782 5      2795.154          32.000  
G21  21320903.289 7 112042105.306 7     -2907.414          45.000  
G22  21496404.090 7 112964370.081 7      2537.020          42.000  
G30  22033006.330 5 115784229.32625     -2327.597          31.000  
R 2  22932293.516 6 122371148.239 6       -49.628          38.000  
R 3  22506773.870 4 120480632.345 4      2544.621          26.000  
R 9  18770332.156 7 100232471.577 7      1158.710          45.000  
R10  21733218.296 4 115850221.37214      3783.611          28.000  
R16  19437802.508 4 103833187.27224     -3144.843          29.000  
R18  20265943.051 7 108180922.451 7     -2725.748          45.000  
R19  18798326.136 5 100558367.49115      -600.013          34.000  
E11  24936146.414 6 131040327.097 6     -2433.322          39.000  
E25  24172584.112 6 127027801.511 6     -2178.165          36.000  
E30  25284917.983 6 132873133.949 6      2452.806          40.000  
J 2  36902556.023 7 193924241.30127       732.626          42.000  
J 3  37431330.741 7 196702969.12917      -544.200          45.000  
> 2024 11 28 12 59 56.3970000  0 22                     
G 2  20249953.603 7 106414215.979 7     -1803.744          45.000  
G 3  21035497.840 5 110542317.381 5      2895.853          31.000  
G 7  23007799.626 5 120906867.847 5     -3125.659          31.000  
G 8  22640027.248 5 118973939.521 5     -2516.212          31.000  
G14  19669500.554 7 103363970.166 7      1672.001          44.000  
G17  21331502.743 7 112097765.593 7      1828.817          44.000  
G19  23767357.627 5 124898370.910 5      2794.816          32.000  
G21  21321013.853 7 112042686.814 7     -2907.719          45.000  
G22  21496307.677 7 112963862.797 7      2536.265          42.000  
G30  22033094.924 5 115784694.85725     -2327.427          31.000  
R 2  22932295.488 6 122371158.179 6       -49.774          38.000  
R 3  22506676.236 4 120480123.588 4      2543.558          26.000  
R 9  18770288.844 7 100232239.877 7      1158.134          45.000  
R10  21733076.373 4 115849464.768 4      3783.142          28.000  
R16  19437923.054 4 103833816.24924     -3145.155          29.000  
R18  20266045.100 7 108181467.641 7     -2726.103          45.000  
R19  18798348.612 5 100558487.538 5      -600.339          34.000  
E11  24936238.831 6 131040813.813 6     -2433.728          40.000  
E25  24172667.001 6 127028237.142 6     -2178.420          36.000  
E30  25284824.747 6 132872643.446 6      2452.261          40.000  
J 2  36902528.068 7 193924094.85727       732.277          42.000  
J 3  37431351.507 7 196703078.033 7      -544.607          45.000  
> 2024 11 28 12 59 56.5970000  0 22                     
G 2  20250022.130 7 106414576.690 7     -1803.393          45.000  
G 3  21035387.555 5 110541738.248 5      2896.090          30.000  
G 7  23007920.940 5 120907493.000 5     -3125.439          31.000  
G 8  22640124.865 5 118974442.559 5     -2515.706          31.000  
G14  19669436.756 7 103363635.689 7      1672.448          45.000  
G17  21331433.099 7 112097399.726 7      1829.435          44.000  
G19  23767249.715 5 124897811.935 5      2795.220          32.000  
G21  21321124.365 7 112043268.275 7     -2907.161          45.000  
G22  21496211.055 7 112963355.442 7      2536.900          42.000  
G30  22033183.519 5 115785160.39525     -2327.281          31.000  
R 2  22932297.268 6 122371168.107 6       -49.402          37.000  
R 3  22506581.062 4 120479614.843 4      2543.862          26.000  
R 9  18770245.533 7 100232008.148 7      1158.683          45.000  
R10  21732933.962 4 115848708.091 4      3783.815          28.000  
R16  19438038.749 4 103834445.25024     -3144.363          29.000  
R18  20266147.323 7 108182012.767 7     -2725.426          45.000  
R19  18798371.001 5 100558607.572 5      -600.081          34.000  
E11  24936331.736 6 131041300.478 6     -2433.231          40.000  
E25  24172749.819 6 127028672.741 6     -2177.781          36.000  
E30  25284731.423 6 132872152.890 6      2452.986          40.000  
J 2  36902500.147 7 193923948.36127       732.914          42.000  
J 3  37431372.307 7 196703186.871 7      -544.042          45.000  
> 2024 11 28 12 59 56.7970000  0 22                     
G 2  20250090.762 7 106414937.389 7     -1803.309          45.000  
G 3  21035277.200 5 110541159.032 5      2896.736          30.000  
G 7  23008039.724 5 120908118.119 5     -3125.873          31.000  
G 8  22640221.870 5 118974945.588 5     -2514.645          31.000  
G14  19669373.115 7 103363301.205 7      1672.621          45.000  
G17  21331363.542 7 112097033.843 7      1829.667          44.000  
G19  23767145.450 5 124897252.973 5      2795.439          32.000  
G21  21321235.000 7 112043849.724 7     -2907.028          45.000  
G22  21496114.433 7 112962848.106 7      2536.848          42.000  
G30  22033272.114 5 115785625.98825     -2328.280          30.000  
R 2  22932299.065 6 122371178.065 6       -49.341          37.000  
R 3  22506484.196 4 120479106.007 4      2543.655          26.000  
R 9  18770202.152 7 100231776.445 7      1158.650          45.000  
R10  21732792.458 4 115847951.525 4      3782.445          28.000  
R16  19438155.718 4 103835074.22524     -3144.755          29.000  
R18  20266249.581 7 108182557.896 7     -2725.370          45.000  
R19  18798393.459 5 100558727.564 5      -600.183          34.000  
E11  24936424.344 6 131041787.136 6     -2433.360          40.000  
E25  24172832.900 6 127029108.339 6     -2177.924          36.000  
E30  25284638.082 6 132871662.327 6      2453.051          40.000  
J 2  36902472.244 7 193923801.84727       732.829          42.000  
J 3  37431392.881 7 196703295.689 7      -543.769          45.000  
> 2024 11 28 12 59 56.9970000  0 22                     
G 2  20250159.429 7 106415298.019 7     -1803.148          45.000  
G 3  21035166.321 5 110540579.845 5      2896.123          30.000  
G 7  23008160.322 5 120908743.110 5     -3124.811          31.000  
G 8  22640316.608 5 118975448.508 5     -2515.063          31.000  
G14  19669309.387 7 103362966.668 7      1672.791          45.000  
G17  21331293.846 7 112096667.897 7      1829.801          44.000  
G19  23767038.654 5 124896693.934 5      2795.219          32.000  
G21  21321345.564 7 112044431.100 7     -2906.869          45.000  
G22  21496017.916 7 112962340.686 7      2537.128          42.000  
G30  22033360.831 5 115786091.48025     -2327.700          30.000  
R 2  22932300.863 6 122371187.952 6       -49.481          37.000  
R 3  22506388.551 4 120478597.133 4      2544.614          26.000  
R 9  18770158.840 7 100231544.698 7      1158.739          45.000  
R10  21732650.518 4 115847194.697 4      3784.807          28.000  
R16  19438275.897 4 103835703.17224     -3144.484          29.000  
R18  20266351.648 7 108183102.929 7     -2724.998          45.000  
R19  18798415.918 5 100558847.491 5      -599.318          34.000  
E11  24936517.040 6 131042273.689 6     -2432.769          40.000  
E25  24172915.701 6 127029543.850 6     -2177.566          36.000  
E30  25284544.933 6 132871171.689 6      2453.156          40.000  
J 2  36902444.464 7 193923655.25627       733.085          43.000  
J 3  37431413.560 7 196703404.437 7      -543.652          45.000  
> 2024 11 28 12 59 57.1970000  0 22                     
G 2  20250228.008 7 106415658.590 7     -1802.590          45.000  
G 3  21035055.250 5 110540000.576 5      2896.513          30.000  
G 7  23008275.930 5 120909368.086 5     -3124.597          31.000  
G 8  22640413.020 5 118975951.377 5     -2513.544          31.000  
G14  19669245.641 7 103362632.087 7      1673.128          45.000  
G17  21331224.133 7 112096301.883 7      1830.280          44.000  
G19  23766930.446 5 124896134.760 5      2796.548          32.000  
G21  21321456.181 7 112045012.410 7     -2906.432          45.000  
G22  21495921.294 7 112961833.218 7      2537.303          42.000  
G30  22033449.391 5 115786556.90425     -2327.511          30.000  
R 2  22932302.730 6 122371197.815 6       -49.066          37.000  
R 3  22506294.931 4 120478088.217 4      2544.518          26.000  
R 9  18770115.476 7 100231312.921 7      1158.839          45.000  
R10  21732508.613 4 115846437.968 4      3783.855          28.000  
R16  19438393.861 4 103836332.02124     -3144.058          29.000  
R18  20266453.819 7 108183647.917 7     -2724.778          45.000  
R19  18798438.359 5 100558967.403 5      -599.551          34.000  
E11  24936609.630 6 131042760.176 6     -2432.220          40.000  
E25  24172998.433 6 127029979.309 6     -2177.097          36.000  
E30  25284451.504 6 132870680.990 6      2453.754          39.000  
J 2  36902416.561 7 193923508.58427       733.694          42.000  
J 3  37431434.151 7 196703513.105 7      -543.174          45.000  
> 2024 11 28 12 59 57.3970000  0 22                     
G 2  20250296.553 7 106416019.137 7     -1802.207          45.000  
G 3  21034943.394 5 110539421.289 5      2896.634          30.000  
G 7  23008394.050 5 120909993.014 5     -3124.365          31.000  
G 8  22640507.094 5 118976454.223 5     -2513.241          31.000  
G14  19669181.931 7 103362297.476 7      1673.478          45.000  
G17  21331154.524 7 112095935.835 7      1830.665          44.000  
G19  23766825.099 5 124895575.595 5      2797.134          32.000  
G21  21321566.781 7 112045593.680 7     -2905.802          45.000  
G22  21495824.673 7 112961325.703 7      2537.765          42.000  
G30  22033537.881 5 115787022.28625     -2326.775          30.000  
R 2  22932304.562 6 122371207.663 6       -49.219          37.000  
R 3  22506200.822 4 120477579.225 4      2545.513          26.000  
R 9  18770072.305 7 100231081.127 7      1159.197          45.000  
R10  21732366.446 4 115845681.130 4      3784.479          28.000  
R16  19438503.535 4 103836960.95824     -3144.716          29.000  
R18  20266555.937 7 108184192.861 7     -2724.326          45.000  
R19  18798460.800 5 100559087.265 5      -599.007          34.000  
E11  24936702.134 6 131043246.651 6     -2431.843          40.000  
E25  24173081.339 6 127030414.749 6     -2176.866          36.000  
E30  25284358.250 6 132870190.246 6      2453.984          39.000  
J 2  36902388.640 7 193923361.89227       733.738          42.000  
J 3  37431454.742 7 196703621.745 7      -542.873          45.000  
> 2024 11 28 12 59 57.5970000  0 22                     
G 2  20250365.062 7 106416379.699 7     -1802.633          45.000  
G 3  21034831.957 5 110538842.008 5      2896.943          30.000  
G 7  23008514.980 5 120910617.927 5     -3124.207          31.000  
G 8  22640603.821 5 118976957.102 5     -2513.917          31.000  
G14  19669118.237 7 103361962.902 7      1672.900          45.000  
G17  21331084.985 7 112095569.792 7      1830.202          44.000  
G19  23766720.834 5 124895016.493 5      2795.784          32.000  
G21  21321677.502 7 112046174.971 7     -2906.382          45.000  
G22  21495728.260 7 112960818.207 7      2537.938          42.000  
G30  22033625.760 5 115787487.73225     -2327.624          30.000  
R 2  22932306.482 6 122371217.514 6       -49.207          37.000  
R 3  22506105.631 4 120477070.400 4      2544.156          26.000  
R 9  18770029.115 7 100230849.368 7      1158.872          45.000  
R10  21732224.559 4 115844924.351 4      3783.919          28.000  
R16  19438620.487 4 103837589.79724     -3144.360          29.000  
R18  20266658.196 7 108184737.810 7     -2724.630          45.000  
R19  18798483.241 5 100559207.140 5      -599.065          34.000  
E11  24936794.690 6 131043733.137 6     -2432.410          40.000  
E25  24173164.210 6 127030850.198 6     -2177.402          36.000  
E30  25284264.891 6 132869699.518 6      2453.682          39.000  
J 2  36902360.703 7 193923215.18827       733.540          42.000  
J 3  37431475.490 7 196703730.368 7      -542.990          45.000  
> 2024 11 28 12 59 57.7970000  0 22                     
G 2  20250433.572 7 106416740.262 7     -1802.709          45.000  
G 3  21034723.103 5 110538262.727 5      2896.648          30.000  
G 7  23008634.794 5 120911242.857 5     -3124.255          31.000  
G 8  22640698.558 5 118977459.972 5     -2514.743          31.000  
G14  19669054.492 7 103361628.319 7      1672.708          45.000  
G17  21331015.219 7 112095203.729 7      1830.335          44.000  
G19  23766615.173 5 124894457.348 5      2795.400          32.000  
G21  21321788.172 7 112046756.247 7     -2906.451          45.000  
G22  21495631.865 7 112960310.727 7      2537.314          42.000  
G30  22033712.889 5 115787953.06525     -2326.302          30.000  
R 2  22932308.262 6 122371227.419 6       -49.365          37.000  
R 3  22506009.742 4 120476561.414 4      2544.954          26.000  
R 9  18769985.734 7 100230617.627 7      1158.595          45.000  
R10  21732082.060 4 115844167.539 4      3784.249          28.000  
R16  19438735.606 4 103838218.66024     -3144.169          29.000  
R18  20266760.280 7 108185282.749 7     -2724.796          45.000  
R19  18798505.699 5 100559327.062 5      -599.689          34.000  
E11  24936887.228 6 131044219.595 6     -2432.624          40.000  
E25  24173247.063 6 127031285.636 6     -2177.267          36.000  
E30  25284171.480 6 132869208.770 6      2453.826          39.000  
J 2  36902332.782 7 193923068.47527       733.660          43.000  
J 3  37431496.169 7 196703838.986 7      -543.160          45.000  
> 2024 11 28 12 59 57.9970000  0 22                     
G 2  20250502.168 7 106417100.835 7     -1803.104          45.000  
G 3  21034607.914 5 110537683.442 5      2896.228          30.000  
G 7  23008755.985 5 120911867.787 5     -3125.091          31.000  
G 8  22640795.738 5 118977962.779 5     -2514.307          31.000  
G14  19668990.746 7 103361293.759 7      1672.740          45.000  
G17  21330945.627 7 112094837.687 7      1830.075          44.000  
G19  23766507.051 5 124893898.151 5      2795.605          33.000  
G21  21321898.806 7 112047337.521 7     -2906.549          45.000  
G22  21495535.208 7 112959803.216 7      2537.529          42.000  
G30  22033800.035 5 115788418.46425     -2326.682          31.000  
R 2  22932310.042 6 122371237.362 6       -50.012          37.000  
R 3  22505913.399 4 120476052.537 4      2544.624          26.000  
R 9  18769942.492 7 100230385.920 7      1158.328          45.000  
R10  21731939.841 4 115843410.774 4      3783.803          28.000  
R16  19438855.541 4 103838847.65724     -3144.955          29.000  
R18  20266862.346 7 108185827.688 7     -2724.871          45.000  
R19  18798528.105 5 100559446.948 5      -600.053          34.000  
E11  24936979.750 6 131044706.057 6     -2432.573          40.000  
E25  24173329.952 6 127031721.084 6     -2177.527          36.000  
E30  25284078.052 6 132868718.040 6      2453.602          39.000  
J 2  36902304.775 7 193922921.75727       733.303          43.000  
J 3  37431516.830 7 196703947.603 7      -543.174          45.000  
> 2024 11 28 12 59 58.1970000  0 22                     
G 2  20250570.835 7 106417461.453 7     -1803.319          45.000  
G 3  21034500.543 5 110537104.280 5      2895.694          30.000  
G 7  23008874.001 5 120912492.779 5     -3125.964          31.000  
G 8  22640889.673 5 118978465.690 5     -2515.287          31.000  
G14  19668926.966 7 103360959.255 7      1672.294          45.000  
G17  21330875.983 7 112094471.670 7      1829.858          44.000  
G19  23766400.762 5 124893338.982 5      2795.936          33.000  
G21  21322009.440 7 112047918.849 7     -2906.956          45.000  
G22  21495438.656 7 112959295.791 7      2536.925          42.000  
G30  22033892.591 5 115788883.96225     -2327.199          31.000  
R 2  22932311.717 6 122371247.347 6       -50.494          37.000  
R 3  22505818.488 4 120475381.67934      2544.250          26.000  
R 9  18769899.129 7 100230154.285 7      1157.801          45.000  
R10  21731797.499 4 115842654.072 4      3783.416          28.000  
R16  19438975.477 4 103839476.57524     -3144.849          29.000  
R18  20266964.412 7 108186372.670 7     -2725.100          45.000  
R19  18798550.546 5 100559566.923 5      -600.413          34.000  
E11  24937072.428 6 131045192.553 6     -2432.622          40.000  
E25  24173412.788 6 127032156.599 6     -2178.017          36.000  
E30  25283984.589 6 132868227.355 6      2453.308          39.000  
J 2  36902276.872 7 193922775.07227       733.272          43.000  
J 3  37431537.404 7 196704056.246 7      -543.338          45.000  
> 2024 11 28 12 59 58.3970000  0 22                     
G 2  20250639.502 7 106417822.158 7     -1803.896          45.000  
G 3  21034391.933 5 110536525.141 5      2894.608          30.000  
G 7  23008992.244 5 120913117.735 5     -3125.031          31.000  
G 8  22640986.277 5 118978968.598 5     -2513.734          31.000  
G14  19668863.325 7 103360624.849 7      1671.527          45.000  
G17  21330806.339 7 112094105.742 7      1829.328          45.000  
G19  23766294.228 5 124892779.912 5      2795.619          33.000  
G21  21322120.127 7 112048500.251 7     -2907.510          45.000  
G22  21495342.017 7 112958788.428 7      2536.268          42.000  
G30  22033977.888 5 115789349.57125     -2328.132          31.000  
R 2  22932313.532 6 122371257.430 6       -50.836          37.000  
R 3  22505722.965 4 120474872.91924      2543.594          26.000  
R 9  18769855.887 7 100229922.748 7      1157.182          45.000  
R10  21731655.280 4 115841897.418 4      3782.929          28.000  
R16  19439094.295 4 103840105.72124     -3145.697          29.000  
R18  20267066.444 7 108186917.732 7     -2725.577          45.000  
R19  18798573.127 5 100559686.947 5      -600.628          34.000  
E11  24937165.019 6 131045679.148 6     -2433.117          40.000  
E25  24173495.781 6 127032592.159 6     -2178.139          36.000  
E30  25283890.986 6 132867736.748 6      2452.604          39.000  
J 2  36902248.986 7 193922628.47127       732.563          43.000  
J 3  37431558.082 7 196704164.974 7      -543.834          45.000  
> 2024 11 28 12 59 58.5970000  0 22                     
G 2  20250708.116 7 106418182.891 7     -1803.822          45.000  
G 3  21034280.600 5 110535946.056 5      2895.046          30.000  
G 7  23009110.801 5 120913742.777 5     -3125.464          31.000  
G 8  22641080.439 5 118979471.658 5     -2515.760          31.000  
G14  19668799.788 7 103360290.473 7      1671.758          45.000  
G17  21330736.748 7 112093739.833 7      1829.508          45.000  
G19  23766188.899 5 124892220.915 5      2794.906          33.000  
G21  21322230.866 7 112049081.676 7     -2907.271          45.000  
G22  21495245.360 7 112958281.078 7      2536.796          42.000  
G30  22034065.732 5 115789815.13025     -2328.949          31.000  
R 2  22932315.381 6 122371267.601 6       -51.196          37.000  
R 3  22505626.431 4 120474364.21624      2543.851          26.000  
R 9  18769812.663 7 100229691.257 7      1157.435          45.000  
R10  21731513.218 4 115841140.886 4      3782.563          28.000  
R16  19439209.868 4 103840734.86924     -3146.082          29.000  
R18  20267168.667 7 108187462.829 7     -2725.606          45.000  
R19  18798595.550 5 100559807.064 5      -600.671          34.000  
E11  24937257.854 6 131046165.753 6     -2433.042          40.000  
E25  24173578.635 6 127033027.788 6     -2178.178          36.000  
E30  25283797.522 6 132867246.145 6      2453.046          39.000  
J 2  36902221.048 7 193922481.88827       732.917          43.000  
J 3  37431578.813 7 196704273.725 7      -543.825          45.000  
> 2024 11 28 12 59 58.7970000  0 22                     
G 2  20250776.922 7 106418543.671 7     -1803.934          45.000  
G 3  21034168.675 5 110535367.023 5      2894.667          30.000  
G 7  23009229.270 5 120914367.878 5     -3125.067          31.000  
G 8  22641177.200 5 118979974.615 5     -2514.397          31.000  
G14  19668736.217 7 103359956.154 7      1671.576          45.000  
G17  21330667.296 7 112093373.959 7      1829.371          45.000  
G19  23766083.377 5 124891661.870 5      2795.270          33.000  
G21  21322341.623 7 112049663.132 7     -2907.291          45.000  
G22  21495148.826 7 112957773.815 7      2536.443          42.000  
G30  22034154.589 5 115790280.73825     -2327.927          31.000  
R 2  22932317.283 6 122371277.803 6       -50.800          37.000  
R 3  22505532.025 4 120473855.53824      2543.172          26.000  
R 9  18769769.316 7 100229459.860 7      1156.886          45.000  
R10  21731371.313 4 115840384.265 4      3782.834          28.000  
R16  19439327.011 4 103841363.99624     -3145.720          29.000  
R18  20267270.943 7 108188007.959 7     -2725.837          45.000  
R19  18798617.974 5 100559927.190 5      -600.755          35.000  
E11  24937350.305 6 131046652.424 6     -2433.604          40.000  
E25  24173661.646 6 127033463.437 6     -2178.198          36.000  
E30  25283704.181 6 132866755.600 6      2452.745          39.000  
J 2  36902193.146 7 193922335.35327       732.405          43.000  
J 3  37431599.492 7 196704382.498 7      -543.872          44.000  
> 2024 11 28 12 59 58.9970000  0 22                     
G 2  20250845.571 7 106418904.504 7     -1804.153          45.000  
G 3  21034057.238 5 110534787.987 5      2895.143          30.000  
G 7  23009347.042 5 120914992.965 5     -3125.689          31.000  
G 8  22641272.880 5 118980477.699 5     -2515.394          31.000  
G14  19668672.611 7 103359621.902 7      1671.183          45.000  
G17  21330597.617 7 112093008.126 7      1829.292          45.000  
G19  23765976.739 5 124891102.881 5      2795.006          33.000  
G21  21322452.327 7 112050244.650 7     -2907.577          45.000  
G22  21495052.326 7 112957266.565 7      2536.228          42.000  
G30  22034241.735 5 115790746.46825     -2328.265          31.000  
R 2  22932319.203 6 122371288.093 6       -51.227          36.000  
R 3  22505438.125 4 120473346.99824      2542.397          26.000  
R 9  18769725.970 7 100229228.523 7      1156.702          45.000  
R10  21731229.268 4 115839627.741 4      3783.051          28.000  
R16  19439444.469 4               4     -3147.306          28.000  
R18  20267373.096 7 108188553.131 7     -2725.917          45.000  
R19  18798640.450 5 100560047.406 5      -601.408          35.000  
E11  24937442.931 6 131047139.088 6     -2433.474          40.000  
E25  24173744.604 6 127033899.161 6     -2178.827          36.000  
E30  25283610.753 6 132866265.101 6      2452.523          39.000  
J 2  36902165.225 7 193922188.81927       732.902          43.000  
J 3  37431620.188 7 196704491.308 7      -544.018          44.000  
> 2024 11 28 12 59 59.1970000  0 22                     
G 2  20250914.220 7 106419265.331 7     -1804.084          45.000  
G 3  21033946.865 5 110534209.020 5      2894.666          30.000  
G 7  23009466.349 5 120915618.135 5     -3125.873          31.000  
G 8  22641368.018 5 118980980.756 5     -2515.199          31.000  
G14  19668609.005 7 103359287.658 7      1671.185          45.000  
G17  21330528.008 7 112092642.297 7      1829.222          45.000  
G19  23765871.601 5 124890543.906 5      2795.497          33.000  
G21  21322562.874 7 112050826.161 7     -2907.668          45.000  
G22  21494955.756 7 112956759.337 7      2536.182          42.000  
G30  22034331.935 5 115791212.12125     -2328.772          31.000  
R 2  22932321.122 6 122371298.399 6       -51.257          36.000  
R 3  22505343.650 4 120472838.27624      2544.430          26.000  
R 9  18769682.659 7 100228997.234 7      1156.487          45.000  
R10  21731087.782 4 115838871.279 4      3782.249          28.000  
R16  19439564.369 4               4     -3146.901          28.000  
R18  20267475.250 7 108189098.301 7     -2725.794          45.000  
R19  18798662.978 5 100560167.588 5      -600.861          35.000  
E11  24937535.522 6 131047625.790 6     -2433.697          40.000  
E25  24173827.510 6 127034334.841 6     -2178.508          36.000  
E30  25283517.411 6 132865774.590 6      2452.618          39.000  
J 2  36902137.340 7 193922042.31527       732.618          42.000  
J 3  37431640.831 7 196704600.120 7      -544.032          44.000  
> 2024 11 28 12 59 59.3970000  0 22                     
G 2  20250982.817 7 106419626.195 7     -1803.999          45.000  
G 3  21033838.534 5 110533630.056 5      2895.582          31.000  
G 7  23009584.714 5 120916243.242 5     -3125.427          31.000  
G 8  22641462.249 5 118981483.801 5     -2514.233          31.000  
G14  19668545.504 7 103358953.436 7      1671.248          45.000  
G17  21330458.504 7 112092276.483 7      1829.231          45.000  
G19  23765765.068 5 124889984.967 5      2794.504          33.000  
G21  21322673.456 7 112051407.681 7     -2907.433          45.000  
G22  21494859.257 7 112956252.128 7      2536.331          42.000  
G30  22034422.572 5 115791677.86225     -2328.285          31.000  
R 2  22932323.077 6 122371308.778 6       -52.332          36.000  
R 3  22505249.785 4 120472329.81024      2542.730          26.000  
R 9  18769639.504 7 100228765.960 7      1156.534          45.000  
R10  21730945.999 4 115838114.845 4      3782.309          28.000  
R16  19439684.793 4               4     -3145.049          28.000  
R18  20267577.438 7 108189643.494 7     -2725.819          45.000  
R19  18798685.489 5 100560287.807 5      -600.448          35.000  
E11  24937628.217 6 131048112.467 6     -2433.357          40.000  
E25  24173910.486 6 127034770.576 6     -2178.525          36.000  
E30  25283424.157 6 132865284.095 6      2452.586          40.000  
J 2  36902109.507 7 193921895.79427       732.857          42.000  
J 3  37431661.562 7 196704708.923 7      -543.814          44.000  
> 2024 11 28 12 59 59.5970000  0 22                     
G 2  20251051.484 7 106419987.096 7     -1804.660          46.000  
G 3  21033728.493 5 110533051.143 5      2893.897          31.000  
G 7  23009704.143 5 120916868.395 5     -3125.647          31.000  
G 8  22641557.580 5 118981986.971 5     -2516.742          31.000  
G14  19668481.950 7 103358619.263 7      1670.646          45.000  
G17  21330388.860 7 112091910.708 7      1828.451          44.000  
G19  23765656.772 5 124889426.038 5      2794.790          33.000  
G21  21322784.195 7 112051989.246 7     -2908.187          45.000  
G22  21494762.705 7 112955744.952 7      2535.643          42.000  
G30  22034507.624 5 115792143.58925     -2328.892          31.000  
R 2  22932324.944 6 122371319.140 6       -52.216          36.000  
R 3  22505154.716 4 120471821.25224      2542.583          26.000  
R 9  18769596.245 7 100228534.763 7      1155.750          45.000  
R10  21730804.303 4 115837358.394 4      3782.150          28.000  
R16  19439803.559 4               4     -3146.701          28.000  
R18  20267679.505 7 108190188.723 7     -2726.324          45.000  
R19  18798707.947 5 100560408.124 5      -602.083          35.000  
E11  24937720.948 6 131048599.210 6     -2433.812          40.000  
E25  24173993.252 6 127035206.348 6     -2179.133          36.000  
E30  25283330.991 6 132864793.615 6      2452.047          40.000  
J 2  36902081.621 7 193921749.32527       732.112          42.000  
J 3  37431682.276 7 196704817.776 7      -544.543          44.000  
> 2024 11 28 12 59 59.7970000  0 22                     
G 2  20251120.168 7 106420348.069 7     -1804.919          46.000  
G 3  21033619.045 5 110532472.277 5      2894.115          31.000  
G 7  23009822.700 5 120917493.509 5     -3125.592          31.000  
G 8  22641653.259 5 118982490.045 5     -2515.426          31.000  
G14  19668418.396 7 103358285.172 7      1670.218          45.000  
G17  21330319.356 7 112091544.977 7      1828.362          44.000  
G19  23765550.517 5 124888867.183 5      2794.136          33.000  
G21  21322894.969 7 112052570.873 7     -2908.532          45.000  
G22  21494666.257 7 112955237.846 7      2535.400          42.000  
G30  22034596.603 5 115792609.39825     -2329.156          30.000  
R 2  22932326.881 6 122371329.645 6       -52.533          36.000  
R 3  22505060.363 4 120471312.77924      2542.727          27.000  
R 9  18769553.091 7 100228303.682 7      1154.953          45.000  
R10  21730662.729 4 115836602.053 4      3781.691          28.000  
R16  19439922.727 4               4     -3145.683          27.000  
R18  20267781.833 7 108190734.013 7     -2726.734          45.000  
R19  18798730.318 5 100560528.472 5      -602.202          35.000  
E11  24937813.661 6 131049086.017 6     -2434.034          40.000  
E25  24174076.333 6 127035642.189 6     -2179.327          36.000  
E30  25283237.615 6 132864303.220 6      2451.803          40.000  
J 2  36902053.718 6 193921602.88926       732.199          41.000  
J 3  37431703.006 7 196704926.676 7      -544.655          44.000  
> 2024 11 28 12 59 59.9970000  0 22                     
G 2  20251188.939 7 106420709.055 7     -1804.820          46.000  
G 3  21033507.503 5 110531893.510 5      2894.048          31.000  
G 7  23009942.740 5 120918118.678 5     -3125.464          31.000  
G 8  22641745.327 5 118982993.211 5     -2514.849          30.000  
G14  19668354.843 7 103357951.082 7      1670.595          44.000  
G17  21330249.765 7 112091179.259 7      1828.753          44.000  
G19  23765444.752 5 124888308.280 5      2794.259          33.000  
G21  21323005.604 7 112053152.500 7     -2908.252          45.000  
G22  21494569.932 7 112954730.747 7      2535.075          43.000  
G30  22034684.866 5 115793075.07625     -2327.809          30.000  
R 2  22932328.748 6 122371340.217 6       -52.661          36.000  
R 3  22504966.149 4 120470804.44124      2541.549          27.000  
R 9  18769509.884 7 100228072.593 7      1155.242          44.000  
R10  21730520.562 4 115835845.818 4      3781.185          28.000  
R16  19440042.243 4               4     -3147.175          27.000  
R18  20267884.213 7 108191279.286 7     -2726.340          44.000  
R19  18798752.864 5 100560648.826 5      -601.801          35.000  
E11  24937906.217 6 131049572.839 6     -2433.999          40.000  
E25  24174159.326 6 127036078.056 6     -2179.592          36.000  
E30  25283144.430 6 132863812.865 6      2451.996          41.000  
J 2  36902025.763 6 193921456.48826       732.273          41.000  
J 3  37431723.720 7 196705035.580 7      -544.563          44.000  
> 2024 11 28 13  0  0.1970000  0 22                     
G 2  20251257.658 7 106421070.030 7     -1804.934          46.000  
G 3  21033399.172 5 110531314.729 5      2893.490          31.000  
G 7  23010061.052 5 120918743.863 5     -3126.111          31.000  
G 8  22641838.267 5 118983496.409 5     -2515.018          30.000  
G14  19668291.167 7 103357617.024 7      1670.258          45.000  
G17  21330180.208 7 112090813.535 7      1828.647          44.000  
G19  23765338.881 5 124887749.387 5      2794.197          33.000  
G21  21323116.203 7 112053734.105 7     -2908.110          45.000  
G22  21494473.397 7 112954223.672 7      2535.509          44.000  
G30  22034774.124 5 115793540.96225     -2329.240          34.000  
R 2  22932330.790 5 122371350.755 5       -52.734          35.000  
R 3  22504870.191 4 120470296.04624      2542.196          28.000  
R 9  18769466.695 7 100227841.558 7      1155.114          44.000  
R10  21730378.413 4 115835089.457 4      3781.785          28.000  
R16  19440162.562 4               4     -3147.189          27.000  
R18  20267986.175 7 108191824.579 7     -2726.459          44.000  
R19  18798775.357 5 100560769.238 5      -602.485          35.000  
E11  24937998.720 6 131050059.641 6     -2434.357          40.000  
E25  24174242.424 6 127036513.871 6     -2178.792          36.000  
E30  25283051.124 6 132863322.457 6      2451.743          41.000  
J 2  36901997.860 6 193921310.06926       732.282          41.000  
J 3  37431744.503 7 196705144.96137      -544.365          44.000  
> 2024 11 28 13  0  0.3970000  0 22                     
G 2  20251326.395 7 106421430.967 7     -1804.580          45.000  
G 3  21033292.604 5 110530735.908 5      2894.278          34.000  
G 7  23010177.358 5 120919368.981 5     -3125.873          31.000  
G 8  22641935.639 5 118983999.617 5     -2515.306          30.000  
G14  19668227.578 7 103357282.942 7      1670.403          45.000  
G17  21330110.721 7 112090447.783 7      1828.808          44.000  
G19  23765232.854 5 124887190.408 5      2795.222          33.000  
G21  21323226.820 7 112054315.702 7     -2908.009          45.000  
G22  21494377.002 7 112953716.539 7      2535.821          43.000  
G30  22034866.296 5 115794006.82025     -2328.781          34.000  
R 2  22932332.674 5 122371361.293 5       -52.295          35.000  
R 3  22504773.202 4 120469787.52224      2542.880          28.000  
R 9  18769423.540 7 100227610.488 7      1155.307          44.000  
R10  21730236.490 4 115834333.104 4      3781.806          28.000  
R16  19440283.824 4               4     -3147.143          27.000  
R18  20268088.328 7 108192369.815 7     -2726.118          44.000  
R19  18798797.833 5 100560889.567 5      -601.608          35.000  
E11  24938091.520 6 131050546.361 6     -2433.776          40.000  
E25  24174325.417 6 127036949.671 6     -2178.980          37.000  
E30  25282957.975 6 132862832.023 6      2452.293          41.000  
J 2  36901970.167 6 193921163.58826       732.345          41.000  
J 3  37431765.199 7 196705253.79027      -544.193          44.000  
> 2024 11 28 13  0  0.5970000  0 22                     
G 2  20251395.096 7 106421791.930 7     -1804.642          45.000  
G 3  21033182.964 5 110530157.071 5      2893.837          34.000  
G 7  23010298.585 4 120919994.240 4     -3126.025          26.000  
G 8  22642030.900 5 118984502.761 5     -2516.006          30.000  
G14  19668163.955 7 103356948.875 7      1670.404          44.000  
G17  21330041.130 7 112090082.027 7      1828.718          44.000  
G19  23765125.779 5 124886631.475 5      2794.690          34.000  
G21  21323337.315 7 112054897.291 7     -2907.867          45.000  
G22  21494280.433 7 112953209.435 7      2535.507          43.000  
G30  22034955.327 5 115794472.69325     -2328.995          34.000  
R 2  22932334.664 5 122371371.838 5       -51.630          34.000  
R 3  22504678.360 4 120469279.11124      2542.254          28.000  
R 9  18769380.316 7 100227379.490 7      1155.212          43.000  
R10  21730094.253 4 115833576.737 4      3781.918          28.000  
R16  19440404.231 4               4     -3148.330          27.000  
R18  20268190.569 7 108192915.063 7     -2726.031          45.000  
R19  18798820.379 5 100561009.925 5      -601.890          35.000  
E11  24938184.321 6 131051033.085 6     -2433.606          40.000  
E25  24174408.567 6 127037385.509 6     -2178.914          37.000  
E30  25282864.511 6 132862341.605 6      2452.586          41.000  
J 2  36901942.246 6 193921017.09426       732.489          41.000  
J 3  37431786.000 7 196705362.64527      -544.028          44.000  
> 2024 11 28 13  0  0.7970000  0 23                     
G 2  20251463.833 7 106422152.913 7     -1805.031          45.000  
G 3  21033071.684 5 110529578.232 5      2893.975          34.000  
G 7  23010419.811 4 120920619.392 4     -3125.500          26.000  
G 8  22642124.939 5 118985005.837 5     -2515.329          30.000  
G14  19668100.366 7 103356614.847 7      1669.795          44.000  
G17  21329971.608 7 112089716.279 7      1828.577          44.000  
G19  23765019.106 5 124886072.566 5      2793.895          34.000  
G21  21323447.844 7 112055478.873 7     -2908.138          44.000  
G22  21494183.986 7 112952702.321 7      2535.179          43.000  
G30  22035046.626 5 115794938.57025     -2329.423          34.000  
R 2  22932336.496 5 122371382.452 5       -52.618          34.000  
R 3  22504579.854 4 120468770.69524      2541.403          29.000  
R 9  18769336.970 7 100227148.504 7      1154.841          43.000  
R10  21729952.086 4 115832820.460 4      3781.147          27.000  
R16  19440523.573 4 103847700.95334     -3147.732          28.000  
R18  20268292.653 7 108193460.313 7     -2726.525          44.000  
R19  18798842.959 5 100561130.296 5      -601.514          35.000  
E11  24938276.929 6 131051519.850 6     -2433.871          39.000  
E25  24174491.491 6 127037821.344 6     -2179.249          37.000  
E30  25282771.153 6 132861851.178 6      2452.134          41.000  
J 2  36901914.483 7 193920870.64327       732.143          42.000  
J 3  37431806.800 7 196705471.49927      -544.208          44.000  
J 4  36578230.412 3               3       311.235          23.000  
> 2024 11 28 13  0  0.9970000  0 23                     
G 2  20251532.482 7 106422513.875 7     -1804.628          45.000  
G 3  21032960.456 5 110528999.422 5      2893.982          33.000  
G 7  23010538.560 5 120921244.596 5     -3126.007          31.000  
G 8  22642223.550 5 118985508.943 5     -2515.553          30.000  
G14  19668036.760 7 103356280.805 7      1670.221          44.000  
G17  21329902.069 7 112089350.536 7      1828.914          44.000  
G19  23764912.502 5 124885513.565 5      2794.825          33.000  
G21  21323558.444 7 112056060.472 7     -2907.934          44.000  
G22  21494087.416 7 112952195.212 7      2535.801          43.000  
G30  22035135.082 5 115795404.41725     -2329.824          34.000  
R 2  22932338.416 5 122371393.067 5       -53.589          34.000  
R 3  22504484.454 4 120468262.24724      2543.095          29.000  
R 9  18769293.833 7 100226917.559 7      1154.940          44.000  
R10  21729809.954 4 115832064.075 4      3782.248          27.000  
R16  19440643.037 4 103848330.55124     -3148.124          28.000  
R18  20268394.719 7 108194005.565 7     -2726.017          44.000  
R19  18798865.453 5 100561250.711 5      -601.565          35.000  
E11  24938369.555 6 131052006.597 6     -2433.561          39.000  
E25  24174574.432 6 127038257.209 6     -2179.352          37.000  
E30  25282677.829 6 132861360.757 6      2452.339          41.000  
J 2  36901886.615 7 193920724.17727       732.360          42.000  
J 3  37431827.601 7 196705580.33627      -543.972          44.000  
J 4  36578220.011 4               4       306.534          24.000  
> 2024 11 28 13  0  1.1970000  0 23                     
G 2  20251601.201 7 106422874.952 7     -1805.341          45.000  
G 3  21032850.450 5 110528420.714 5      2893.292          33.000  
G 7  23010660.572 5 120921869.821 5     -3126.288          31.000  
G 8  22642321.830 4 118986012.147 4     -2516.004          29.000  
G14  19667973.119 7 103355946.863 7      1669.602          44.000  
G17  21329832.425 7 112088984.859 7      1828.030          45.000  
G19  23764805.725 6 124884954.677 6      2794.221          36.000  
G21  21323669.078 7 112056642.129 7     -2908.433          43.000  
G22  21493990.881 7 112951688.174 7      2535.159          43.000  
G30  22035221.966 5 115795870.34525     -2330.449          33.000  
R 2  22932340.422 5 122371403.757 5       -53.534          34.000  
R 3  22504388.425 4 120467753.99024      2541.220          29.000  
R 9  18769250.609 7 100226686.708 7      1154.033          44.000  
R10  21729668.486 4 115831307.885 4      3780.796          27.000  
R16  19440762.204 4 103848960.20924     -3149.575          28.000  
R18  20268497.030 7 108194550.899 7     -2726.672          45.000  
R19  18798888.033 5 100561371.232 5      -602.571          35.000  
E11  24938462.215 6 131052493.424 6     -2434.340          39.000  
E25  24174657.442 6 127038693.127 6     -2180.056          37.000  
E30  25282584.645 6 132860870.412 6      2451.607          41.000  
J 2  36901858.782 7 193920577.27717       731.696          42.000  
J 3  37431848.262 7 196705689.23927      -544.771          44.000  
J 4  36578210.047 4               4       306.106          24.000  
> 2024 11 28 13  0  1.3970000  0 23                     
G 2  20251669.780 7 106423236.001 7     -1805.119          45.000  
G 3  21032739.432 5 110527841.995 5      2893.524          33.000  
G 7  23010780.612 5 120922495.025 5     -3126.312          31.000  
G 8  22642419.533 4 118986515.303 4     -2515.833          29.000  
G14  19667909.653 7 103355612.927 7      1669.485          44.000  
G17  21329762.921 7 112088619.148 7      1828.647          45.000  
G19  23764699.592 5 124884395.788 5      2794.964          33.000  
G21  21323779.625 7 112057223.786 7     -2908.261          43.000  
G22  21493894.347 7 112951181.139 7      2535.141          43.000  
G30  22035311.905 5 115796336.25525     -2329.089          32.000  
R 2  22932342.516 5 122371414.522 5       -54.755          33.000  
R 3  22504293.915 4 120467245.65624      2541.724          28.000  
R 9  18769207.385 7 100226455.872 7      1153.757          44.000  
R10  21729526.877 4 115830551.676 4      3780.956          27.000  
R16  19440881.773 4 103849589.87024     -3148.670          28.000  
R18  20268599.166 7 108195096.242 7     -2726.790          45.000  
R19  18798910.614 5 100561491.735 5      -602.835          35.000  
E11  24938554.562 6 131052980.242 6     -2434.250          39.000  
E25  24174740.331 6 127039129.021 6     -2179.475          37.000  
E30  25282491.321 6 132860380.066 6      2451.910          41.000  
J 2  36901830.879 7 193920430.840 7       732.282          42.000  
J 3  37431869.010 7 196705798.11727      -544.431          44.000  
J 4  36578199.629 4               4       309.554          24.000  
> 2024 11 28 13  0  1.5970000  0 23                     
G 2  20251738.569 7 106423597.068 7     -1805.310          45.000  
G 3  21032629.269 5 110527263.307 5      2893.272          32.000  
G 7  23010899.867 5 120923120.255 5     -3126.373          31.000  
G 8  22642512.124 4 118987018.509 4     -2516.034          29.000  
G14  19667845.994 7 103355279.005 7      1669.560          44.000  
G17  21329693.312 7 112088253.449 7      1828.571          45.000  
G19  23764593.181 5 124883836.869 5      2794.508          34.000  
G21  21323890.242 7 112057805.446 7     -2908.351          44.000  
G22  21493797.934 7 112950674.101 7      2535.060          43.000  
G30  22035402.628 5 115796802.16925     -2329.281          32.000  
R 2  22932344.541 5 122371425.326 5       -54.523          32.000  
R 3  22504196.281 4 120466737.32824      2541.564          28.000  
R 9  18769164.230 7 100226225.059 7      1153.951          44.000  
R10  21729385.024 4 115829795.399 4      3781.199          27.000  
R16  19441002.790 4 103850219.44424     -3147.798          28.000  
R18  20268701.285 7 108195641.543 7     -2726.849          45.000  
R19  18798933.160 5 100561612.202 5      -602.062          35.000  
E11  24938647.292 6 131053467.027 6     -2434.205          39.000  
E25  24174823.202 6 127039564.965 6     -2179.840          37.000  
E30  25282397.997 6 132859889.706 6      2451.581          41.000  
J 2  36901803.116 7 193920284.413 7       732.172          42.000  
J 3  37431889.636 7 196705906.99527      -544.369          44.000  
J 4  36578189.177 4               4       307.023          24.000  
> 2024 11 28 13  0  1.7970000  0 23                     
G 2  20251807.148 7 106423958.141 7     -1805.406          45.000  
G 3  21032519.350 5 110526684.639 5      2893.131          32.000  
G 7  23011015.876 5 120923745.469 5     -3126.306          31.000  
G 8  22642601.400 4 118987521.716 4     -2516.729          29.000  
G14  19667782.458 7 103354945.090 7      1669.419          44.000  
G17  21329623.668 7 112087887.755 7      1828.367          45.000  
G19  23764486.787 6 124883278.011 6      2794.205          36.000  
G21  21324000.929 7 112058387.106 7     -2908.395          44.000  
G22  21493701.417 7 112950167.064 7      2535.262          43.000  
G30  22035493.230 5 115797268.17425     -2330.136          31.000  
R 2  22932346.547 4 122371436.037 4       -52.057          27.000  
R 3  22504103.969 4 120466229.13424      2540.688          28.000  
R 9  18769121.128 7 100225994.273 7      1153.657          44.000  
R10  21729243.939 4 115829039.199 4      3780.916          28.000  
R16  19441123.808 4 103850849.23724     -3149.156          28.000  
R18  20268803.316 7 108196186.857 7     -2726.702          45.000  
R19  18798955.792 5 100561732.736 5      -602.751          35.000  
E11  24938739.744 6 131053953.822 6     -2433.946          39.000  
E25  24174906.160 6 127040000.870 6     -2179.593          37.000  
E30  25282304.551 6 132859399.334 6      2451.936          41.000  
J 2  36901775.352 7 193920137.996 7       731.976          42.000  
J 3  37431910.367 7 196706015.86127      -544.281          44.000  
J 4  36578178.078 4               4       306.172          24.000  
> 2024 11 28 13  0  1.9970000  0 23                     
G 2  20251875.902 7 106424319.210 7     -1805.354          44.000  
G 3  21032406.831 5 110526105.963 5      2893.127          33.000  
G 7  23011134.031 5 120924370.679 5     -3126.434          31.000  
G 8  22642693.153 5 118988024.843 5     -2515.932          33.000  
G14  19667718.922 7 103354611.189 7      1669.580          44.000  
G17  21329554.042 7 112087522.052 7      1828.642          45.000  
G19  23764380.253 6 124882719.058 6      2794.294          36.000  
G21  21324111.703 7 112058968.735 7     -2908.031          44.000  
G22  21493605.040 7 112949660.047 7      2535.207          43.000  
G30  22035581.825 5 115797734.06425     -2328.904          31.000  
R 2  22932348.467 4 122371446.865 4       -53.802          27.000  
R 3  22504008.150 4 120465720.85224      2542.004          28.000  
R 9  18769077.921 7 100225763.505 7      1153.848          44.000  
R10  21729101.720 4 115828282.962 4      3781.141          28.000  
R16  19441242.347 4 103851478.82424     -3147.757          28.000  
R18  20268905.470 7 108196732.151 7     -2726.424          45.000  
R19  18798978.443 5 100561853.246 5      -602.482          35.000  
E11  24938832.474 6 131054440.630 6     -2433.867          39.000  
E25  24174989.014 6 127040436.801 6     -2179.504          37.000  
E30  25282211.245 6 132858908.977 6      2451.819          41.000  
J 2  36901747.554 7 193919991.560 7       731.910          42.000  
J 3  37431931.133 7 196706124.72327      -544.207          44.000  
J 4  36578167.765 3               3       308.855          23.000  
> 2024 11 28 13  0  2.1970000  0 23                     
G 2  20251944.586 7 106424680.291 7     -1805.358          44.000  
G 3  21032298.919 5 110525527.259 5      2893.533          33.000  
G 7  23011252.640 5 120924995.850 5     -3126.111          31.000  
G 8  22642786.215 5 118988527.975 5     -2515.466          33.000  
G14  19667655.298 7 103354277.312 7      1669.305          44.000  
G17  21329484.346 7 112087156.372 7      1828.239          45.000  
G19  23764273.824 5 124882160.146 5      2793.944          35.000  
G21  21324222.390 7 112059550.399 7     -2908.263          44.000  
G22  21493508.575 7 112949153.032 7      2534.950          43.000  
G30  22035668.936 5 115798199.98525     -2329.662          31.000  
R 2  22932350.701 4 122371457.693 4       -54.553          27.000  
R 3  22503915.350 4 120465212.64024      2540.337          28.000  
R 9  18769034.732 7 100225532.791 7      1153.513          44.000  
R10  21728960.111 4 115827526.758 4      3780.834          28.000  
R16  19441362.474 4 103852108.61524     -3149.189          28.000  
R18  20269007.606 7 108197277.451 7     -2726.582          45.000  
R19  18799000.884 5 100561973.784 5      -602.544          35.000  
E11  24938925.065 6 131054927.442 6     -2434.220          39.000  
E25  24175071.780 6 127040872.745 6     -2179.899          38.000  
E30  25282117.869 6 132858418.607 6      2451.827          41.000  
J 2  36901719.756 7 193919845.110 7       731.956          42.000  
J 3  37431951.846 7 196706233.58727      -544.261          44.000  
J 4  36578155.864 3               3       309.047          23.000  
> 2024 11 28 13  0  2.3970000  0 23                     
G 2  20252013.375 7 106425041.342 7     -1805.338          44.000  
G 3  21032190.204 5 110524948.576 5      2893.373          33.000  
G 7  23011367.009 5 120925620.990 5     -3125.262          31.000  
G 8  22642880.638 5 118989031.201 5     -2516.243          33.000  
G14  19667591.675 7 103353943.400 7      1669.266          44.000  
G17  21329414.650 7 112086790.634 7      1828.527          45.000  
G19  23764167.256 5 124881601.174 5      2795.089          35.000  
G21  21324333.164 7 112060132.034 7     -2908.187          44.000  
G22  21493412.075 7 112948645.987 7      2535.100          43.000  
G30  22035754.512 5 115798665.97825     -2330.011          31.000  
R 2  22932352.236 4 122371468.530 4       -54.364          28.000  
R 3  22503821.677 4 120464704.41724      2540.850          29.000  
R 9  18768991.543 7 100225302.072 7      1153.532          44.000  
R10  21728818.259 4 115826770.575 4      3780.763          28.000  
R16  19441481.363 4 103852738.31724     -3148.528          28.000  
R18  20269109.759 7 108197822.717 7     -2726.394          45.000  
R19  18799023.342 5 100562094.296 5      -602.322          35.000  
E11  24939017.848 6 131055414.219 6     -2433.582          39.000  
E25  24175154.512 6 127041308.657 6     -2180.052          38.000  
E30  25282024.545 6 132857928.207 6      2451.843          41.000  
J 2  36901691.836 7 193919698.621 7       732.224          42.000  
J 3  37431972.595 7 196706342.41527      -544.197          44.000  
J 4  36578145.377 3               3       308.327          23.000  
> 2024 11 28 13  0  2.5970000  0 23                     
G 2  20252082.181 7 106425402.456 7     -1805.574          45.000  
G 3  21032080.459 5 110524369.936 5      2893.113          34.000  
G 7  23011485.967 5 120926246.295 5     -3127.631          30.000  
G 8  22642975.410 5 118989534.361 5     -2515.320          34.000  
G14  19667528.191 7 103353609.574 7      1669.048          44.000  
G17  21329345.058 7 112086424.960 7      1828.365          45.000  
G19  23764060.845 5 124881042.310 5      2793.952          34.000  
G21  21324443.816 7 112060713.723 7     -2908.257          44.000  
G22  21493315.645 7 112948138.988 7      2535.160          43.000  
G30  22035843.159 5 115799131.97725     -2330.907          32.000  
R 2  22932354.889 4 122371479.411 4       -54.272          29.000  
R 3  22503723.746 5 120464196.13825      2541.232          30.000  
R 9  18768948.319 7 100225071.423 7      1153.217          44.000  
R10  21728676.476 4 115826014.431 4      3780.322          28.000  
R16  19441600.234 4 103853368.05824     -3149.026          28.000  
R18  20269211.826 7 108198368.033 7     -2726.518          45.000  
R19  18799045.783 5 100562214.874 5      -602.480          35.000  
E11  24939110.456 6 131055901.067 6     -2434.499          39.000  
E25  24175237.191 6 127041744.602 6     -2179.696          38.000  
E30  25281931.239 6 132857437.875 6      2451.663          41.000  
J 2  36901663.950 7 193919552.189 7       732.262          42.000  
J 3  37431993.395 7 196706451.30027      -544.333          44.000  
J 4  36578134.034 3               3       309.637          23.000  
> 2024 11 28 13  0  2.7970000  0 23                     
G 2  20252150.900 7 106425763.549 7     -1805.590          45.000  
G 3  21031972.390 5 110523791.303 5      2892.809          35.000  
G 7  23011608.520 5 120926871.381 5     -3126.428          30.000  
G 8  22643072.102 5 118990037.555 5     -2516.583          30.000  
G14  19667464.637 7 103353275.716 7      1669.083          44.000  
G17  21329275.432 7 112086059.251 7      1828.249          45.000  
G19  23763954.433 5 124880483.326 5      2793.913          34.000  
G21  21324554.363 7 112061295.359 7     -2908.701          44.000  
G22  21493219.058 7 112947631.985 7      2534.671          43.000  
G30  22035933.796 5 115799597.91025     -2330.441          32.000  
R 2  22932355.691 5 122371490.285 5       -54.486          30.000  
R 3  22503627.787 5 120463687.96325      2539.535          30.000  
R 9  18768905.164 7 100224840.773 7      1153.089          44.000  
R10  21728534.326 4 115825258.192 4      3781.263          29.000  
R16  19441720.919 4 103853997.81924     -3148.933          29.000  
R18  20269313.962 7 108198913.331 7     -2726.802          45.000  
R19  18799068.277 5 100562335.422 5      -603.358          35.000  
E11  24939202.995 6 131056387.832 6     -2434.290          39.000  
E25  24175320.149 6 127042180.527 6     -2179.752          40.000  
E30  25281837.810 6 132856947.475 6      2451.842          41.000  
J 2  36901636.152 7 193919405.730 7       732.010          42.000  
J 3  37432014.179 7 196706560.12827      -544.515          43.000  
J 4  36578123.145 3               3       308.509          23.000  
> 2024 11 28 13  0  2.9970000  0 23                     
G 2  20252219.689 7 106426124.639 7     -1805.596          44.000  
G 3  21031863.100 5 110523212.652 5      2892.952          35.000  
G 7  23011728.438 5 120927496.555 5     -3125.934          30.000  
G 8  22643169.282 5 118990540.671 5     -2516.083          30.000  
G14  19667401.206 7 103352941.877 7      1669.102          44.000  
G17  21329205.910 7 112085693.525 7      1828.479          45.000  
G19  23763848.109 5 124879924.319 5      2794.743          34.000  
G21  21324664.980 7 112061877.000 7     -2908.135          44.000  
G22  21493122.628 7 112947124.969 7      2534.904          43.000  
G30  22036025.130 5 115800063.89125     -2330.121          32.000  
R 2  22932358.728 5 122371501.237 5       -55.444          34.000  
R 3  22503531.759 5 120463179.65625      2541.661          31.000  
R 9  18768861.992 7 100224610.144 7      1152.936          44.000  
R10  21728392.020 4 115824502.102 4      3780.112          29.000  
R16  19441839.685 4 103854627.58924     -3148.931          29.000  
R18  20269416.063 7 108199458.617 7     -2726.541          45.000  
R19  18799090.892 5 100562455.980 5      -602.546          35.000  
E11  24939295.463 6 131056874.611 6     -2433.441          39.000  
E25  24175403.125 6 127042616.476 6     -2179.734          40.000  
E30  25281744.312 6 132856457.115 6      2451.909          41.000  
J 2  36901608.441 7 193919259.249 7       732.393          42.000  
J 3  37432034.857 7 196706668.93827      -544.238          43.000  
J 4  36578112.082 3               3       308.364          23.000  
> 2024 11 28 13  0  3.1970000  0 23                     
G 2  20252288.373 7 106426485.737 7     -1805.538          44.000  
G 3  21031753.181 6 110522634.020 6      2893.060          36.000  
G 7  23011846.785 5 120928121.680 5     -3125.629          30.000  
G 8  22643267.841 5 118991043.843 5     -2515.771          31.000  
G14  19667337.635 7 103352608.048 7      1669.145          44.000  
G17  21329136.284 7 112085327.804 7      1828.603          45.000  
G19  23763741.680 5 124879365.363 5      2795.462          34.000  
G21  21324775.666 7 112062458.657 7     -2908.344          44.000  
G22  21493026.111 7 112946617.953 7      2535.047          43.000  
G30  22036112.782 5 115800529.85825     -2329.716          32.000  
R 2  22932360.525 5 122371512.173 5       -54.340          34.000  
R 3  22503437.231 5 120462671.48225      2540.748          31.000  
R 9  18768818.646 7 100224379.544 7      1152.954          45.000  
R10  21728250.219 4 115823745.915 4      3779.785          29.000  
R16  19441955.398 4 103855257.40924     -3148.947          29.000  
R18  20269518.129 7 108200003.915 7     -2726.523          45.000  
R19  18799113.577 5 100562576.576 5      -602.572          35.000  
E11  24939388.124 6 131057361.398 6     -2433.845          40.000  
E25  24175486.031 6 127043052.394 6     -2179.525          40.000  
E30  25281650.901 6 132855966.731 6      2451.834          41.000  
J 2  36901580.625 7 193919112.773 7       732.305          42.000  
J 3  37432055.588 7 196706777.74027      -543.894          43.000  
J 4  36578101.228 3               3       309.357          23.000  
> 2024 11 28 13  0  3.3970000  0 23                     
G 2  20252357.109 7 106426846.812 7     -1805.172          44.000  
G 3  21031642.424 6 110522055.363 6      2893.663          38.000  
G 7  23011964.958 5 120928746.767 5     -3125.146          30.000  
G 8  22643364.096 5 118991546.988 5     -2516.615          31.000  
G14  19667274.081 7 103352274.216 7      1669.425          44.000  
G17  21329066.727 7 112084962.054 7      1829.015          45.000  
G19  23763635.338 5 124878806.398 5      2794.757          34.000  
G21  21324886.371 7 112063040.274 7     -2907.785          44.000  
G22  21492929.559 7 112946110.907 7      2535.470          43.000  
G30  22036198.672 5 115800995.82925     -2329.216          32.000  
R 2  22932364.765 5 122371523.137 5       -53.851          34.000  
R 3  22503342.756 5 120462163.23925      2541.753          32.000  
R 9  18768775.474 7 100224148.945 7      1153.110          45.000  
R10  21728109.640 4 115822989.748 4      3780.972          29.000  
R16  19442071.651 5 103855887.16425     -3147.967          33.000  
R18  20269620.283 7 108200549.178 7     -2726.120          45.000  
R19  18799136.140 5 100562697.136 5      -602.277          35.000  
E11  24939480.907 6 131057848.158 6     -2433.526          40.000  
E25  24175568.972 6 127043488.334 6     -2179.312          40.000  
E30  25281557.438 6 132855476.328 6      2452.520          41.000  
J 2  36901552.705 7 193918966.260 7       732.856          42.000  
J 3  37432076.301 7 196706886.53227      -543.728          43.000  
J 4  36578089.972 3               3       310.250          23.000  
> 2024 11 28 13  0  3.5970000  0 23                     
G 2  20252425.811 7 106427207.886 7     -1805.554          44.000  
G 3  21031532.296 6 110521476.731 6      2893.226          38.000  
G 7  23012081.735 5 120929371.912 5     -3126.025          30.000  
G 8  22643463.056 5 118992050.100 5     -2515.660          31.000  
G14  19667210.562 7 103351940.395 7      1668.752          45.000  
G17  21328997.206 7 112084596.318 7      1828.529          46.000  
G19  23763528.944 5 124878247.375 5      2794.854          34.000  
G21  21324996.953 7 112063621.895 7     -2908.338          44.000  
G22  21492833.060 7 112945603.876 7      2535.095          43.000  
G30  22036285.819 5 115801461.80125     -2329.220          32.000  
R 2  22932368.604 5 122371534.098 5       -54.730          33.000  
R 3  22503244.563 5 120461655.10225      2540.680          31.000  
R 9  18768732.302 7 100223918.370 7      1152.612          45.000  
R10  21727967.177 4 115822233.489 4      3781.447          29.000  
R16  19442188.899 5 103856517.01625     -3149.482          33.000  
R18  20269722.367 7 108201094.418 7     -2726.345          45.000  
R19  18799158.721 5 100562817.705 5      -602.472          35.000  
E11  24939573.585 6 131058334.907 6     -2433.865          40.000  
E25  24175651.843 6 127043924.258 6     -2179.874          40.000  
E30  25281464.166 6 132854985.931 6      2451.907          41.000  
J 2  36901525.029 7 193918819.739 7       732.566          42.000  
J 3  37432096.928 7 196706995.31327      -544.140          43.000  
J 4  36578079.153 3               3       305.745          23.000  
> 2024 11 28 13  0  3.7970000  0 23                     
G 2  20252494.512 7 106427568.955 7     -1805.215          44.000  
G 3  21031422.778 6 110520898.085 6      2893.258          38.000  
G 7  23012199.158 5 120929996.950 5     -3125.543          30.000  
G 8  22643562.174 5 118992553.232 5     -2516.969          31.000  
G14  19667147.061 7 103351606.566 7      1668.929          45.000  
G17  21328927.597 7 112084230.539 7      1828.748          46.000  
G19  23763422.533 5 124877688.329 5      2795.196          34.000  
G21  21325107.569 7 112064203.478 7     -2907.810          44.000  
G22  21492736.560 7 112945096.847 7      2535.119          43.000  
G30  22036378.706 5 115801927.83125     -2330.314          32.000  
R 2  22932370.070 5 122371545.028 5       -55.066          33.000  
R 3  22503146.912 5 120461146.81925      2540.850          32.000  
R 9  18768689.113 7 100223687.820 7      1152.603          45.000  
R10  21727824.853 4 115821477.421 4      3780.150          29.000  
R16  19442307.840 5 103857146.82525     -3149.274          33.000  
R18  20269824.503 7 108201639.653 7     -2726.105          45.000  
R19  18799181.389 5 100562938.281 5      -602.971          34.000  
E11  24939666.001 6 131058821.647 6     -2433.802          40.000  
E25  24175734.941 6 127044360.159 6     -2179.282          40.000  
E30  25281371.035 6 132854495.523 6      2451.865          41.000  
J 2  36901497.109 7 193918673.195 7       732.460          42.000  
J 3  37432117.571 7 196707104.04927      -543.860          43.000  
J 4  36578067.287 3               3       309.306          23.000  
> 2024 11 28 13  0  3.9970000  0 23                     
G 2  20252563.161 7 106427930.058 7     -1805.742          45.000  
G 3  21031313.243 6 110520319.493 6      2892.715          38.000  
G 7  23012317.191 5 120930622.064 5     -3125.598          31.000  
G 8  22643658.604 5 118993056.386 5     -2516.234          31.000  
G14  19667083.629 7 103351272.784 7      1668.964          45.000  
G17  21328858.058 7 112083864.789 7      1828.873          46.000  
G19  23763315.965 5 124877129.340 5      2795.109          34.000  
G21  21325218.274 7 112064785.120 7     -2908.318          44.000  
G22  21492640.095 7 112944589.834 7      2535.025          43.000  
G30  22036470.512 5 115802393.87025     -2330.221          33.000  
R 2  22932370.821 5 122371556.030 5       -54.382          33.000  
R 3  22503051.424 5 120460638.67325      2540.992          32.000  
R 9  18768645.924 7 100223457.317 7      1152.396          45.000  
R10  21727682.075 4 115820721.245 4      3780.762          29.000  
R16  19442426.222 5 103857776.75725     -3149.620          33.000  
R18  20269926.569 7 108202184.922 7     -2726.569          44.000  
R19  18799204.022 5 100563058.872 5      -603.167          35.000  
E11  24939758.767 6 131059308.409 6     -2433.785          39.000  
E25  24175817.934 6 127044796.109 6     -2179.816          40.000  
E30  25281277.728 6 132854005.135 6      2451.529          41.000  
J 2  36901469.328 7 193918526.679 7       732.421          42.000  
J 3  37432138.354 7 196707212.82627      -543.897          43.000  
J 4  36578056.887 3               3       307.866          23.000  
> 2024 11 28 13  0  4.1970000  0 23                     
G 2  20252631.880 7 106428291.167 7     -1805.308          45.000  
G 3  21031202.748 6 110519740.891 6      2893.044          39.000  
G 7  23012433.043 6 120931247.221 6     -3125.665          37.000  
G 8  22643755.662 5 118993559.446 5     -2514.507          30.000  
G14  19667020.058 7 103350939.010 7      1668.841          45.000  
G17  21328788.449 7 112083499.070 7      1828.579          46.000  
G19  23763209.640 5 124876570.311 5      2796.121          33.000  
G21  21325328.838 7 112065366.742 7     -2908.158          44.000  
G22  21492543.473 7 112944082.858 7      2534.898          43.000  
G30  22036559.700 5 115802859.93225     -2330.882          33.000  
R 2  22932373.421 5 122371567.091 5       -54.926          32.000  
R 3  22502957.368 5 120460130.53925      2540.244          32.000  
R 9  18768602.595 7 100223226.839 7      1152.230          46.000  
R10  21727541.095 4 115819965.048 4      3781.167          28.000  
R16  19442545.774 4 103858406.70224     -3150.830          29.000  
R18  20270028.670 7 108202730.176 7     -2726.151          44.000  
R19  18799226.445 5 100563179.515 5      -602.881          35.000  
E11  24939851.567 6 131059795.149 6     -2433.553          39.000  
E25  24175900.980 6 127045232.050 6     -2179.545          40.000  
E30  25281184.265 6 132853514.754 6      2452.015          41.000  
J 2  36901441.216 7 193918380.136 7       732.748          42.000  
J 3  37432158.928 7 196707321.60727      -543.991          44.000  
J 4  36578046.015 4               4       308.555          24.000  
> 2024 11 28 13  0  4.3970000  0 23                     
G 2  20252700.442 7 106428652.284 7     -1805.536          45.000  
G 3  21031092.777 6 110519162.288 6      2893.118          40.000  
G 7  23012552.647 6 120931872.328 6     -3125.366          37.000  
G 8  22643849.108 5 118994062.630 5     -2516.768          30.000  
G14  19666956.400 7 103350605.240 7      1669.057          45.000  
G17  21328718.857 7 112083133.320 7      1828.719          46.000  
G19  23763103.526 5 124876011.360 5      2794.504          33.000  
G21  21325439.508 7 112065948.352 7     -2907.841          44.000  
G22  21492446.939 7 112943575.855 7      2535.062          43.000  
G30  22036647.614 5 115803325.96325     -2329.897          33.000  
R 2  22932375.410 5 122371578.238 5       -55.463          32.000  
R 3  22502860.187 5 120459622.34925      2540.445          32.000  
R 9  18768559.493 7 100222996.366 7      1152.464          46.000  
R10  21727400.795 4 115819208.986 4      3780.392          28.000  
R16  19442666.163 4 103859036.38924     -3148.175          29.000  
R18  20270130.737 7 108203275.419 7     -2726.203          44.000  
R19  18799249.113 5 100563300.143 5      -603.295          35.000  
E11  24939944.105 6 131060281.886 6     -2433.607          39.000  
E25  24175984.078 6 127045667.991 6     -2179.742          40.000  
E30  25281090.889 6 132853024.374 6      2451.964          41.000  
J 2  36901413.452 7 193918233.598 7       732.907          42.000  
J 3  37432179.554 7 196707430.35627      -543.520          44.000  
J 4  36578035.615 4               4       308.997          25.000  
> 2024 11 28 13  0  4.5970000  0 23                     
G 2  20252769.214 7 106429013.431 7     -1805.908          45.000  
G 3  21030984.638 6 110518583.761 6      2892.260          40.000  
G 7  23012673.699 6 120932497.498 6     -3125.830          37.000  
G 8  22643949.150 5 118994565.701 5     -2515.287          30.000  
G14  19666892.811 7 103350271.531 7      1668.444          45.000  
G17  21328649.301 7 112082767.613 7      1828.371          46.000  
G19  23762996.730 4 124875452.310 4      2795.320          28.000  
G21  21325550.351 7 112066530.008 7     -2908.166          44.000  
G22  21492350.387 7 112943068.887 7      2534.737          43.000  
G30  22036731.934 5 115803792.02925     -2330.307          34.000  
R 2  22932377.155 5 122371589.400 5       -55.981          32.000  
R 3  22502766.218 4 120459114.23724      2541.844          26.000  
R 9  18768516.286 7 100222765.981 7      1151.819          46.000  
R10  21727260.565 4 115818452.824 4      3780.928          28.000  
R16  19442783.899 4 103859666.32524     -3150.268          29.000  
R18  20270232.838 7 108203820.710 7     -2726.486          44.000  
R19  18799271.676 5 100563420.791 5      -603.540          35.000  
E11  24940036.696 6 131060768.664 6     -2434.129          39.000  
E25  24176066.931 6 127046103.983 6     -2180.109          40.000  
E30  25280997.687 6 132852533.995 6      2451.824          41.000  
J 2  36901385.532 7 193918087.104 7       732.300          42.000  
J 3  37432200.058 7 196707539.14527      -544.021          44.000  
J 4  36578024.517 4               4       308.775          25.000  
> 2024 11 28 13  0  4.7970000  0 23                     
G 2  20252837.898 7 106429374.592 7     -1805.786          45.000  
G 3  21030874.684 6 110518005.211 6      2892.604          40.000  
G 7  23012794.210 6 120933122.667 6     -3126.227          38.000  
G 8  22644049.925 4 118995068.913 4     -2515.732          29.000  
G14  19666829.380 7 103349937.833 7      1668.450          45.000  
G17  21328579.901 7 112082401.898 7      1828.593          45.000  
G19  23762891.191 4 124874893.297 4      2796.321          29.000  
G21  21325661.090 7 112067111.661 7     -2908.164          44.000  
G22  21492253.817 7 112942561.943 7      2534.779          43.000  
G30  22036818.748 6 115804258.06826     -2329.892          36.000  
R 2  22932383.594 5 122371600.570 5       -56.293          32.000  
R 3  22502672.213 4 120458606.13424      2540.777          26.000  
R 9  18768473.254 7 100222535.617 7      1151.927          46.000  
R10  21727118.415 4 115817696.826 4      3779.625          28.000  
R16  19442903.695 4 103860296.31524     -3150.225          29.000  
R18  20270334.974 7 108204366.018 7     -2726.323          44.000  
R19  18799294.344 5 100563541.462 5      -602.942          35.000  
E11  24940129.409 6 131061255.469 6     -2433.890          39.000  
E25  24176149.855 6 127046539.990 6     -2179.915          40.000  
E30  25280904.520 6 132852043.630 6      2451.930          41.000  
J 2  36901357.664 7 193917940.594 7       732.266          42.000  
J 3  37432220.737 7 196707647.91227      -543.737          44.000  
J 4  36578012.319 4               4       307.660          25.000  
> 2024 11 28 13  0  4.9970000  0 23                     
G 2  20252906.651 7 106429735.773 7     -1805.828          45.000  
G 3  21030765.271 6 110517426.687 6      2892.467          40.000  
G 7  23012910.254 6 120933747.781 6     -3125.562          38.000  
G 8  22644148.780 4 118995572.027 4     -2515.619          29.000  
G14  19666765.896 7 103349604.138 7      1668.542          46.000  
G17  21328510.310 7 112082036.183 7      1828.697          45.000  
G19  23762785.757 4 124874334.295 4      2795.958          29.000  
G21  21325771.672 7 112067693.328 7     -2908.174          43.000  
G22  21492157.457 7 112942055.004 7      2534.876          43.000  
G30  22036907.989 6 115804724.12726     -2330.229          37.000  
R 2  22932386.578 5 122371611.709 5       -55.408          32.000  
R 3  22502579.186 4 120458098.08924      2540.301          27.000  
R 9  18768430.187 7 100222305.291 7      1151.708          46.000  
R10  21726978.203 4 115816940.782 4      3780.311          28.000  
R16  19443023.787 5 103860926.27425     -3150.603          30.000  
R18  20270437.128 7 108204911.305 7     -2726.105          44.000  
R19  18799316.995 5 100563662.180 5      -603.351          35.000  
E11  24940221.983 6 131061742.241 6     -2433.730          39.000  
E25  24176232.778 6 127046975.986 6     -2179.920          40.000  
E30  25280811.092 6 132851553.256 6      2451.985          41.000  
J 2  36901329.744 7 193917794.070 7       732.709          42.000  
J 3  37432241.346 7 196707756.68427      -543.674          43.000  
J 4  36578001.639 4               4       309.189          26.000  
> 2024 11 28 13  0  5.1970000  0 23                     
G 2  20252975.370 7 106430096.969 7     -1806.136          45.000  
G 3  21030654.777 6 110516848.180 6      2892.478          40.000  
G 7  23013030.765 6 120934372.934 6     -3125.897          38.000  
G 8  22644243.482 4 118996075.153 4     -2515.662          29.000  
G14  19666702.377 7 103349270.496 7      1668.201          46.000  
G17  21328440.736 7 112081670.485 7      1828.422          45.000  
G19  23762681.248 4 124873775.366 4      2793.180          29.000  
G21  21325882.324 7 112068275.019 7     -2908.601          43.000  
G22  21492060.922 7 112941548.076 7      2534.496          43.000  
G30  22036995.031 6 115805190.21926     -2330.687          37.000  
R 2  22932390.609 5 122371622.913 5       -55.579          33.000  
R 3  22502484.851 4 120457590.08424      2539.915          27.000  
R 9  18768387.050 7 100222075.014 7      1151.360          46.000  
R10  21726835.251 4 115816184.734 4      3779.833          28.000  
R16  19443145.311 5 103861556.26625     -3149.980          30.000  
R18  20270539.194 7 108205456.627 7     -2726.936          44.000  
R19  18799339.575 5 100563782.879 5      -603.256          35.000  
E11  24940314.696 6 131062229.024 6     -2433.910          40.000  
E25  24176315.702 6 127047412.027 6     -2180.360          40.000  
E30  25280717.454 6 132851062.890 6      2451.934          41.000  
J 2  36901301.876 7 193917647.575 7       732.394          43.000  
J 3  37432262.059 7 196707865.46627      -543.989          43.000  
J 4  36577989.616 4               4       308.227          26.000  
> 2024 11 28 13  0  5.3970000  0 23                     
G 2  20253044.124 7 106430458.162 7     -1806.087          45.000  
G 3  21030544.404 6 110516269.697 6      2892.241          40.000  
G 7  23013149.933 6 120934998.024 6     -3125.305          38.000  
G 8  22644337.783 4 118996578.304 4     -2515.784          29.000  
G14  19666638.841 7 103348936.837 7      1668.249          46.000  
G17  21328371.127 7 112081304.763 7      1828.434          45.000  
G19  23762574.854 5 124873216.333 5      2794.772          30.000  
G21  21325993.011 7 112068856.669 7     -2908.346          43.000  
G22  21491964.492 7 112941041.125 7      2534.579          43.000  
G30  22037085.370 6 115805656.29526     -2330.247          37.000  
R 2  22932393.000 5 122371634.164 5       -56.250          33.000  
R 3  22502391.893 4 120457081.97624      2540.614          27.000  
R 9  18768343.913 7 100221844.752 7      1151.068          46.000  
R10  21726694.410 4 115815428.723 4      3779.816          29.000  
R16  19443261.529 5 103862186.31025     -3149.876          31.000  
R18  20270641.330 7 108206001.909 7     -2726.572          44.000  
R19  18799362.103 5 100563903.606 5      -603.967          34.000  
E11  24940407.496 6 131062715.776 6     -2433.448          40.000  
E25  24176398.625 6 127047848.025 6     -2180.050          40.000  
E30  25280624.078 6 132850572.537 6      2451.856          41.000  
J 2  36901273.955 7 193917501.044 7       732.719          43.000  
J 3  37432282.790 7 196707974.21527      -543.838          43.000  
J 4  36577979.286 4 192218566.06434       308.789          27.000  
> 2024 11 28 13  0  5.5970000  0 23                     
G 2  20253112.808 7 106430819.387 7     -1806.112          44.000  
G 3  21030433.735 6 110515691.225 6      2892.307          40.000  
G 7  23013268.263 6 120935623.198 6     -3125.946          38.000  
G 8  22644432.748 4 118997081.412 4     -2515.755          29.000  
G14  19666575.461 7 103348603.243 7      1668.129          46.000  
G17  21328301.535 7 112080939.085 7      1828.556          45.000  
G19  23762467.465 5 124872657.288 5      2795.655          30.000  
G21  21326103.768 7 112069438.363 7     -2908.427          43.000  
G22  21491868.045 7 112940534.202 7      2534.830          44.000  
G30  22037173.162 6 115806122.41326     -2330.836          37.000  
R 2  22932395.809 5 122371645.510 5       -57.013          32.000  
R 3  22502295.830 4 120456573.98324      2539.941          28.000  
R 9  18768300.776 7 100221614.551 7      1150.950          46.000  
R10  21726550.079 4 115814672.738 4      3779.645          29.000  
R16  19443379.562 5 103862816.43825     -3150.645          31.000  
R18  20270743.431 7 108206547.233 7     -2726.439          44.000  
R19  18799384.719 5 100564024.390 5      -603.982          34.000  
E11  24940500.017 6 131063202.610 6     -2434.063          40.000  
E25  24176481.479 6 127048284.087 6     -2180.342          40.000  
E30  25280530.789 6 132850082.231 6      2451.411          41.000  
J 2  36901246.157 7 193917354.560 7       732.483          44.000  
J 3  37432303.486 7 196708083.00827      -543.883          43.000  
J 4  36577967.280 4 192218504.42124       308.190          27.000  
> 2024 11 28 13  0  5.7970000  0 23                     
G 2  20253181.632 7 106431180.643 7     -1806.010          44.000  
G 3  21030323.920 6 110515112.780 6      2892.137          39.000  
G 7  23013386.366 6 120936248.328 6     -3126.062          36.000  
G 8  22644530.661 4 118997584.592 4     -2515.771          29.000  
G14  19666511.890 7 103348269.669 7      1667.852          46.000  
G17  21328231.822 7 112080573.388 7      1828.509          46.000  
G19  23762359.169 5 124872098.366 5      2794.390          30.000  
G21  21326214.419 7 112070020.044 7     -2908.235          44.000  
G22  21491771.580 7 112940027.270 7      2534.545          44.000  
G30  22037262.822 6 115806588.55326     -2330.899          37.000  
R 2  22932397.607 5 122371656.790 5       -56.396          32.000  
R 3  22502200.447 5 120456065.96825      2540.454          32.000  
R 9  18768257.587 7 100221384.388 7      1150.823          45.000  
R10  21726410.129 4 115813916.746 4      3779.529          29.000  
R16  19443500.056 5 103863446.48725     -3149.924          30.000  
R18  20270845.585 7 108207092.578 7     -2726.601          44.000  
R19  18799407.282 5 100564145.155 5      -603.897          34.000  
E11  24940592.573 6 131063689.436 6     -2433.889          40.000  
E25  24176564.454 6 127048720.107 6     -2179.972          40.000  
E30  25280437.483 6 132849591.887 6      2451.580          41.000  
J 2  36901218.411 7 193917208.062 7       732.427          44.000  
J 3  37432324.182 7 196708191.78527      -543.815          44.000  
J 4  36577954.698 4 192218442.73324       308.544          27.000  
> 2024 11 28 13  0  5.9970000  0 23                     
G 2  20253250.403 7 106431541.841 7     -1806.124          45.000  
G 3  21030213.984 6 110514534.331 6      2891.832          39.000  
G 7  23013505.429 6 120936873.446 6     -3126.013          36.000  
G 8  22644625.625 4 118998087.760 4     -2516.055          29.000  
G14  19666448.406 7 103347936.090 7      1667.488          46.000  
G17  21328162.282 7 112080207.674 7      1828.502          46.000  
G19  23762248.866 5 124871539.312 5      2794.566          30.000  
G21  21326325.176 7 112070601.761 7     -2909.308          43.000  
G22  21491675.098 7 112939520.341 7      2534.562          44.000  
G30  22037351.573 6 115807054.69226     -2330.880          37.000  
R 2  22932399.718 5 122371668.209 5       -58.313          32.000  
R 3  22502105.570 5 120455557.99625      2541.440          32.000  
R 9  18768214.223 7 100221154.226 7      1150.756          46.000  
R10  21726265.553 5 115813160.763 5      3779.233          30.000  
R16  19443617.932 5 103864076.62525     -3150.712          30.000  
R18  20270947.704 7 108207637.879 7     -2726.706          45.000  
R19  18799429.932 5 100564265.978 5      -604.261          34.000  
E11  24940685.251 6 131064176.240 6     -2434.427          40.000  
E25  24176647.430 6 127049156.187 6     -2180.338          40.000  
E30  25280344.264 7 132849101.526 7      2451.857          42.000  
J 2  36901190.526 7 193917061.562 7       732.495          43.000  
J 3  37432344.808 7 196708300.53727      -544.020          44.000  
J 4  36577941.890 4 192218381.00824       308.369          28.000  
> 2024 11 28 13  0  6.1970000  0 23                     
G 2  20253319.140 7 106431903.160 7     -1807.015          44.000  
G 3  21030104.030 6 110513955.884 6      2892.602          39.000  
G 7  23013625.853 6 120937498.626 6     -3126.276          36.000  
G 8  22644718.477 4 118998590.970 4     -2515.800          29.000  
G14  19666384.853 7 103347602.544 7      1667.681          46.000  
G17  21328092.674 7 112079842.001 7      1828.296          46.000  
G19  23762142.019 5 124870980.408 5      2793.077          30.000  
G21  21326435.863 7 112071183.456 7     -2908.456          44.000  
G22  21491578.616 7 112939013.466 7      2534.076          42.000  
G30  22037439.575 6 115807520.929 6     -2331.590          37.000  
R 2  22932402.126 5 122371679.540 5       -57.446          32.000  
R 3  22502009.001 5 120455050.148 5      2538.183          32.000  
R 9  18768171.086 7 100220924.125 7      1150.584          46.000  
R10  21726123.229 4 115812404.819 4      3779.187          29.000  
R16  19443740.799 4 103864706.90124     -3151.207          29.000  
R18  20271049.822 7 108208183.254 7     -2726.776          44.000  
R19  18799452.408 5 100564386.811 5      -604.618          34.000  
E11  24940777.964 6 131064663.066 6     -2434.135          40.000  
E25  24176730.354 6 127049592.289 6     -2180.680          39.000  
E30  25280250.905 7 132848611.228 7      2451.375          42.000  
J 2  36901162.606 7 193916917.57837       732.220          43.000  
J 3  37432365.504 7 196708409.33527      -544.244          43.000  
J 4  36577929.727 4 192218319.34824       308.193          28.000  
> 2024 11 28 13  0  6.3970000  0 23                     
G 2  20253387.911 7 106432264.408 7     -1806.526          44.000  
G 3  21029993.832 6 110513377.482 6      2892.689          39.000  
G 7  23013745.718 6 120938123.743 6     -3125.470          36.000  
G 8  22644808.922 4 118999094.074 4     -2516.013          29.000  
G14  19666321.456 7 103347269.001 7      1667.780          46.000  
G17  21328023.187 7 112079476.324 7      1828.413          46.000  
G19  23762036.759 5 124870421.573 5      2792.373          30.000  
G21  21326546.602 7 112071765.144 7     -2908.630          44.000  
G22  21491482.221 6 112938506.624 6      2534.296          40.000  
G30  22037528.623 6 115807987.092 6     -2330.943          37.000  
R 2  22932403.348 5 122371691.029 5       -58.295          32.000  
R 3  22501913.705 5 120454542.258 5      2538.326          32.000  
R 9  18768127.984 7 100220694.061 7      1150.247          46.000  
R10  21725980.417 4 115811648.903 4      3779.405          29.000  
R16  19443859.601 4 103865336.92324     -3150.107          29.000  
R18  20271151.889 7 108208728.596 7     -2726.780          44.000  
R19  18799475.093 5 100564507.598 5      -604.251          34.000  
E11  24940870.747 6 131065149.887 6     -2434.459          40.000  
E25  24176813.120 6 127050028.363 6     -2180.264          39.000  
E30  25280157.634 6 132848120.904 6      2451.566          41.000  
J 2  36901134.685 7 193916771.06727       732.409          44.000  
J 3  37432386.095 7 196708518.09427      -543.826          43.000  
J 4  36577919.623 4 192218257.68524       308.069          28.000  
> 2024 11 28 13  0  6.5970000  0 23                     
G 2  20253456.630 7 106432625.678 7     -1806.323          44.000  
G 3  21029883.634 6 110512799.122 6      2891.636          39.000  
G 7  23013865.479 6 120938748.996 6     -3126.355          37.000  
G 8  22644906.207 4 118999597.288 4     -2516.428          29.000  
G14  19666258.025 7 103346935.483 7      1667.454          46.000  
G17  21327953.630 7 112079110.653 7      1828.453          45.000  
G19  23761929.964 4 124869862.479 4      2795.238          29.000  
G21  21326657.271 7 112072346.867 7     -2908.923          44.000  
G22  21491385.808 7 112937999.760 7      2534.090          42.000  
G30  22037615.176 6 115808453.253 6     -2331.036          37.000  
R 2  22932409.996 5 122371702.431 5       -57.129          31.000  
R 3  22501817.798 5 120454034.369 5      2539.486          32.000  
R 9  18768085.021 7 100220463.997 7      1150.003          46.000  
R10  21725836.575 4 115810892.924 4      3780.530          29.000  
R16  19443980.461 4 103865967.01224     -3150.437          28.000  
R18  20271253.815 7 108209273.925 7     -2726.660          45.000  
R19  18799497.744 5 100564628.419 5      -604.376          34.000  
E11  24940963.338 6 131065636.661 6     -2433.614          39.000  
E25  24176895.991 6 127050464.459 6     -2180.632          39.000  
E30  25280064.362 6 132847630.623 6      2451.205          41.000  
J 2  36901106.870 7 193916624.58427       732.230          44.000  
J 3  37432406.739 7 196708626.87127      -543.885          43.000  
J 4  36577910.706 4 192218196.04024       308.324          29.000  
> 2024 11 28 13  0  6.7970000  0 23                     
G 2  20253525.401 7 106432986.979 7     -1806.156          44.000  
G 3  21029773.610 6 110512220.770 6      2891.685          39.000  
G 7  23013983.861 5 120939374.225 5     -3126.092          34.000  
G 8  22645000.804 4 119000100.409 4     -2515.372          28.000  
G14  19666194.576 7 103346602.006 7      1667.457          46.000  
G17  21327883.986 7 112078744.990 7      1828.725          44.000  
G19  23761824.529 4 124869303.538 4      2795.388          29.000  
G21  21326767.993 7 112072928.599 7     -2908.460          43.000  
G22  21491289.448 7 112937492.929 7      2534.409          43.000  
G30  22037703.597 6 115808919.449 6     -2330.742          37.000  
R 2  22932411.357 5 122371713.976 5       -57.928          31.000  
R 3  22501722.485 5 120453526.485 5      2539.091          31.000  
R 9  18768042.111 7 100220234.021 7      1149.885          46.000  
R10  21725695.804 4 115810137.076 4      3779.447          29.000  
R16  19444095.231 4 103866597.36524     -3152.303          29.000  
R18  20271356.039 7 108209819.333 7     -2726.778          45.000  
R19  18799520.412 5 100564749.307 5      -604.247          34.000  
E11  24941055.894 6 131066123.546 6     -2434.303          39.000  
E25  24176978.845 6 127050900.592 6     -2180.548          40.000  
E30  25279970.934 6 132847140.365 6      2451.518          41.000  
J 2  36901079.089 7 193916478.10827       732.670          43.000  
J 3  37432427.609 7 196708735.68127      -543.893          43.000  
J 4  36577896.327 5 192218134.37125       308.315          30.000  
> 2024 11 28 13  0  6.9970000  0 23                     
G 2  20253594.120 7 106433348.299 7     -1806.889          44.000  
G 3  21029663.395 6 110511642.429 6      2891.752          39.000  
G 7  23014103.639 5 120939999.355 5     -3125.995          30.000  
G 8  22645091.877 4 119000603.637 4     -2516.219          28.000  
G14  19666131.039 7 103346268.537 7      1667.351          46.000  
G17  21327814.500 7 112078379.369 7      1827.910          44.000  
G19  23761717.996 4 124868744.495 4      2794.965          28.000  
G21  21326878.627 7 112073510.341 7     -2908.916          43.000  
G22  21491192.948 7 112936986.107 7      2533.967          44.000  
G30  22037791.685 6 115809385.680 6     -2331.179          39.000  
R 2  22932409.473 5 122371725.354 5       -57.208          31.000  
R 3  22501628.516 5               5      2541.535          31.000  
R 9  18767998.800 7 100220004.064 7      1149.667          46.000  
R10  21725555.103 5 115809381.195 5      3779.745          30.000  
R16  19444213.194 4 103867227.74624     -3152.150          29.000  
R18  20271458.314 7 108210364.699 7     -2727.125          45.000  
R19  18799542.957 5 100564870.238 5      -604.891          34.000  
E11  24941148.537 6 131066610.406 6     -2434.266          39.000  
E25  24177061.838 6 127051336.739 6     -2180.894          40.000  
E30  25279877.401 6 132846650.087 6      2451.248          41.000  
J 2  36901051.134 7 193916331.61127       732.225          42.000  
J 3  37432448.375 7 196708844.47827      -544.171          43.000  
J 4  36577882.908 5 192218072.71125       308.362          30.000  
> 2024 11 28 13  0  7.1970000  0 23                     
G 2  20253663.031 7 106433709.617 7     -1806.526          45.000  
G 3  21029553.267 6 110511064.083 6      2891.714          39.000  
G 7  23014221.271 4 120940624.348 4     -3124.768          24.000  
G 8  22645182.618 4 119001106.811 4     -2515.869          29.000  
G14  19666067.451 7 103345935.090 7      1667.125          46.000  
G17  21327744.873 7 112078013.719 7      1827.943          44.000  
G19  23761610.834 3               3      2794.493          20.000  
G21  21326989.314 7 112074092.051 7     -2908.640          43.000  
G22  21491096.519 7 112936479.265 7      2534.201          44.000  
G30  22037882.671 6 115809851.868 6     -2330.888          39.000  
R 2  22932409.979 5 122371737.095 5       -58.893          30.000  
R 3  22501532.993 5               5      2540.018          30.000  
R 9  18767955.750 7 100219774.136 7      1149.371          46.000  
R10  21725412.569 5 115808625.288 5      3780.313          30.000  
R16  19444326.324 4 103867858.06924     -3151.811          29.000  
R18  20271560.416 7 108210910.027 7     -2726.645          43.000  
R19  18799565.486 5 100564991.085 5      -603.770          34.000  
E11  24941241.145 6 131067097.233 6     -2433.989          39.000  
E25  24177144.779 6 127051772.850 6     -2180.829          40.000  
E30  25279784.147 6 132846159.801 6      2451.345          41.000  
J 2  36901023.318 7 193916185.13527       732.518          42.000  
J 3  37432469.141 7 196708952.73517      -543.788          43.000  
J 4  36577873.101 5 192218011.07025       308.174          30.000  
> 2024 11 28 13  0  7.3970000  0 23                     
G 2  20253731.785 7 106434070.937 7     -1806.366          45.000  
G 3  21029443.278 6 110510485.750 6      2891.666          39.000  
G 7  23014343.039 5 120941249.575 5     -3125.763          31.000  
G 8  22645280.444 4 119001610.008 4     -2515.998          29.000  
G14  19666003.984 7 103345601.638 7      1667.452          46.000  
G17  21327675.352 7 112077648.063 7      1828.271          44.000  
G19  23761501.770 3               3      2792.793          19.000  
G21  21327099.896 7 112074673.795 7     -2908.558          44.000  
G22  21491000.054 7 112935972.427 7      2534.209          44.000  
G30  22037970.637 6 115810318.048 6     -2330.936          39.000  
R 2  22932413.312 5 122371748.570 5       -56.757          30.000  
R 3  22501437.436 4               4      2539.571          29.000  
R 9  18767912.648 7 100219544.196 7      1149.719          46.000  
R10  21725273.962 5 115807869.463 5      3779.526          31.000  
R16  19444443.677 5 103868488.31625     -3151.678          34.000  
R18  20271662.674 7 108211455.364 7     -2726.913          43.000  
R19  18799588.014 5 100565112.006 5      -604.489          34.000  
E11  24941333.771 6 131067584.073 6     -2434.519          39.000  
E25  24177227.737 6 127052208.969 6     -2180.470          40.000  
E30  25279691.242 7 132845669.509 7      2451.526          42.000  
J 2  36900995.450 7 193916038.64427       732.633          42.000  
J 3  37432489.697 7 196709061.491 7      -543.582          43.000  
J 4  36577859.891 5 192217949.37525       308.035          30.000  
> 2024 11 28 13  0  7.5970000  0 23                     
G 2  20253800.504 7 106434432.249 7     -1806.665          45.000  
G 3  21029333.324 6 110509907.408 6      2891.597          39.000  
G 7  23014462.608 5 120941874.688 5     -3125.372          34.000  
G 8  22645374.187 4 119002113.083 4     -2515.226          29.000  
G14  19665940.605 7 103345268.220 7      1667.027          46.000  
G17  21327605.690 7 112077282.372 7      1828.362          44.000  
G19  23761398.482 3               3      2792.793          18.000  
G21  21327210.600 7 112075255.507 7     -2908.550          44.000  
G22  21490903.711 7 112935465.571 7      2534.234          44.000  
G30  22038058.953 6 115810784.246 6     -2331.124          39.000  
R 2  22932415.074 5 122371760.245 5       -58.972          30.000  
R 3  22501343.327 3               3      2532.581          23.000  
R 9  18767869.633 7 100219314.297 7      1149.401          46.000  
R10  21725131.883 5 115807113.571 5      3779.506          30.000  
R16  19444561.117 5 103869118.54325     -3150.961          33.000  
R18  20271764.758 7 108212000.674 7     -2726.580          44.000  
R19  18799610.682 5 100565232.857 5      -604.270          34.000  
E11  24941426.327 6 131068070.841 6     -2433.731          39.000  
E25  24177310.818 6 127052645.098 6     -2180.882          40.000  
E30  25279597.988 6 132845179.156 6      2451.949          41.000  
J 2  36900967.460 7 193915892.11927       732.686          42.000  
J 3  37432510.445 7 196709170.240 7      -543.745          44.000  
J 4  36577850.224 5 192217887.71725       308.287          31.000  
> 2024 11 28 13  0  7.7970000  0 23                     
G 2  20253869.415 7 106434793.569 7     -1806.594          46.000  
G 3  21029223.353 6 110509329.130 6      2891.181          39.000  
G 7  23014582.683 6 120942499.826 6     -3125.354          37.000  
G 8  22645463.968 4 119002616.277 4     -2515.713          29.000  
G14  19665877.226 7 103344934.809 7      1667.053          46.000  
G17  21327535.994 7 112076916.707 7      1828.294          45.000  
G19  23761291.198 3               3      2792.793          18.000  
G21  21327321.199 7 112075837.219 7     -2908.496          44.000  
G22  21490807.351 7 112934958.747 7      2534.440          43.000  
G30  22038147.600 6 115811250.498 6     -2331.109          37.000  
R 2  22932414.533 4 122371771.866 4       -57.861          29.000  
R 3  22501245.728 3               3      2544.421          23.000  
R 9  18767826.636 7 100219084.447 7      1149.183          47.000  
R10  21724991.740 5 115806357.753 5      3778.982          30.000  
R16  19444680.808 4 103869748.98724     -3152.581          29.000  
R18  20271866.929 7 108212546.011 7     -2726.437          44.000  
R19  18799633.297 5 100565353.777 5      -604.355          34.000  
E11  24941518.918 6 131068557.650 6     -2433.778          39.000  
E25  24177393.933 6 127053081.207 6     -2180.487          39.000  
E30  25279504.385 6 132844688.863 6      2451.443          41.000  
J 2  36900939.609 7 193915745.60727       732.733          42.000  
J 3  37432531.072 7 196709278.998 7      -543.750          44.000  
J 4  36577839.457 5 192217825.92625       308.821          30.000  
> 2024 11 28 13  0  7.9970000  0 23                     
G 2  20253938.221 7 106435154.892 7     -1806.949          46.000  
G 3  21029113.486 5 110508750.908 5      2890.457          35.000  
G 7  23014699.879 6 120943125.003 6     -3126.300          37.000  
G 8  22645553.540 4 119003119.480 4     -2517.589          29.000  
G14  19665813.899 7 103344601.426 7      1666.727          46.000  
G17  21327466.368 7 112076551.018 7      1828.115          45.000  
G19  23761181.297 2               2      2792.793          17.000  
G21  21327431.956 7 112076418.959 7     -2908.663          44.000  
G22  21490710.939 7 112934451.935 7      2533.861          43.000  
G30  22038236.055 6 115811716.742 6     -2331.357          37.000  
R 2  22932414.987 4 122371783.398 4       -57.837          29.000  
R 3  22501149.856 3               3      2539.740          23.000  
R 9  18767783.691 7 100218854.616 7      1149.057          47.000  
R10  21724849.381 5 115805601.804 5      3779.472          30.000  
R16  19444796.503 5 103870379.51825     -3152.280          33.000  
R18  20271968.960 7 108213091.361 7     -2726.886          44.000  
R19  18799655.982 5 100565474.729 5      -604.522          35.000  
E11  24941611.456 6 131069044.464 6     -2434.180          39.000  
E25  24177477.066 5 127053517.374 5     -2181.117          35.000  
E30  25279411.148 6 132844198.542 6      2451.431          41.000  
J 2  36900911.636 7 193915599.08227       732.368          42.000  
J 3  37432551.820 7 196709387.732 7      -543.823          44.000  
J 4  36577829.214 5 192217764.25525       308.259          31.000  
> 2024 11 28 13  0  8.1970000  0 22                     
G 2  20254007.114 7 106435516.241 7     -1806.660          46.000  
G 3  21029003.864 6 110508172.714 6      2891.659          38.000  
G 7  23014821.297 5 120943750.043 5     -3125.562          34.000  
G 8  22645649.586 4 119003622.569 4     -2514.589          29.000  
G14  19665750.712 7 103344268.040 7      1666.906          46.000  
G17  21327396.794 7 112076185.363 7      1828.515          45.000  
G21  21327542.590 7 112077000.680 7     -2908.559          45.000  
G22  21490614.596 7 112933945.118 7      2534.101          43.000  
G30  22038322.905 6 115812183.008 6     -2331.636          37.000  
R 2  22932413.940 4 122371795.052 4       -58.209          29.000  
R 3  22501056.829 3               3      2536.897          23.000  
R 9  18767740.641 7 100218624.827 7      1148.953          47.000  
R10  21724707.197 4               4      3778.140          29.000  
R16  19444907.905 5 103871009.907 5     -3152.510          33.000  
R18  20272071.009 7 108213636.719 7     -2726.729          44.000  
R19  18799678.685 5 100565595.714 5      -605.225          35.000  
E11  24941704.012 6 131069531.297 6     -2434.340          39.000  
E25  24177560.146 5 127053953.766 5     -2181.829          32.000  
E30  25279317.877 6 132843708.252 6      2451.543          40.000  
J 2  36900883.699 7 193915452.53327       732.878          43.000  
J 3  37432572.463 7 196709496.480 7      -543.634          44.000  
J 4  36577818.168 5 192217702.52025       308.832          31.000  
> 2024 11 28 13  0  8.3970000  0 22                     
G 2  20254075.746 7 106435877.612 7     -1807.029          46.000  
G 3  21028894.189 6 110507594.478 6      2891.196          38.000  
G 7  23014940.290 5 120944375.141 5     -3124.353          33.000  
G 8  22645739.891 4 119004125.732 4     -2516.309          28.000  
G14  19665687.263 7 103343934.661 7      1666.505          45.000  
G17  21327327.202 7 112075819.725 7      1828.177          45.000  
G21  21327653.155 7 112077582.408 7     -2908.724          45.000  
G22  21490518.218 7 112933438.312 7      2533.911          44.000  
G30  22038411.308 6 115812649.307 6     -2331.068          37.000  
R 2  22932411.968 4 122371806.744 4       -58.710          29.000  
R 3  22500963.139 4               4      2540.988          29.000  
R 9  18767697.557 7 100218395.036 7      1148.722          46.000  
R10  21724566.164 4               4      3778.350          29.000  
R16  19445016.882 5 103871640.378 5     -3152.368          33.000  
R18  20272173.040 7 108214182.064 7     -2726.797          45.000  
R19  18799701.231 5 100565716.690 5      -605.558          34.000  
E11  24941796.533 6 131070018.129 6     -2434.826          39.000  
E25  24177643.140 5 127054389.919 5     -2181.310          35.000  
E30  25279224.501 6 132843217.998 6      2451.196          41.000  
J 2  36900855.831 7 193915306.00727       732.709          43.000  
J 3  37432593.177 7 196709605.211 7      -543.811          44.000  
J 4  36577807.436 5 192217640.83125       308.529          31.000  
> 2024 11 28 13  0  8.5970000  0 22                     
G 2  20254144.430 7 106436238.964 7     -1806.841          46.000  
G 3  21028784.550 6 110507016.194 6      2891.332          40.000  
G 7  23015061.901 4 120945000.263 4     -3125.183          29.000  
G 8  22645832.150 4 119004628.906 4     -2516.245          28.000  
G14  19665623.971 7 103343601.297 7      1666.617          45.000  
G17  21327257.558 7 112075454.057 7      1828.109          44.000  
G21  21327763.877 7 112078164.117 7     -2908.447          45.000  
G22  21490421.701 7 112932931.506 7      2534.057          44.000  
G30  22038498.681 6 115813115.572 6     -2331.484          37.000  
R 2  22932413.800 4 122371818.537 4       -59.363          28.000  
R 3  22500866.622 4               4      2538.293          29.000  
R 9  18767654.402 7 100218165.303 7      1148.521          44.000  
R10  21724425.951 4               4      3779.161          29.000  
R16  19445131.791 5 103872270.735 5     -3152.133          33.000  
R18  20272275.089 7 108214727.407 7     -2726.862          45.000  
R19  18799723.864 5 100565837.646 5      -604.783          34.000  
E11  24941889.072 6 131070504.946 6     -2434.192          39.000  
E25  24177726.098 6 127054826.115 6     -2180.853          38.000  
E30  25279131.177 6 132842727.720 6      2451.153          41.000  
J 2  36900827.910 7 193915159.47727       732.672          43.000  
J 3  37432613.855 7 196709713.936 7      -543.591          44.000  
J 4  36577796.407 5 192217579.07025       309.361          31.000  
> 2024 11 28 13  0  8.7970000  0 22                     
G 2  20254213.114 7 106436600.333 7     -1806.644          46.000  
G 3  21028674.631 6 110506437.923 6      2891.496          38.000  
G 7  23015176.235 5 120945625.280 5     -3125.354          30.000  
G 8  22645928.667 4               4     -2514.833          27.000  
G14  19665560.487 7 103343267.950 7      1666.716          45.000  
G17  21327187.915 7 112075088.374 7      1828.599          43.000  
G21  21327874.581 7 112078745.859 7     -2908.709          44.000  
G22  21490325.219 7 112932424.723 7      2534.085          44.000  
G30  22038587.974 6 115813581.802 6     -2331.217          40.000  
R 2  22932413.242 4 122371830.272 4       -58.356          28.000  
R 3  22500772.618 4               4      2540.258          29.000  
R 9  18767611.353 7 100217935.592 7      1148.532          43.000  
R10  21724284.901 5 115802591.57935      3779.419          30.000  
R16  19445242.146 5 103872901.149 5     -3152.108          33.000  
R18  20272377.208 7 108215272.769 7     -2726.963          45.000  
R19  18799746.479 5 100565958.657 5      -605.385          34.000  
E11  24941981.907 6 131070991.774 6     -2433.783          39.000  
E25  24177808.934 6 127055262.296 6     -2181.227          38.000  
E30  25279037.871 7 132842237.409 7      2451.814          43.000  
J 2  36900800.025 7 193915012.94127       732.792          43.000  
J 3  37432634.464 7 196709822.666 7      -543.553          44.000  
J 4  36577786.722 5 192217517.34825       308.752          31.000  
> 2024 11 28 13  0  8.9970000  0 21                     
G 2  20254281.833 7 106436961.700 7     -1806.975          46.000  
G 3  21028564.799 6 110505859.701 6      2890.993          39.000  
G 7  23015293.692 5 120946250.433 5     -3125.781          34.000  
G14  19665497.265 7 103342934.639 7      1666.552          45.000  
G17  21327118.253 7 112074722.714 7      1828.030          43.000  
G21  21327985.250 7 112079327.609 7     -2909.036          42.000  
G22  21490228.824 7 112931917.937 7      2533.739          44.000  
G30  22038676.551 7 115814048.070 7     -2331.520          42.000  
R 2  22932419.053 4 122371842.053 4       -58.893          28.000  
R 3  22500678.072 4               4      2549.170          28.000  
R 9  18767568.268 7 100217705.947 7      1148.342          43.000  
R10  21724143.083 5 115801835.83025      3777.865          30.000  
R16  19445357.545 5 103873531.595 5     -3152.447          33.000  
R18  20272479.414 7 108215818.120 7     -2726.703          45.000  
R19  18799769.147 5 100566079.682 5      -605.376          34.000  
E11  24942074.550 6 131071478.598 6     -2433.824          39.000  
E25  24177891.718 6 127055698.482 6     -2181.171          38.000  
E30  25278944.669 7 132841747.113 7      2451.275          43.000  
J 2  36900772.244 7 193914866.38627       732.996          43.000  
J 3  37432655.160 7 196709931.391 7      -543.604          44.000  
J 4  36577773.495 5 192217455.62525       307.416          31.000  
> 2024 11 28 13  0  9.1970000  0 21                     
G 2  20254350.639 7 106437323.098 7     -1807.075          46.000  
G 3  21028454.880 6 110505281.532 6      2890.795          39.000  
G 7  23015410.608 5 120946875.559 5     -3125.677          34.000  
G14  19665433.816 7 103342601.333 7      1666.317          45.000  
G17  21327048.540 6 112074357.074 6      1828.296          41.000  
G21  21328095.867 7 112079909.365 7     -2908.653          42.000  
G22  21490132.429 7 112931411.198 7      2533.657          44.000  
G30  22038765.791 7 115814514.381 7     -2331.451          42.000  
R 2  22932428.389 4 122371853.885 4       -59.052          29.000  
R 3  22500583.161 3               3      2538.809          20.000  
R 9  18767525.288 7 100217476.286 7      1148.224          44.000  
R10  21724002.382 5 115801080.11125      3777.937          30.000  
R16  19445473.746 5 103874162.000 5     -3151.926          33.000  
R18  20272581.672 7 108216363.508 7     -2726.899          44.000  
R19  18799791.832 5 100566200.722 5      -605.595          34.000  
E11  24942167.106 6 131071965.465 6     -2434.615          39.000  
E25  24177974.380 6 127056134.693 6     -2180.820          38.000  
E30  25278851.520 7 132841256.862 7      2451.099          42.000  
J 2  36900744.376 7 193914719.85027       733.108          42.000  
J 3  37432675.926 7 196710040.118 7      -543.499          45.000  
J 4  36577761.559 5 192217393.82925       308.087          31.000  
> 2024 11 28 13  0  9.3970000  0 21                     
G 2  20254419.446 7 106437684.527 7     -1807.375          46.000  
G 3  21028345.031 6 110504703.362 6      2890.642          37.000  
G 7  23015530.806 5 120947500.751 5     -3126.172          34.000  
G14  19665370.402 7 103342268.087 7      1665.845          44.000  
G17  21326979.001 6 112073991.469 6      1827.710          41.000  
G21  21328206.536 6 112080491.170 6     -2909.028          41.000  
G22  21490035.964 7 112930904.455 7      2533.436          44.000  
G30  22038854.299 7 115814980.755 7     -2332.247          42.000  
R 2  22932439.103 5 122371865.788 5       -60.419          30.000  
R 3  22500490.570 3               3      2538.809          20.000  
R 9  18767482.308 7 100217246.725 7      1147.559          44.000  
R10  21723858.313 5 115800324.35025      3778.656          30.000  
R16  19445591.430 5 103874792.486 5     -3152.402          34.000  
R18  20272683.843 7 108216908.915 7     -2726.937          44.000  
R19  18799814.413 5 100566321.750 5      -605.209          34.000  
E11  24942259.714 6 131072452.327 6     -2434.567          39.000  
E25  24178057.111 5 127056570.935 5     -2180.962          35.000  
E30  25278758.091 7 132840766.633 7      2451.062          42.000  
J 2  36900716.386 6 193914573.34826       732.564          40.000  
J 3  37432696.692 7 196710148.872 7      -543.862          45.000  
J 4  36577747.494 5 192217332.09025       308.482          31.000  
> 2024 11 28 13  0  9.5970000  0 21                     
G 2  20254488.269 7 106438045.985 7     -1807.153          46.000  
G 3  21028235.269 5 110504125.156 5      2891.632          34.000  
G 7  23015647.495 5 120948125.925 5     -3125.995          34.000  
G14  19665307.040 7 103341934.866 7      1665.959          44.000  
G17  21326909.462 6 112073625.897 6      1827.747          41.000  
G21  21328317.363 6 112081072.950 6     -2908.829          41.000  
G22  21489939.621 7 112930397.745 7      2533.478          45.000  
G30  22038943.923 7 115815447.113 7     -2331.436          42.000  
R 2  22932446.240 5 122371877.728 5       -60.498          31.000  
R 3  22500398.066 3               3      2524.210          20.000  
R 9  18767439.416 7 100217017.200 7      1147.637          44.000  
R10  21723715.134 5 115799568.66525      3778.283          30.000  
R16  19445714.943 5 103875423.066 5     -3152.905          34.000  
R18  20272785.997 7 108217454.349 7     -2727.118          44.000  
R19  18799837.063 5 100566442.873 5      -605.490          34.000  
E11  24942352.445 6 131072939.184 6     -2434.304          39.000  
E25  24178139.825 5 127057007.160 5     -2180.696          35.000  
E30  25278664.890 7 132840276.421 7      2450.923          42.000  
J 2  36900688.466 6 193914426.87826       732.513          40.000  
J 3  37432717.545 7 196710257.651 7      -543.872          45.000  
J 4  36577732.051 5 192217270.40125       307.797          31.000  
> 2024 11 28 13  0  9.7970000  0 21                     
G 2  20254557.058 7 106438407.450 7     -1807.398          45.000  
G 3  21028125.385 5 110503547.043 5      2890.147          34.000  
G 7  23015769.961 5 120948751.054 5     -3125.891          34.000  
G14  19665243.591 7 103341601.673 7      1665.806          44.000  
G17  21326839.940 6 112073260.286 6      1827.775          41.000  
G21  21328428.049 7 112081654.768 7     -2909.456          42.000  
G22  21489843.139 7 112929891.037 7      2533.518          45.000  
G30  22039032.762 7 115815913.515 7     -2331.725          42.000  
R 2  22932454.337 5 122371889.693 5       -60.175          30.000  
R 3  22500300.834 3               3      2549.205          20.000  
R 9  18767396.488 7 100216787.720 7      1147.208          45.000  
R10  21723573.857 5 115798812.91625      3778.656          30.000  
R16  19445834.285 6 103876053.658 6     -3153.298          37.000  
R18  20272888.150 7 108217999.758 7     -2727.073          44.000  
R19  18799859.714 5 100566563.970 5      -605.627          35.000  
E11  24942445.105 6 131073426.050 6     -2434.504          39.000  
E25  24178222.923 5 127057443.464 5     -2182.092          35.000  
E30  25278571.514 7 132839786.179 7      2451.156          43.000  
J 2  36900660.615 6 193914280.38126       732.292          40.000  
J 3  37432738.258 7 196710366.419 7      -543.961          45.000  
J 4  36577719.836 5 192217208.69525       308.498          31.000  
> 2024 11 28 13  0  9.9970000  0 21                     
G 2  20254625.707 7 106438768.930 7     -1807.146          46.000  
G 3  21028015.588 5 110502968.907 5      2890.668          34.000  
G 7  23015889.599 5 120949376.245 5     -3125.385          34.000  
G14  19665180.421 7 103341268.511 7      1665.987          44.000  
G17  21326770.244 6 112072894.661 6      1828.394          39.000  
G21  21328538.841 7 112082236.566 7     -2908.904          42.000  
G22  21489746.727 7 112929384.341 7      2533.649          45.000  
G30  22039121.758 7 115816379.908 7     -2331.728          42.000  
R 2  22932464.755 5 122371901.716 5       -60.944          30.000  
R 3  22500202.990 3               3      2537.535          21.000  
R 9  18767353.648 7 100216558.274 7      1147.272          45.000  
R10  21723429.125 5 115798057.28025      3779.672          30.000  
R16  19445952.405 6 103876684.281 6     -3152.877          37.000  
R18  20272990.391 7 108218545.183 7     -2726.930          45.000  
R19  18799882.347 5 100566685.100 5      -605.267          35.000  
E11  24942537.574 6 131073912.948 6     -2434.266          39.000  
E25  24178305.881 5 127057879.719 5     -2181.000          35.000  
E30  25278478.242 7 132839295.970 7      2451.316          43.000  
J 2  36900632.782 6 193914133.90126       732.766          40.000  
J 3  37432759.128 7 196710475.179 7      -543.450          45.000  
J 4  36577706.713 5 192217147.06225       308.405          31.000  
> 2024 11 28 13  0 10.1970000  0 21                     
G 2  20254694.601 7 106439130.425 7     -1807.532          46.000  
G 3  21027905.652 5 110502390.821 5      2890.545          34.000  
G 7  23016008.243 5 120950001.387 5     -3125.391          35.000  
G14  19665117.077 7 103340935.354 7      1665.635          44.000  
G17  21326700.565 6 112072529.073 6      1827.669          39.000  
G21  21328649.510 7 112082818.388 7     -2908.848          43.000  
G22  21489650.122 7 112928877.658 7      2533.496          45.000  
G30  22039210.615 7 115816846.296 7     -2331.724          43.000  
R 2  22932476.394 4 122371913.608 4       -59.619          29.000  
R 3  22500106.491 3               3      2544.758          21.000  
R 9  18767310.738 7 100216328.828 7      1147.198          45.000  
R10  21723285.929 4 115797301.71124      3778.127          29.000  
R16  19446070.910 6 103877314.913 6     -3152.820          37.000  
R18  20273092.562 7 108219090.626 7     -2727.197          46.000  
R19  18799904.997 5 100566806.255 5      -605.725          35.000  
E11  24942630.147 6 131074399.853 6     -2434.500          39.000  
E25  24178388.735 5 127058316.031 5     -2181.396          34.000  
E30  25278384.971 7 132838805.761 7      2451.051          43.000  
J 2  36900604.914 6 193913987.42526       732.461          40.000  
J 3  37432779.824 7 196710583.947 7      -543.624          45.000  
J 4  36577696.226 5 192217085.38325       308.609          32.000  
> 2024 11 28 13  0 10.3970000  0 22                     
G 2  20254763.442 7 106439491.928 7     -1807.845          46.000  
G 3  21027795.803 5 110501812.733 5      2890.554          33.000  
G 7  23016127.114 5 120950626.593 5     -3126.172          35.000  
G 8  22646695.674 5               5     -2518.300          32.000  
G14  19665053.855 7 103340602.223 7      1665.433          43.000  
G17  21326630.851 6 112072163.470 6      1827.542          41.000  
G21  21328760.249 7 112083400.217 7     -2909.347          44.000  
G22  21489553.745 7 112928370.983 7      2533.099          45.000  
G30  22039299.332 7 115817312.716 7     -2332.023          43.000  
R 2  22932482.886 4 122371925.629 4       -60.437          29.000  
R 3  22500014.929 3               3      2534.177          22.000  
R 9  18767267.758 7 100216099.448 7      1146.637          45.000  
R10  21723145.158 4 115796546.02924      3778.029          29.000  
R16  19446187.215 6 103877945.597 6     -3153.427          37.000  
R18  20273194.733 7 108219636.044 7     -2727.116          46.000  
R19  18799927.665 5 100566927.437 5      -606.587          35.000  
E11  24942722.826 6 131074886.748 6     -2434.627          39.000  
E25  24178471.798 5 127058752.329 5     -2181.310          34.000  
E30  25278291.560 7 132838315.544 7      2450.936          43.000  
J 2  36900576.959 6 193913840.93126       732.161          40.000  
J 3  37432800.398 7 196710692.703 7      -544.050          45.000  
J 4  36577684.167 5 192217023.72325       307.721          32.000  
> 2024 11 28 13  0 10.5970000  0 22                     
G 2  20254832.178 7 106439853.450 7     -1807.646          46.000  
G 3  21027685.954 5 110501234.702 5      2890.055          33.000  
G 7  23016245.322 6 120951251.742 6     -3125.745          36.000  
G 8  22646790.324 5               5     -2518.300          32.000  
G14  19664990.319 7 103340269.106 7      1665.688          43.000  
G17  21326561.295 6 112071797.887 6      1828.114          41.000  
G21  21328871.023 7 112083982.033 7     -2909.167          44.000  
G22  21489457.297 7 112927864.318 7      2533.487          46.000  
G30  22039388.136 7 115817779.150 7     -2332.177          43.000  
R 2  22932487.022 4 122371937.736 4       -60.437          29.000  
R 3  22499917.906 3               3      2538.193          23.000  
R 9  18767224.778 7 100215870.101 7      1146.620          44.000  
R10  21723003.933 4 115795790.43124      3777.696          29.000  
R16  19446306.104 6 103878576.299 6     -3153.523          36.000  
R18  20273296.800 7 108220181.469 7     -2727.119          46.000  
R19  18799950.298 5 100567048.622 5      -606.062          34.000  
E11  24942815.521 6 131075373.645 6     -2434.613          39.000  
E25  24178554.739 5 127059188.672 5     -2181.811          34.000  
E30  25278198.323 7 132837825.333 7      2451.110          43.000  
J 2  36900549.004 6 193913694.44926       732.215          40.000  
J 3  37432821.164 7 196710801.459 7      -543.699          45.000  
J 4  36577673.662 5 192216962.01325       308.890          32.000  
> 2024 11 28 13  0 10.7970000  0 22                     
G 2  20254900.967 7 106440214.917 7     -1807.503          46.000  
G 3  21027576.070 5 110500656.530 5      2890.556          33.000  
G 7  23016362.989 6 120951876.850 6     -3125.574          36.000  
G 8  22646887.243 5               5     -2518.300          31.000  
G14  19664926.835 7 103339935.939 7      1665.585          43.000  
G17  21326491.721 6 112071432.269 6      1827.865          41.000  
G21  21328981.692 7 112084563.797 7     -2908.846          44.000  
G22  21489360.833 7 112927357.617 7      2533.314          46.000  
G30  22039476.835 7 115818245.524 7     -2332.011          43.000  
R 2  22932492.484 4 122371949.776 4       -60.254          29.000  
R 3  22499820.447 4               4      2537.765          24.000  
R 9  18767181.833 7 100215640.722 7      1146.485          43.000  
R10  21722862.569 4 115795034.73924      3778.597          29.000  
R16  19446425.219 6 103879206.988 6     -3153.416          36.000  
R18  20273399.023 7 108220726.859 7     -2727.205          46.000  
R19  18799972.791 5 100567169.770 5      -605.861          34.000  
E11  24942908.234 6 131075860.498 6     -2434.566          39.000  
E25  24178637.261 5 127059624.879 5     -2180.902          34.000  
E30  25278105.209 7 132837335.081 7      2451.154          43.000  
J 2  36900521.136 6 193913547.90726       732.398          40.000  
J 3  37432841.982 7 196710910.168 7      -543.586          45.000  
J 4  36577660.435 5 192216900.30125       308.206          32.000  
> 2024 11 28 13  0 10.9970000  0 22                     
G 2  20254969.791 7 106440576.376 7     -1806.969          45.000  
G 3  21027466.238 5 110500078.432 5      2891.354          33.000  
G 7  23016483.326 6 120952501.955 6     -3125.281          36.000  
G 8  22646990.129 5               5     -2518.300          31.000  
G14  19664863.473 7 103339602.806 7      1665.710          43.000  
G17  21326422.077 6 112071066.625 6      1828.613          41.000  
G21  21329092.571 7 112085145.560 7     -2908.540          44.000  
G22  21489264.385 7 112926850.918 7      2533.401          46.000  
G30  22039565.605 7 115818711.919 7     -2331.793          43.000  
R 2  22932496.811 4 122371961.832 4       -60.010          29.000  
R 3  22499725.674 4               4      2538.185          25.000  
R 9  18767138.975 7 100215411.339 7      1147.050          43.000  
R10  21722721.048 4 115794279.16224      3777.560          29.000  
R16  19446542.432 6 103879837.652 6     -3153.390          37.000  
R18  20273501.176 7 108221272.211 7     -2726.456          46.000  
R19  18799995.529 5 100567290.891 5      -605.184          34.000  
E11  24943000.738 6 131076347.288 6     -2433.931          39.000  
E25  24178720.272 5 127060061.051 5     -2180.458          34.000  
E30  25278011.920 7 132836844.807 7      2451.644          44.000  
J 2  36900493.337 6 193913401.33326       733.175          40.000  
J 3  37432862.608 7 196711018.862 7      -543.340          45.000  
J 4  36577648.935 5 192216838.53925       308.958          31.000  
> 2024 11 28 13  0 11.1970000  0 22                     
G 2  20255038.667 7 106440937.875 7     -1807.546          46.000  
G 3  21027356.336 5 110499500.381 5      2889.160          33.000  
G 7  23016601.533 5 120953127.063 5     -3125.409          35.000  
G 8  22647091.602 5               5     -2518.300          31.000  
G14  19664800.233 7 103339269.696 7      1665.605          43.000  
G17  21326352.520 6 112070701.007 6      1827.999          41.000  
G21  21329203.310 7 112085727.339 7     -2908.700          44.000  
G22  21489167.920 7 112926344.185 7      2533.971          46.000  
G30  22039654.339 7 115819178.295 7     -2331.902          43.000  
R 2  22932501.942 4 122371973.769 4       -58.490          28.000  
R 3  22499631.897 4 120442258.44734      2537.424          26.000  
R 9  18767096.013 7 100215182.012 7      1146.769          43.000  
R10  21722579.422 4 115793523.49124      3777.502          29.000  
R16  19446661.547 6 103880468.364 6     -3153.659          40.000  
R18  20273603.295 7 108221817.623 7     -2727.005          47.000  
R19  18800018.109 5 100567412.093 5      -606.436          34.000  
E11  24943093.398 6 131076834.135 6     -2433.903          39.000  
E25  24178803.492 6 127060497.438 6     -2182.156          36.000  
E30  25277918.544 7 132836354.580 7      2451.354          44.000  
J 2  36900465.504 6 193913254.78626       733.209          40.000  
J 3  37432883.269 7 196711127.557 7      -543.492          45.000  
J 4  36577636.703 5 192216776.792 5       308.779          32.000  
> 2024 11 28 13  0 11.3970000  0 22                     
G 2  20255107.490 7 106441299.344 7     -1807.268          46.000  
G 3  21027246.400 5 110498922.289 5      2890.015          33.000  
G 7  23016720.038 5 120953752.164 5     -3126.056          33.000  
G 8  22647191.069 5               5     -2522.461          31.000  
G14  19664736.767 7 103338936.589 7      1665.526          43.000  
G17  21326282.981 6 112070335.309 6      1828.504          40.000  
G21  21329313.979 7 112086309.091 7     -2908.598          44.000  
G22  21489071.525 7 112925837.482 7      2533.672          46.000  
G30  22039742.934 7 115819644.637 7     -2331.407          42.000  
R 2  22932506.199 4 122371985.896 4       -60.321          28.000  
R 3  22499534.769 4 120441750.91924      2537.579          27.000  
R 9  18767053.120 7 100214952.723 7      1146.312          43.000  
R10  21722436.836 4 115792767.83224      3778.135          29.000  
R16  19446778.970 6 103881099.092 6     -3153.603          41.000  
R18  20273705.519 7 108222362.965 7     -2726.899          46.000  
R19  18800040.795 5 100567533.254 5      -605.549          34.000  
E11  24943186.111 6 131077320.976 6     -2433.992          39.000  
E25  24178886.450 6 127060933.716 6     -2181.015          36.000  
E30  25277825.203 7 132835864.311 7      2451.143          44.000  
J 2  36900437.706 6 193913108.21226       732.865          40.000  
J 3  37432904.000 7 196711236.223 7      -543.287          45.000  
J 4  36577626.547 5 192216715.016 5       308.292          32.000  
> 2024 11 28 13  0 11.5970000  0 23                     
G 2  20255176.262 7 106441660.879 7     -1807.481          46.000  
G 3  21027136.516 5 110498344.202 5      2890.287          32.000  
G 7  23016838.036 5 120954377.332 5     -3126.428          32.000  
G 8  22647291.547 5               5     -2518.604          30.000  
G14  19664673.405 7 103338603.503 7      1665.293          43.000  
G17  21326213.460 6 112069969.740 6      1828.076          41.000  
G19  23759283.900 4               4      2797.633          25.000  
G21  21329424.701 7 112086890.929 7     -2908.871          44.000  
G22  21488975.130 7 112925330.842 7      2533.273          46.000  
G30  22039831.703 6 115820111.091 6     -2332.116          41.000  
R 2  22932512.010 4 122371998.221 4       -61.469          28.000  
R 3  22499440.573 4 120441243.36824      2537.923          27.000  
R 9  18767010.350 7 100214723.471 7      1146.305          43.000  
R10  21722294.076 4 115792012.27824      3777.510          29.000  
R16  19446899.219 6 103881729.872 6     -3153.752          40.000  
R18  20273807.585 7 108222908.383 7     -2726.989          46.000  
R19  18800063.567 5 100567654.487 5      -606.228          34.000  
E11  24943278.685 6 131077807.846 6     -2434.330          39.000  
E25  24178969.217 6 127061370.041 6     -2181.878          36.000  
E30  25277732.158 7 132835374.102 7      2451.176          44.000  
J 2  36900409.803 6 193912961.68626       732.906          40.000  
J 3  37432924.696 7 196711344.949 7      -543.448          45.000  
J 4  36577613.180 5 192216653.267 5       307.986          31.000  
> 2024 11 28 13  0 11.7970000  0 23                     
G 2  20255245.033 7 106442022.409 7     -1807.685          46.000  
G 3  21027026.615 5 110497766.227 5      2889.837          33.000  
G 7  23016959.054 4               4     -3123.942          27.000  
G 8  22647391.205 5               5     -2516.869          31.000  
G14  19664609.956 7 103338270.438 7      1665.276          43.000  
G17  21326143.781 6 112069604.122 6      1828.041          41.000  
G19  23759181.013 4               4      2797.633          25.000  
G21  21329535.388 7 112087472.723 7     -2909.188          44.000  
G22  21488878.666 7 112924824.168 7      2533.432          46.000  
G30  22039920.507 6 115820577.569 6     -2332.551          40.000  
R 2  22932513.546 4 122372010.265 4       -60.345          28.000  
R 3  22499344.998 4 120440735.91924      2537.445          27.000  
R 9  18766967.509 7 100214494.267 7      1145.823          43.000  
R10  21722154.108 4 115791256.62424      3778.212          29.000  
R16  19447018.456 6 103882360.654 6     -3154.027          40.000  
R18  20273909.791 7 108223453.781 7     -2727.127          46.000  
R19  18800086.357 5 100567775.694 5      -606.007          34.000  
E11  24943371.223 6 131078294.726 6     -2434.543          39.000  
E25  24179052.088 5 127061806.338 5     -2181.800          35.000  
E30  25277638.782 7 132834883.893 7      2450.927          44.000  
J 2  36900381.883 6 193912815.12226       732.893          40.000  
J 3  37432945.375 7 196711453.639 7      -543.508          45.000  
J 4  36577602.989 5 192216591.464 5       308.278          31.000  
> 2024 11 28 13  0 11.9970000  0 23                     
G 2  20255313.874 7 106442383.929 7     -1807.507          46.000  
G 3  21026916.696 5 110497188.152 5      2890.112          33.000  
G 7  23017082.933 4               4     -3124.896          27.000  
G 8  22647496.779 5               5     -2515.049          31.000  
G14  19664546.664 7 103337937.391 7      1665.116          43.000  
G17  21326074.120 6 112069238.504 6      1828.289          41.000  
G19  23759074.724 4               4      2797.633          24.000  
G21  21329646.074 7 112088054.504 7     -2908.695          44.000  
G22  21488782.166 7 112924317.513 7      2533.498          46.000  
G30  22040009.242 6 115821044.021 6     -2332.120          40.000  
R 2  22932515.518 4 122372022.571 4       -61.963          28.000  
R 3  22499252.843 4 120440228.47224      2537.243          28.000  
R 9  18766924.564 7 100214265.065 7      1146.199          43.000  
R10  21722010.475 4 115790501.09624      3777.784          29.000  
R16  19447136.437 6 103882991.454 6     -3154.075          40.000  
R18  20274011.857 7 108223999.164 7     -2726.578          46.000  
R19  18800109.077 5 100567896.939 5      -606.148          33.000  
E11  24943463.849 6 131078781.567 6     -2434.338          39.000  
E25  24179134.802 5 127062242.642 5     -2181.152          35.000  
E30  25277545.563 7 132834393.643 7      2451.162          44.000  
J 2  36900353.997 6 193912668.59726       732.634          40.000  
J 3  37432966.193 7 196711562.324 7      -543.183          45.000  
J 4  36577591.961 5 192216529.725 5       308.963          31.000  
> 2024 11 28 13  0 12.1970000  0 23                     
G 2  20255382.698 7 106442745.468 7     -1807.659          46.000  
G 3  21026806.934 5 110496610.142 5      2890.006          33.000  
G 7  23017206.079 4               4     -3126.019          27.000  
G 8  22647589.108 5 119013850.43835     -2516.165          31.000  
G14  19664483.233 7 103337604.357 7      1665.142          43.000  
G17  21326004.389 6 112068872.873 6      1828.067          41.000  
G19  23758967.283 4               4      2797.633          24.000  
G21  21329756.796 7 112088636.322 7     -2908.781          44.000  
G22  21488685.736 7 112923810.881 7      2533.218          46.000  
G30  22040097.871 6 115821510.454 6     -2332.224          40.000  
R 2  22932520.543 4 122372034.730 4       -60.669          28.000  
R 3  22499158.926 4 120439720.97424      2537.138          28.000  
R 9  18766881.602 7 100214035.897 7      1145.907          43.000  
R10  21721870.262 4 115789745.51924      3778.235          29.000  
R16  19447253.685 6 103883622.266 6     -3154.190          40.000  
R18  20274114.011 7 108224544.576 7     -2726.738          46.000  
R19  18800131.763 5 100568018.172 5      -605.778          34.000  
E11  24943556.213 6 131079268.420 6     -2434.325          39.000  
E25  24179217.673 5 127062678.949 5     -2181.813          35.000  
E30  25277452.152 7 132833903.432 7      2451.136          44.000  
J 2  36900326.042 6 193912522.01926       733.078          40.000  
J 3  37432986.889 7 196711673.49937      -543.221          45.000  
J 4  36577580.042 5 192216467.934 5       309.448          31.000  
> 2024 11 28 13  0 12.3970000  0 22                     
G 2  20255451.504 7 106443107.034 7     -1808.045          46.000  
G 3  21026697.085 5 110496032.110 5      2889.647          33.000  
G 7  23017321.564 4               4     -3125.513          27.000  
G 8  22647679.448 5 119014353.62225     -2516.661          31.000  
G14  19664419.784 7 103337271.345 7      1664.792          43.000  
G17  21325934.815 6 112068507.268 6      1827.897          41.000  
G21  21329867.413 7 112089218.121 7     -2909.329          44.000  
G22  21488589.359 7 112923304.242 7      2532.963          46.000  
G30  22040186.728 6 115821976.908 6     -2332.062          40.000  
R 2  22932528.605 4 122372047.037 4       -61.829          27.000  
R 3  22499064.765 4 120439213.61724      2536.154          29.000  
R 9  18766838.657 7 100213806.773 7      1145.311          43.000  
R10  21721729.387 4 115788989.98024      3777.553          29.000  
R16  19447371.823 6 103884253.114 6     -3154.543          40.000  
R18  20274216.234 7 108225089.974 7     -2727.198          46.000  
R19  18800154.413 5 100568139.450 5      -606.358          34.000  
E11  24943648.769 6 131079755.267 6     -2434.405          39.000  
E25  24179300.736 5 127063115.234 5     -2181.476          34.000  
E30  25277358.968 7 132833413.204 7      2451.156          44.000  
J 2  36900298.122 6 193912375.50526       732.207          40.000  
J 3  37433007.585 7 196711782.18727      -543.558          45.000  
J 4  36577568.019 5 192216406.177 5       309.188          31.000  
> 2024 11 28 13  0 12.5970000  0 22                     
G 2  20255520.415 7 106443468.542 7     -1807.240          46.000  
G 3  21026587.288 5 110495454.093 5      2890.182          33.000  
G 7  23017446.752 4 120957461.89334     -3126.031          27.000  
G 8  22647778.652 5 119014856.76925     -2514.806          31.000  
G14  19664356.457 7 103336938.313 7      1665.308          43.000  
G17  21325865.345 6 112068141.641 6      1828.268          41.000  
G21  21329978.152 7 112089799.890 7     -2908.621          44.000  
G22  21488492.981 7 112922797.560 7      2533.647          46.000  
G30  22040275.480 6 115822443.356 6     -2332.383          40.000  
R 2  22932542.793 4 122372059.358 4       -61.475          27.000  
R 3  22498968.230 4 120438706.19024      2536.591          29.000  
R 9  18766795.764 7 100213577.658 7      1145.597          43.000  
R10  21721585.597 4 115788234.40324      3777.864          29.000  
R16  19447489.804 6 103884883.931 6     -3153.880          40.000  
R18  20274318.527 7 108225635.326 7     -2726.663          46.000  
R19  18800177.063 5 100568260.711 5      -606.129          33.000  
E11  24943741.534 6 131080242.097 6     -2433.695          39.000  
E25  24179383.677 5 127063551.547 5     -2181.236          34.000  
E30  25277265.644 7 132832922.965 7      2451.317          44.000  
J 2  36900270.149 6 193912228.88726       733.183          39.000  
J 3  37433028.228 7 196711890.82927      -542.989          45.000  
J 4  36577556.222 5 192216344.410 5       308.949          31.000  
> 2024 11 28 13  0 12.7970000  0 22                     
G 2  20255589.256 7 106443830.128 7     -1807.591          46.000  
G 3  21026477.404 5 110494876.129 5      2889.678          34.000  
G 7  23017567.717 4 120958087.03824     -3125.995          27.000  
G 8  22647875.396 5 119015360.01725     -2515.446          31.000  
G14  19664293.130 7 103336605.348 7      1664.937          43.000  
G17  21325795.806 6 112067776.027 6      1828.350          40.000  
G21  21330088.891 7 112090381.702 7     -2908.816          44.000  
G22  21488396.795 7 112922290.943 7      2533.318          46.000  
G30  22040364.214 6 115822909.797 6     -2332.033          39.000  
R 2  22932553.036 4 122372071.642 4       -61.469          27.000  
R 3  22498871.992 4 120438198.71324      2537.579          29.000  
R 9  18766752.942 7 100213348.582 7      1145.450          43.000  
R10  21721440.865 4 115787478.82524      3778.026          28.000  
R16  19447607.663 6 103885514.812 6     -3153.932          40.000  
R18  20274420.628 7 108226180.736 7     -2726.782          46.000  
R19  18800199.714 5 100568381.987 5      -606.187          33.000  
E11  24943834.073 6 131080728.973 6     -2434.238          39.000  
E25  24179467.002 5 127063987.921 5     -2181.958          35.000  
E30  25277172.460 7 132832432.762 7      2451.068          44.000  
J 2  36900242.298 6 193912082.33026       732.717          40.000  
J 3  37433048.942 7 196711999.51227      -543.229          45.000  
J 4  36577543.972 5 192216282.612 5       308.660          31.000  
> 2024 11 28 13  0 12.9970000  0 21                     
G 2  20255657.992 7 106444191.752 7     -1808.255          46.000  
G 3  21026367.450 6 110494298.185 6      2889.834          36.000  
G 8  22647974.269 5 119015863.27825     -2516.585          32.000  
G14  19664229.803 7 103336272.417 7      1664.420          43.000  
G17  21325726.232 6 112067410.472 6      1827.918          40.000  
G21  21330199.683 7 112090963.544 7     -2909.501          44.000  
G22  21488300.365 7 112921784.356 7      2532.697          46.000  
G30  22040452.844 6 115823376.361 6     -2332.831          39.000  
R 2  22932560.504 4 122372083.987 4       -61.731          27.000  
R 3  22498775.702 4 120437691.38524      2536.674          29.000  
R 9  18766710.014 7 100213119.594 7      1144.799          43.000  
R10  21721300.059 4 115786723.43324      3776.439          28.000  
R16  19447724.702 6 103886145.774 6     -3154.729          40.000  
R18  20274522.747 7 108226726.194 7     -2727.399          46.000  
R19  18800222.417 5 100568503.347 5      -607.085          33.000  
E11  24943926.542 6 131081215.880 6     -2434.706          39.000  
E25  24179550.047 5 127064424.306 5     -2182.305          35.000  
E30  25277079.084 7 132831942.576 7      2450.912          44.000  
J 2  36900214.378 6 193911935.79026       732.574          40.000  
J 3  37433069.498 7 196712108.23227      -543.686          45.000  
J 4  36577532.351 5 192216220.903 5       308.692          30.000  
> 2024 11 28 13  0 13.1970000  0 21                     
G 2  20255726.886 7 106444553.387 7     -1808.230          46.000  
G 3  21026257.566 6 110493720.291 6      2889.827          36.000  
G 8  22648068.849 5 119016366.52925     -2516.798          31.000  
G14  19664166.459 7 103335939.521 7      1664.594          43.000  
G17  21325656.641 6 112067044.927 6      1827.614          41.000  
G21  21330310.369 7 112091545.403 7     -2909.300          44.000  
G22  21488204.075 7 112921277.783 7      2532.800          46.000  
G30  22040541.508 6 115823842.863 6     -2332.407          38.000  
R 2  22932564.710 4 122372096.374 4       -62.012          26.000  
R 3  22498679.953 4 120437184.04424      2536.761          29.000  
R 9  18766667.244 7 100212890.638 7      1144.544          44.000  
R10  21721157.369 4 115785967.95224      3777.203          28.000  
R16  19447843.485 6 103886776.730 6     -3154.685          40.000  
R18  20274624.970 7 108227271.647 7     -2727.413          45.000  
R19  18800244.927 5 100568624.721 5      -607.332          33.000  
E11  24944019.150 6 131081702.778 6     -2434.671          39.000  
E25  24179633.320 5 127064860.710 5     -2181.878          35.000  
E30  25276985.725 7 132831452.412 7      2450.965          44.000  
J 2  36900186.545 6 193911788.76216       732.885          40.000  
J 3  37433090.299 7 196712216.94227      -543.512          45.000  
J 4  36577521.217 5 192216159.108 5       309.466          30.000  
> 2024 11 28 13  0 13.3970000  0 21                     
G 2  20255795.622 7 106444915.039 7     -1808.203          46.000  
G 3  21026147.699 6 110493142.464 6      2889.247          36.000  
G 8  22648167.304 5 119016869.75525     -2516.076          31.000  
G14  19664103.237 7 103335606.668 7      1664.023          43.000  
G17  21325587.067 6 112066679.378 6      1827.789          40.000  
G21  21330421.074 7 112092127.296 7     -2909.486          44.000  
G22  21488107.698 7 112920771.255 7      2532.868          46.000  
G30  22040630.242 6 115824309.447 6     -2332.488          38.000  
R 2  22932567.677 4 122372108.892 4       -62.775          26.000  
R 3  22498582.650 4 120436676.74224      2536.387          29.000  
R 9  18766624.525 7 100212661.739 7      1144.234          44.000  
R10  21721017.505 4 115785212.49924      3777.190          28.000  
R16  19447960.367 6 103887407.763 6     -3155.020          40.000  
R18  20274727.264 7 108227817.120 7     -2727.353          45.000  
R19  18800267.560 5 100568746.126 5      -607.158          34.000  
E11  24944111.723 6 131082189.679 6     -2434.272          39.000  
E25  24179716.243 5 127065297.134 5     -2181.911          35.000  
E30  25276892.471 7 132830962.262 7      2450.924          43.000  
J 2  36900158.642 6 193911642.291 6       732.316          40.000  
J 3  37433110.925 7 196712325.66727      -543.741          45.000  
J 4  36577510.084 5 192216097.464 5       308.383          30.000  
> 2024 11 28 13  0 13.5970000  0 21                     
G 2  20255864.446 7 106445276.690 7     -1808.324          46.000  
G 3  21026037.850 6 110492564.558 6      2889.495          36.000  
G 8  22648262.512 5 119017372.99325     -2515.997          31.000  
G14  19664039.840 7 103335273.773 7      1664.292          43.000  
G17  21325517.475 6 112066313.766 6      1827.753          40.000  
G21  21330531.813 7 112092709.126 7     -2909.291          45.000  
G22  21488011.198 7 112920264.675 7      2532.751          45.000  
G30  22040719.099 6 115824776.014 6     -2332.782          38.000  
R 2  22932567.642 4 122372121.324 4       -62.146          27.000  
R 3  22498486.726 4 120436169.40624      2536.750          29.000  
R 9  18766581.598 7 100212432.823 7      1144.547          43.000  
R10  21720876.542 4 115784457.00424      3777.530          28.000  
R16  19448079.116 6 103888038.749 6     -3155.346          40.000  
R18  20274829.644 7 108228362.550 7     -2727.336          45.000  
R19  18800290.211 5 100568867.519 5      -607.422          34.000  
E11  24944204.419 6 131082676.580 6     -2434.700          39.000  
E25  24179799.306 6 127065733.543 6     -2182.036          36.000  
E30  25276799.147 7 132830472.087 7      2450.954          43.000  
J 2  36900130.757 6 193911495.713 6       732.575          39.000  
J 3  37433131.499 7 196712434.33827      -543.304          45.000  
J 4  36577498.323 5 192216035.677 5       309.236          30.000  
> 2024 11 28 13  0 13.7970000  0 21                     
G 2  20255933.287 7 106445638.349 7     -1808.488          46.000  
G 3  21025927.949 6 110491986.664 6      2889.366          36.000  
G 8  22648358.855 5 119017876.29525     -2516.164          31.000  
G14  19663976.478 7 103334940.940 7      1664.011          43.000  
G17  21325447.779 6 112065948.208 6      1827.774          40.000  
G21  21330642.796 7 112093290.995 7     -2909.396          45.000  
G22  21487914.855 7 112919758.132 7      2532.715          46.000  
G30  22040807.955 6 115825242.609 6     -2333.299          38.000  
R 2  22932568.741 4 122372133.862 4       -62.689          27.000  
R 3  22498390.297 4 120435662.08424      2536.467          29.000  
R 9  18766538.653 7 100212203.976 7      1143.925          43.000  
R10  21720736.103 4 115783701.58524      3777.205          28.000  
R16  19448197.463 6 103888669.788 6     -3155.213          40.000  
R18  20274931.955 7 108228908.009 7     -2727.376          45.000  
R19  18800312.983 5 100568988.896 5      -607.047          34.000  
E11  24944297.132 6 131083163.487 6     -2434.748          38.000  
E25  24179882.474 6 127066169.972 6     -2182.149          36.000  
E30  25276705.789 7 132829981.952 7      2450.680          43.000  
J 2  36900102.941 6 193911349.183 6       732.817          39.000  
J 3  37433152.072 7 196712543.05027      -543.561          45.000  
J 4  36577486.544 5 192215973.941 5       308.663          30.000  
> 2024 11 28 13  0 13.9970000  0 21                     
G 2  20256002.041 7 106446000.079 7     -1808.898          46.000  
G 3  21025818.135 6 110491408.879 6      2888.957          36.000  
G 8  22648453.871 5 119018379.57025     -2516.051          31.000  
G14  19663913.151 7 103334608.178 7      1663.578          43.000  
G17  21325378.257 6 112065582.727 6      1827.276          40.000  
G21  21330753.587 7 112093872.919 7     -2909.932          44.000  
G22  21487818.530 7 112919251.670 7      2532.127          46.000  
G30  22040896.812 6 115825709.249 6     -2333.801          38.000  
R 2  22932571.167 4 122372146.524 4       -63.519          27.000  
R 3  22498293.727 4 120435154.96124      2535.501          28.000  
R 9  18766495.743 7 100211975.199 7      1143.582          43.000  
R10  21720595.419 4 115782946.24624      3776.528          28.000  
R16  19448316.142 6 103889300.930 6     -3155.890          40.000  
R18  20275034.178 7 108229453.537 7     -2727.657          44.000  
R19  18800335.599 5 100569110.410 5      -608.110          35.000  
E11  24944389.705 6 131083650.462 6     -2435.090          38.000  
E25  24179965.572 6 127066606.447 6     -2182.222          36.000  
E30  25276612.482 7 132829491.860 7      2450.193          43.000  
J 2  36900075.108 6 193911202.743 6       732.120          39.000  
J 3  37433172.646 7 196712651.81227      -543.954          45.000  
J 4  36577475.184 4 192215912.273 4       308.093          29.000  
> 2024 11 28 13  0 14.1970000  0 21                     
G 2  20256070.934 7 106446361.821 7     -1808.596          47.000  
G 3  21025708.251 6 110490831.117 6      2888.815          36.000  
G 8  22648549.010 5 119018882.90325     -2516.517          32.000  
G14  19663849.755 7 103334275.427 7      1663.739          43.000  
G17  21325308.631 6 112065217.219 6      1827.747          40.000  
G21  21330864.396 7 112094454.868 7     -2909.857          44.000  
G22  21487722.205 7 112918745.201 7      2532.509          46.000  
G30  22040985.721 6 115826175.944 6     -2333.485          38.000  
R 2  22932578.024 4 122372159.198 4       -63.251          27.000  
R 3  22498198.763 4 120434647.79924      2535.810          29.000  
R 9  18766452.885 7 100211746.480 7      1143.580          43.000  
R10  21720454.509 4 115782190.95124      3776.432          28.000  
R16  19448434.576 6 103889932.088 6     -3155.791          40.000  
R18  20275136.524 7 108229999.059 7     -2727.442          44.000  
R19  18800358.266 5 100569231.872 5      -606.776          35.000  
E11  24944482.453 6 131084137.445 6     -2434.912          38.000  
E25  24180048.513 6 127067042.984 6     -2182.504          36.000  
E30  25276519.176 7 132829001.780 7      2450.531          43.000  
J 2  36900047.310 6 193911056.282 6       732.383          39.000  
J 3  37433193.447 7 196712760.58127      -543.717          45.000  
J 4  36577463.509 4 192215850.591 4       308.565          29.000  
> 2024 11 28 13  0 14.3970000  0 22                     
G 2  20256139.793 7 106446723.585 7     -1809.007          47.000  
G 3  21025598.419 6 110490253.373 6      2888.602          36.000  
G 7  23018475.879 5               5     -3121.484          31.000  
G 8  22648642.822 5 119019386.20125     -2516.091          32.000  
G14  19663786.568 7 103333942.703 7      1663.678          43.000  
G17  21325239.039 6 112064851.743 6      1827.412          40.000  
G21  21330975.292 7 112095036.796 7     -2909.688          44.000  
G22  21487626.002 7 112918238.760 7      2532.279          46.000  
G30  22041074.490 6 115826642.599 6     -2333.379          36.000  
R 2  22932582.911 4 122372171.791 4       -62.274          26.000  
R 3  22498103.973 4 120434140.57924      2536.287          29.000  
R 9  18766409.992 7 100211517.768 7      1143.409          43.000  
R10  21720311.783 4 115781435.57924      3777.290          28.000  
R16  19448552.924 6 103890563.267 6     -3155.964          40.000  
R18  20275238.677 7 108230544.585 7     -2727.596          44.000  
R19  18800380.934 5 100569353.410 5      -607.269          35.000  
E11  24944575.027 6 131084624.404 6     -2434.867          38.000  
E25  24180131.558 6 127067479.523 6     -2182.893          36.000  
E30  25276426.027 7 132828511.697 7      2450.466          43.000  
J 2  36900019.302 6 193910909.819 6       732.225          39.000  
J 3  37433214.143 7 196712869.33027      -543.749          45.000  
J 4  36577450.579 4 192215788.973 4       307.182          29.000  
> 2024 11 28 13  0 14.5970000  0 22                     
G 2  20256208.739 7 106447085.260 7     -1808.358          47.000  
G 3  21025488.395 5 110489675.551 5      2889.491          35.000  
G 7  23018596.006 5               5     -3126.172          32.000  
G 8  22648736.303 5 119019889.43125     -2516.133          32.000  
G14  19663723.276 7 103333609.920 7      1663.730          43.000  
G17  21325169.518 6 112064486.197 6      1827.852          40.000  
G21  21331086.084 7 112095618.668 7     -2909.323          44.000  
G22  21487529.677 7 112917732.240 7      2532.350          46.000  
G30  22041163.190 5 115827109.228 5     -2332.690          33.000  
R 2  22932585.860 4               4       -59.990          26.000  
R 3  22498008.346 4 120433633.42524      2535.827          29.000  
R 9  18766367.117 7 100211289.037 7      1143.777          43.000  
R10  21720170.995 4 115780680.21424      3776.839          28.000  
R16  19448671.254 6 103891194.361 6     -3155.594          40.000  
R18  20275340.866 7 108231090.032 7     -2727.304          44.000  
R19  18800403.602 5 100569474.871 5      -606.883          35.000  
E11  24944667.652 6 131085111.319 6     -2434.571          38.000  
E25  24180214.621 5 127067915.970 5     -2182.082          35.000  
E30  25276332.930 7 132828021.546 7      2450.754          44.000  
J 2  36899991.277 6 193910763.266 6       732.773          39.000  
J 3  37433234.944 7 196712978.01927      -543.635          45.000  
J 4  36577438.748 4 192215727.072 4       309.697          28.000  
> 2024 11 28 13  0 14.7970000  0 22                     
G 2  20256277.527 7 106447447.018 7     -1808.975          47.000  
G 3  21025378.546 5 110489097.812 5      2888.628          32.000  
G 7  23018716.395 5               5     -3124.121          32.000  
G 8  22648831.494 5 119020392.70125     -2515.187          32.000  
G14  19663660.019 7 103333277.211 7      1663.333          43.000  
G17  21325100.031 6 112064120.656 6      1827.615          40.000  
G21  21331196.910 7 112096200.620 7     -2909.986          44.000  
G22  21487433.351 7 112917225.786 7      2531.919          46.000  
G30  22041251.889 4 115827575.900 4     -2333.693          28.000  
R 2  22932591.322 4               4       -59.207          25.000  
R 3  22497912.143 4 120433126.29624      2535.964          29.000  
R 9  18766324.242 7 100211060.386 7      1142.996          43.000  
R10  21720028.392 4 115779924.91324      3776.499          28.000  
R16  19448789.479 6 103891825.566 6     -3156.468          40.000  
R18  20275443.141 7 108231635.574 7     -2727.736          44.000  
R19  18800426.322 5 100569596.430 5      -608.288          35.000  
E11  24944760.313 6 131085598.284 6     -2434.924          38.000  
E25  24180297.545 5 127068352.502 5     -2182.759          35.000  
E30  25276239.868 7 132827531.444 7      2450.300          44.000  
J 2  36899963.339 6 193910616.760 6       732.220          39.000  
J 3  37433255.674 7 196713086.75227      -543.914          45.000  
J 4  36577426.916 4 192215665.396 4       308.111          28.000  
> 2024 11 28 13  0 14.9970000  0 22                     
G 2  20256346.508 7 106447808.780 7     -1808.740          47.000  
G 3  21025268.697 5 110488520.086 5      2888.277          33.000  
G 7  23018839.384 5 120964796.26935     -3126.147          33.000  
G 8  22648927.051 5 119020896.04825     -2516.787          31.000  
G14  19663596.692 7 103332944.503 7      1663.599          43.000  
G17  21325030.457 6 112063755.200 6      1827.458          40.000  
G21  21331307.737 7 112096782.540 7     -2909.899          44.000  
G22  21487337.061 7 112916719.337 7      2532.222          46.000  
G30  22041340.048 4 115828042.627 4     -2333.598          28.000  
R 2  22932595.562 4               4       -59.207          24.000  
R 3  22497819.430 4 120432619.12824      2535.480          29.000  
R 9  18766281.472 7 100210831.765 7      1143.376          43.000  
R10  21719885.457 4 115779169.58124      3776.673          28.000  
R16  19448907.669 6 103892456.784 6     -3155.922          40.000  
R18  20275545.260 7 108232181.105 7     -2727.814          44.000  
R19  18800449.008 5 100569717.958 5      -607.716          35.000  
E11  24944853.061 6 131086085.257 6     -2434.896          39.000  
E25  24180380.573 5 127068789.013 5     -2182.515          35.000  
E30  25276146.596 7 132827041.368 7      2450.456          44.000  
J 2  36899935.559 6 193910470.256 6       732.715          39.000  
J 3  37433276.335 7 196713195.48827      -543.422          45.000  
J 4  36577414.963 4 192215603.713 4       308.402          28.000  
> 2024 11 28 13  0 15.1970000  0 22                     
G 2  20256415.402 7 106448170.573 7     -1808.898          47.000  
G 3  21025158.796 5 110487942.378 5      2889.074          33.000  
G 7  23018961.867 5 120965421.42925     -3125.720          33.000  
G 8  22649022.382 5 119021399.34425     -2516.480          31.000  
G14  19663533.348 7 103332611.849 7      1663.052          43.000  
G17  21324960.900 6 112063389.724 6      1827.372          41.000  
G21  21331418.511 7 112097364.473 7     -2909.443          44.000  
G22  21487240.718 7 112916212.901 7      2532.326          46.000  
G30  22041429.654 4 115828509.257 4     -2333.034          27.000  
R 2  22932600.972 4               4       -61.384          24.000  
R 3  22497723.210 5 120432112.00925      2535.932          30.000  
R 9  18766238.457 7 100210603.165 7      1143.021          42.000  
R10  21719744.093 4 115778414.30624      3776.642          28.000  
R16  19449025.790 6 103893088.066 6     -3156.121          40.000  
R18  20275647.291 7 108232726.618 7     -2727.604          44.000  
R19  18800471.798 5 100569839.552 5      -608.138          35.000  
E11  24944945.861 6 131086572.231 6     -2434.887          39.000  
E25  24180463.671 5 127069225.562 5     -2182.742          35.000  
E30  25276053.412 7 132826551.292 7      2450.374          44.000  
J 2  36899907.656 6 193910323.798 6       732.678          40.000  
J 3  37433297.066 7 196713304.22227      -543.447          45.000  
J 4  36577403.969 4 192215542.078 4       307.968          28.000  
> 2024 11 28 13  0 15.3970000  0 22                     
G 2  20256484.365 7 106448532.374 7     -1809.402          47.000  
G 3  21025049.104 5 110487364.662 5      2888.511          33.000  
G 7  23019078.906 5 120966046.58325     -3125.458          33.000  
G 8  22649119.108 5 119021902.73425     -2518.281          31.000  
G14  19663470.056 7 103332279.201 7      1662.886          44.000  
G17  21324891.449 6 112063024.211 6      1827.320          41.000  
G21  21331529.197 7 112097946.419 7     -2909.684          44.000  
G22  21487144.428 7 112915706.475 7      2532.024          46.000  
G30  22041519.750 4 115828975.972 4     -2333.678          27.000  
R 2  22932605.858 3               3       -61.384          23.000  
R 3  22497628.577 5 120431604.93925      2535.166          30.000  
R 9  18766195.651 7 100210374.621 7      1142.428          42.000  
R10  21719603.025 4 115777659.04324      3776.472          28.000  
R16  19449144.085 6 103893719.348 6     -3156.666          40.000  
R18  20275749.463 7 108233272.135 7     -2727.625          44.000  
R19  18800494.622 5 100569961.124 5      -608.194          35.000  
E11  24945038.400 6 131087059.210 6     -2435.315          39.000  
E25  24180547.083 5 127069662.112 5     -2183.039          35.000  
E30  25275960.001 7 132826061.219 7      2450.237          43.000  
J 2  36899879.700 6 193910177.317 6       732.174          40.000  
J 3  37433317.762 7 196713412.95827      -543.797          45.000  
J 4  36577391.964 4 192215480.288 4       308.947          28.000  
> 2024 11 28 13  0 15.5970000  0 22                     
G 2  20256553.136 7 106448894.178 7     -1808.990          47.000  
G 3  21024939.063 5 110486786.979 5      2888.585          33.000  
G 7  23019197.428 5 120966671.66525     -3125.067          33.000  
G 8  22649212.415 5 119022406.03125     -2517.693          31.000  
G14  19663406.833 7 103331946.588 7      1663.160          44.000  
G17  21324821.927 6 112062658.736 6      1827.572          41.000  
G21  21331640.041 7 112098528.392 7     -2909.666          44.000  
G22  21487048.051 7 112915200.070 7      2532.154          46.000  
G30  22041607.402 4 115829442.772 4     -2333.999          27.000  
R 2  22932609.819 3               3       -64.725          23.000  
R 3  22497533.578 5 120431097.84625      2535.728          30.000  
R 9  18766152.637 7 100210146.139 7      1142.376          43.000  
R10  21719461.923 4 115776903.88224      3774.959          29.000  
R16  19449262.293 6 103894350.658 6     -3156.757          40.000  
R18  20275851.668 7 108233817.711 7     -2727.659          45.000  
R19  18800517.343 5 100570082.716 5      -607.353          35.000  
E11  24945131.060 6 131087546.194 6     -2434.894          39.000  
E25  24180630.320 5 127070098.673 5     -2182.424          35.000  
E30  25275866.765 7 132825571.154 7      2450.434          43.000  
J 2  36899851.867 6 193910030.847 6       732.093          40.000  
J 3  37433338.336 7 196713521.69427      -543.369          45.000  
J 4  36577381.406 4 192215418.714 4       308.067          28.000  
> 2024 11 28 13  0 15.7970000  0 22                     
G 2  20256622.047 7 106449256.011 7     -1809.384          46.000  
G 3  21024829.248 5 110486209.321 5      2887.802          33.000  
G 7  23019314.868 4 120967296.85624     -3127.216          28.000  
G 8  22649307.954 5 119022909.29125     -2515.870          31.000  
G14  19663343.646 7 103331614.007 7      1662.496          44.000  
G17  21324752.370 7 112062293.290 7      1827.186          42.000  
G21  21331750.885 7 112099110.387 7     -2910.337          44.000  
G22  21486951.743 7 112914693.685 7      2531.721          46.000  
G30  22041695.142 5 115829909.575 5     -2334.304          35.000  
R 2  22932612.419 3               3       -59.791          23.000  
R 3  22497438.492 5 120430590.74125      2535.124          30.000  
R 9  18766109.727 7 100209917.668 7      1142.030          43.000  
R10  21719320.768 4 115776148.57524      3776.454          29.000  
R16  19449380.605 6 103894982.008 6     -3156.932          40.000  
R18  20275953.979 7 108234363.281 7     -2728.073          45.000  
R19  18800540.115 5 100570204.365 5      -607.711          35.000  
E11  24945223.721 6 131088033.203 6     -2435.042          39.000  
E25  24180713.663 5 127070535.278 5     -2183.415          35.000  
E30  25275773.493 7 132825081.115 7      2449.957          43.000  
J 2  36899823.947 6 193909884.367 6       732.330          40.000  
J 3  37433359.032 7 196713630.46227      -544.111          45.000  
J 4  36577370.744 4 192215356.993 4       308.697          29.000  
> 2024 11 28 13  0 15.9970000  0 22                     
G 2  20256690.923 7 106449617.832 7     -1809.149          46.000  
G 3  21024719.434 5 110485631.692 5      2887.962          33.000  
G 7  23019446.076 4               4     -3125.847          27.000  
G 8  22649405.850 5 119023412.69825     -2517.185          30.000  
G14  19663280.354 7 103331281.409 7      1662.790          44.000  
G17  21324682.726 7 112061927.819 7      1827.253          43.000  
G21  21331861.711 7 112099692.311 7     -2909.642          44.000  
G22  21486855.487 7 112914187.280 7      2532.001          46.000  
G30  22041784.225 6 115830376.314 6     -2333.907          38.000  
R 2  22932614.321 3               3       -65.644          22.000  
R 3  22497345.255 5 120430083.66525      2535.657          30.000  
R 9  18766066.816 7 100209689.225 7      1142.103          43.000  
R10  21719181.114 4 115775393.36424      3776.702          29.000  
R16  19449498.918 6 103895613.362 6     -3156.715          40.000  
R18  20276056.080 7 108234908.822 7     -2727.772          45.000  
R19  18800562.888 5 100570325.996 5      -607.978          35.000  
E11  24945316.539 6 131088520.176 6     -2434.828          39.000  
E25  24180796.708 5 127070971.865 5     -2183.059          35.000  
E30  25275680.135 7 132824591.044 7      2450.221          42.000  
J 2  36899796.149 6 193909737.879 6       732.414          40.000  
J 3  37433379.658 7 196713739.17527      -543.692          45.000  
J 4  36577359.436 5 192215295.309 5       307.905          30.000  
> 2024 11 28 13  0 16.1970000  0 22                     
G 2  20256759.851 7 106449979.707 7     -1809.455          46.000  
G 3  21024609.515 5 110485054.075 5      2888.432          34.000  
G 7  23019567.791 4               4     -3125.057          27.000  
G 8  22649501.966 5 119023916.02225     -2517.029          30.000  
G14  19663217.150 7 103330948.863 7      1662.929          44.000  
G17  21324613.275 7 112061562.370 7      1827.467          43.000  
G21  21331972.625 7 112100274.330 7     -2909.848          44.000  
G22  21486759.110 7 112913680.935 7      2531.879          46.000  
G30  22041875.734 6 115830843.095 6     -2333.498          38.000  
R 2  22932618.352 3               3       -66.154          23.000  
R 3  22497249.489 5 120429576.65325      2535.629          30.000  
R 9  18766024.098 7 100209460.842 7      1141.666          44.000  
R10  21719038.877 4 115774638.215 4      3775.730          29.000  
R16  19449617.143 6 103896244.783 6     -3157.155          40.000  
R18  20276158.251 7 108235454.411 7     -2727.923          45.000  
R19  18800585.556 5 100570447.698 5      -608.287          34.000  
E11  24945409.182 6 131089007.208 6     -2435.179          39.000  
E25  24180879.579 5 127071408.497 5     -2183.430          35.000  
E30  25275586.793 6 132824101.002 6      2450.472          40.000  
J 2  36899768.194 6 193909591.430 6       732.388          40.000  
J 3  37433400.389 7 196713847.93027      -543.506          45.000  
J 4  36577348.879 5 192215233.625 5       308.080          30.000  
> 2024 11 28 13  0 16.3970000  0 22                     
G 2  20256828.675 7 106450341.529 7     -1809.303          46.000  
G 3  21024499.683 5 110484476.448 5      2887.991          34.000  
G 7  23019684.917 4               4     -3125.589          27.000  
G 8  22649597.488 5 119024419.30725     -2515.496          30.000  
G14  19663153.770 7 103330616.284 7      1662.927          44.000  
G17  21324543.770 7 112061196.877 7      1827.506          43.000  
G21  21332083.294 7 112100856.253 7     -2909.593          44.000  
G22  21486662.628 7 112913174.533 7      2531.881          46.000  
G30  22041960.420 5 115831309.937 5     -2334.131          35.000  
R 2  22932621.877 3               3       -67.100          23.000  
R 3  22497154.908 5 120429069.69925      2533.679          30.000  
R 9  18765981.345 7 100209232.411 7      1142.015          45.000  
R10  21718896.396 4 115773882.958 4      3776.399          29.000  
R16  19449735.420 6 103896876.155 6     -3156.880          40.000  
R18  20276260.510 7 108235999.942 7     -2727.742          45.000  
R19  18800608.223 5 100570569.316 5      -607.732          34.000  
E11  24945501.738 6 131089494.166 6     -2434.895          39.000  
E25  24180962.520 5 127071845.066 5     -2182.621          35.000  
E30  25275493.609 6 132823610.922 6      2450.346          41.000  
J 2  36899740.413 6 193909444.908 6       732.692          40.000  
J 3  37433421.172 7 196713956.63627      -543.450          45.000  
J 4  36577338.025 5 192215171.875 5       308.869          31.000  
> 2024 11 28 13  0 16.5970000  0 23                     
G 2  20256897.534 7 106450703.396 7     -1809.390          47.000  
G 3  21024389.887 5 110483898.848 5      2887.897          34.000  
G 7  23019798.658 5               5     -3126.849          32.000  
G 8  22649691.091 5 119024922.69025     -2516.963          30.000  
G14  19663090.531 7 103330283.761 7      1662.745          44.000  
G17  21324474.214 7 112060831.426 7      1827.284          43.000  
G19  23756553.464 4               4      2794.825          28.000  
G21  21332194.085 7 112101438.246 7     -2909.981          44.000  
G22  21486566.215 7 112912668.163 7      2531.940          46.000  
G30  22042051.824 5 115831776.815 5     -2334.809          35.000  
R 2  22932623.273 3               3       -61.690          23.000  
R 3  22497059.456 5 120428562.68625      2534.673          30.000  
R 9  18765938.610 7 100209004.078 7      1141.880          45.000  
R10  21718754.613 4 115773127.809 4      3775.713          29.000  
R16  19449853.750 6 103897507.582 6     -3156.886          40.000  
R18  20276362.838 7 108236545.487 7     -2727.605          44.000  
R19  18800631.013 5 100570691.020 5      -607.959          34.000  
E11  24945594.556 6 131089981.187 6     -2434.966          39.000  
E25  24181045.670 5 127072281.695 5     -2183.552          35.000  
E30  25275400.443 6 132823120.886 6      2450.303          41.000  
J 2  36899712.562 6 193909298.435 6       732.499          40.000  
J 3  37433441.694 7 196714065.36727      -543.483          45.000  
J 4  36577325.391 5 192215110.170 5       308.503          31.000  
> 2024 11 28 13  0 16.7970000  0 23                     
G 2  20256966.357 7 106451065.227 7     -1809.426          47.000  
G 3  21024280.072 5 110483321.185 5      2887.830          35.000  
G 7  23019920.041 5 120970482.86335     -3126.056          35.000  
G 8  22649790.174 5 119025425.92825     -2515.338          30.000  
G14  19663027.239 7 103329951.215 7      1662.490          44.000  
G17  21324404.657 7 112060465.937 7      1827.217          43.000  
G19  23756444.697 4               4      2794.825          28.000  
G21  21332304.772 7 112102020.186 7     -2909.904          44.000  
G22  21486470.030 7 112912161.767 7      2531.892          46.000  
G30  22042141.571 5 115832243.581 5     -2334.206          35.000  
R 2  22932625.437 4               4       -62.598          24.000  
R 3  22496963.759 5 120428055.66425      2535.422          30.000  
R 9  18765895.787 7 100208775.730 7      1141.266          45.000  
R10  21718613.668 4 115772372.564 4      3776.149          29.000  
R16  19449971.906 6 103898139.020 6     -3157.436          41.000  
R18  20276465.078 7 108237091.029 7     -2727.943          45.000  
R19  18800653.768 5 100570812.693 5      -608.395          34.000  
E11  24945687.303 6 131090468.109 6     -2434.646          39.000  
E25  24181128.733 6 127072718.242 6     -2183.047          36.000  
E30  25275307.328 6 132822630.781 6      2450.395          40.000  
J 2  36899684.729 6 193909151.921 6       732.269          40.000  
J 3  37433462.337 7 196714174.05127      -543.748          45.000  
J 4  36577314.223 5 192215048.403 5       308.408          31.000  
> 2024 11 28 13  0 16.9970000  0 23                     
G 2  20257035.321 7 106451427.079 7     -1809.070          47.000  
G 3  21024170.188 5 110482743.613 5      2888.078          35.000  
G 7  23020039.506 5 120971108.05525     -3125.586          35.000  
G 8  22649886.918 5 119025929.30925     -2516.944          30.000  
G14  19662963.825 7 103329618.687 7      1662.974          44.000  
G17  21324335.013 7 112060100.423 7      1827.753          43.000  
G19  23756336.994 4               4      2794.825          28.000  
G21  21332415.424 7 112102602.147 7     -2909.561          44.000  
G22  21486373.879 7 112911655.393 7      2532.136          46.000  
G30  22042229.537 6 115832710.357 6     -2333.754          37.000  
R 2  22932627.793 4               4       -65.587          25.000  
R 3  22496870.016 5 120427548.66225      2534.940          30.000  
R 9  18765853.069 7 100208547.400 7      1141.792          45.000  
R10  21718470.698 4 115771617.429 4      3775.788          29.000  
R16  19450090.288 6 103898770.453 6     -3156.865          41.000  
R18  20276567.215 7 108237636.540 7     -2727.418          45.000  
R19  18800676.558 5 100570934.381 5      -608.616          34.000  
E11  24945779.842 6 131090955.089 6     -2434.467          39.000  
E25  24181212.023 6 127073154.853 6     -2182.687          36.000  
E30  25275214.231 6 132822140.730 6      2450.458          40.000  
J 2  36899656.791 6 193909005.383 6       732.999          40.000  
J 3  37433482.998 7 196714282.74227      -543.234          45.000  
J 4  36577297.610 5 192214986.673 5       308.270          31.000  
> 2024 11 28 13  0 17.1970000  0 23                     
G 2  20257104.231 7 106451788.909 7     -1809.394          47.000  
G 3  21024060.287 5 110482166.013 5      2887.413          35.000  
G 7  23020156.963 5 120971733.14925     -3125.604          35.000  
G 8  22649979.840 5               5     -2517.882          30.000  
G14  19662900.515 7 103329286.158 7      1662.387          44.000  
G17  21324265.509 7 112059734.941 7      1827.093          43.000  
G19  23756231.979 4               4      2794.825          28.000  
G21  21332526.163 7 112103184.069 7     -2909.988          44.000  
G22  21486277.449 7 112911148.979 7      2531.886          46.000  
G30  22042318.917 6 115833177.126 6     -2334.115          37.000  
R 2  22932632.469 4               4       -64.410          26.000  
R 3  22496774.982 4 120427041.67424      2534.930          29.000  
R 9  18765810.124 7 100208319.090 7      1141.494          45.000  
R10  21718328.863 4 115770862.158 4      3776.498          29.000  
R16  19450208.478 6 103899401.903 6     -3157.690          41.000  
R18  20276669.455 7 108238182.052 7     -2727.633          45.000  
R19  18800699.261 5 100571056.055 5      -608.525          34.000  
E11  24945872.555 6 131091442.034 6     -2434.882          39.000  
E25  24181294.999 6 127073591.392 6     -2182.596          36.000  
E30  25275120.942 6 132821650.629 6      2450.270          40.000  
J 2  36899628.906 6 193908858.857 6       732.396          40.000  
J 3  37433503.677 7 196714391.39327      -543.337          45.000  
J 4  36577287.245 5 192214924.816 5       308.242          31.000  
> 2024 11 28 13  0 17.3970000  0 23                     
G 2  20257173.003 7 106452150.752 7     -1809.415          47.000  
G 3  21023950.386 5 110481588.367 5      2887.443          35.000  
G 7  23020278.015 5 120972358.17625     -3124.469          35.000  
G 8  22650075.502 5               5     -2515.765          30.000  
G14  19662837.328 7 103328953.628 7      1662.424          44.000  
G17  21324196.057 7 112059369.390 7      1827.735          43.000  
G19  23756130.733 4               4      2793.359          28.000  
G21  21332636.955 7 112103765.998 7     -2909.794          44.000  
G22  21486181.054 7 112910642.569 7      2532.010          46.000  
G30  22042410.583 5 115833643.949 5     -2334.472          35.000  
R 2  22932636.413 4               4       -65.900          26.000  
R 3  22496684.049 5 120426534.64925      2534.969          30.000  
R 9  18765767.301 7 100208090.807 7      1141.377          45.000  
R10  21718186.487 4 115770107.048 4      3775.360          29.000  
R16  19450326.826 6 103900033.337 6     -3157.230          41.000  
R18  20276771.696 7 108238727.559 7     -2727.707          45.000  
R19  18800722.051 5 100571177.771 5      -609.334          34.000  
E11  24945965.216 6 131091928.960 6     -2434.463          39.000  
E25  24181378.080 6 127074027.986 6     -2182.818          36.000  
E30  25275027.619 6 132821160.528 6      2450.401          40.000  
J 2  36899600.986 6 193908712.299 6       732.466          40.000  
J 3  37433524.390 7 196714500.04727      -543.330          45.000  
J 4  36577274.489 5 192214863.028 5       308.723          31.000  
> 2024 11 28 13  0 17.5970000  0 23                     
G 2  20257241.861 7 106452512.553 7     -1808.595          47.000  
G 3  21023840.501 5 110481010.687 5      2888.074          34.000  
G 7  23020399.765 6 120972983.32026     -3125.244          37.000  
G 8  22650170.536 5               5     -2516.732          30.000  
G14  19662774.071 7 103328621.089 7      1663.115          44.000  
G17  21324126.448 7 112059003.859 7      1827.927          43.000  
G19  23756024.496 4               4      2795.379          28.000  
G21  21332747.781 7 112104347.896 7     -2908.949          44.000  
G22  21486084.659 7 112910136.156 7      2532.476          46.000  
G30  22042498.899 5 115834110.745 5     -2333.967          35.000  
R 2  22932643.236 4               4       -65.454          27.000  
R 3  22496589.102 5 120426027.66925      2534.643          30.000  
R 9  18765724.513 7 100207862.524 7      1141.800          45.000  
R10  21718043.604 4 115769351.800 4      3776.604          29.000  
R16  19450445.156 6 103900664.778 6     -3156.728          40.000  
R18  20276873.815 7 108239273.021 7     -2726.919          45.000  
R19  18800744.859 5 100571299.402 5      -607.999          34.000  
E11  24946057.876 6 131092415.874 6     -2434.291          39.000  
E25  24181461.247 6 127074464.516 6     -2182.469          36.000  
E30  25274934.347 6 132820670.401 6      2451.130          40.000  
J 2  36899573.118 6 193908565.689 6       733.471          40.000  
J 3  37433544.964 7 196714608.65627      -542.850          45.000  
J 4  36577263.739 4 192214801.143 4       309.596          25.000  
> 2024 11 28 13  0 17.7970000  0 23                     
G 2  20257310.668 7 106452874.369 7     -1809.489          47.000  
G 3  21023730.652 5 110480433.035 5      2888.233          34.000  
G 7  23020515.949 6 120973608.44626     -3125.836          37.000  
G 8  22650266.687 4               4     -2516.193          29.000  
G14  19662710.762 7 103328288.566 7      1662.208          44.000  
G17  21324056.874 7 112058638.311 7      1827.392          43.000  
G19  23755919.986 4               4      2795.776          28.000  
G21  21332858.502 7 112104929.787 7     -2909.740          44.000  
G22  21485988.316 7 112909629.740 7      2531.314          46.000  
G30  22042586.377 5 115834577.462 5     -2333.966          35.000  
R 2  22932648.925 4               4       -65.778          27.000  
R 3  22496492.603 5 120425520.67825      2533.421          30.000  
R 9  18765681.551 7 100207634.251 7      1140.819          44.000  
R10  21717903.409 5 115768596.551 5      3776.274          30.000  
R16  19450563.346 6 103901296.245 6     -3157.805          40.000  
R18  20276976.056 7 108239818.496 7     -2727.831          45.000  
R19  18800767.683 5 100571421.081 5      -608.849          34.000  
E11  24946150.432 6 131092902.792 6     -2435.198          39.000  
E25  24181544.607 6 127074901.075 6     -2182.756          36.000  
E30  25274841.093 6 132820180.260 6      2450.592          40.000  
J 2  36899545.215 6 193908419.119 6       732.373          40.000  
J 3  37433565.503 7 196714717.25527      -543.362          45.000  
J 4  36577250.966 4               4       313.957          25.000  
> 2024 11 28 13  0 17.9970000  0 23                     
G 2  20257379.387 7 106453236.207 7     -1808.831          47.000  
G 3  21023620.821 5 110479855.510 5      2888.165          34.000  
G 7  23020634.732 5 120974233.44025     -3124.402          30.000  
G 8  22650364.879 4 119028459.55434     -2516.339          29.000  
G14  19662647.505 7 103327956.063 7      1662.672          45.000  
G17  21323987.440 7 112058272.756 7      1827.796          43.000  
G19  23755816.419 4               4      2796.334          28.000  
G21  21332969.119 7 112105511.698 7     -2909.518          43.000  
G22  21485891.939 7 112909123.317 7      2532.373          46.000  
G30  22042677.170 5 115835044.195 5     -2333.086          34.000  
R 2  22932654.230 4 122372897.93034       -65.546          27.000  
R 3  22496397.133 5 120425013.71025      2534.841          30.000  
R 9  18765638.745 7 100207406.016 7      1141.436          44.000  
R10  21717761.644 5 115767841.413 5      3776.082          30.000  
R16  19450681.641 6 103901927.698 6     -3157.372          40.000  
R18  20277078.122 7 108240363.946 7     -2726.949          45.000  
R19  18800790.439 5 100571542.768 5      -608.238          34.000  
E11  24946243.075 6 131093389.663 6     -2434.202          39.000  
E25  24181627.670 6 127075337.703 6     -2182.915          36.000  
E30  25274747.944 6 132819690.150 6      2450.821          40.000  
J 2  36899517.364 6 193908272.521 6       733.006          40.000  
J 3  37433586.007 7 196714825.86627      -542.845          45.000  
J 4  36577238.890 4               4       307.727          24.000  
> 2024 11 28 13  0 18.1970000  0 23                     
G 2  20257448.315 7 106453598.066 7     -1808.893          47.000  
G 3  21023511.111 5 110479277.808 5      2888.677          34.000  
G 7  23020752.207 5 120974858.47825     -3126.422          30.000  
G 8  22650464.747 4 119028962.84524     -2516.092          29.000  
G14  19662584.108 7 103327623.570 7      1662.827          45.000  
G17  21323917.936 7 112057907.242 7      1828.136          43.000  
G19  23755713.899 4 124837098.22534      2794.593          29.000  
G21  21333079.701 7 112106093.596 7     -2909.020          43.000  
G22  21485795.352 7 112908616.919 7      2532.219          46.000  
G30  22042767.074 5 115835510.929 5     -2333.952          31.000  
R 2  22932658.819 4 122372911.00424       -65.009          27.000  
R 3  22496304.140 5 120424506.782 5      2535.059          30.000  
R 9  18765595.748 7 100207177.825 7      1141.328          44.000  
R10  21717621.187 5 115767086.270 5      3775.460          30.000  
R16  19450800.023 6 103902559.238 6     -3157.414          40.000  
R18  20277180.241 7 108240909.435 7     -2726.904          45.000  
R19  18800813.037 5 100571664.440 5      -607.596          34.000  
E11  24946335.788 6 131093876.604 6     -2434.415          39.000  
E25  24181710.820 6 127075774.275 6     -2182.839          36.000  
E30  25274654.655 6 132819200.043 6      2451.002          40.000  
J 2  36899489.426 6 193908125.42236       733.324          40.000  
J 3  37433606.808 7 196714934.48227      -542.612          45.000  
J 4  36577231.387 4               4       309.724          25.000  
> 2024 11 28 13  0 18.3970000  0 23                     
G 2  20257517.139 7 106453959.907 7     -1809.067          47.000  
G 3  21023401.280 5 110478700.253 5      2888.173          34.000  
G 7  23020874.795 5 120975483.42025     -3124.365          34.000  
G 8  22650556.867 4 119029465.96024     -2515.514          29.000  
G14  19662520.834 7 103327291.092 7      1662.286          45.000  
G17  21323848.397 7 112057541.681 7      1827.778          43.000  
G19  23755606.738 4               4      2796.206          29.000  
G21  21333190.406 7 112106675.497 7     -2909.408          44.000  
G22  21485698.992 7 112908110.518 7      2531.930          46.000  
G30  22042855.616 5 115835977.568 5     -2333.327          31.000  
R 2  22932662.606 4 122372924.16924       -65.717          27.000  
R 3  22496210.991 5 120423999.760 5      2534.885          30.000  
R 9  18765553.012 7 100206949.665 7      1140.734          44.000  
R10  21717479.648 5 115766331.064 5      3775.788          30.000  
R16  19450918.318 6 103903190.753 6     -3157.774          40.000  
R18  20277282.394 7 108241454.906 7     -2727.437          45.000  
R19  18800835.879 5 100571786.178 5      -608.637          34.000  
E11  24946428.449 6 131094363.490 6     -2434.568          39.000  
E25  24181793.761 6 127076210.852 6     -2183.179          36.000  
E30  25274561.436 6 132818709.897 6      2450.635          40.000  
J 2  36899461.611 6 193907978.82826       733.048          40.000  
J 3  37433627.416 7 196715043.06427      -542.938          45.000  
J 4  36577221.440 4               4       308.752          25.000  
> 2024 11 28 13  0 18.5970000  0 23                     
G 2  20257586.084 7 106454321.726 7     -1809.054          47.000  
G 3  21023291.448 5 110478122.669 5      2887.792          34.000  
G 7  23020994.922 6 120976108.54026     -3124.774          37.000  
G 8  22650653.733 4 119029969.29924     -2517.170          28.000  
G14  19662457.419 7 103326958.589 7      1662.320          45.000  
G17  21323778.840 7 112057176.109 7      1827.711          43.000  
G19  23755498.791 4 124835979.84324      2795.518          28.000  
G21  21333301.180 7 112107257.358 7     -2909.232          44.000  
G22  21485602.562 7 112907604.078 7      2532.276          46.000  
G30  22042943.478 5 115836444.387 5     -2334.337          34.000  
R 2  22932666.881 4 122372937.30924       -65.356          27.000  
R 3  22496115.120 5 120423492.808 5      2535.216          31.000  
R 9  18765510.312 7 100206721.498 7      1140.682          44.000  
R10  21717336.713 5 115765575.844 5      3776.179          30.000  
R16  19451036.509 6 103903822.243 6     -3157.532          40.000  
R18  20277384.496 7 108242000.334 7     -2727.210          45.000  
R19  18800858.651 5 100571907.851 5      -608.360          34.000  
E11  24946521.110 6 131094850.361 6     -2434.224          38.000  
E25  24181876.702 6 127076647.386 6     -2182.721          37.000  
E30  25274468.165 6 132818219.756 6      2450.851          41.000  
J 2  36899433.830 6 193907832.17126       733.383          40.000  
J 3  37433648.182 7 196715151.61827      -542.725          45.000  
J 4  36577208.317 4               4       309.951          26.000  
> 2024 11 28 13  0 18.7970000  0 23                     
G 2  20257654.978 7 106454683.558 7     -1809.121          47.000  
G 3  21023181.651 5 110477545.097 5      2888.082          35.000  
G 7  23021113.305 6 120976733.60726     -3125.360          37.000  
G 8  22650754.700 4 119030472.50624     -2515.946          28.000  
G14  19662394.250 7 103326626.101 7      1662.426          44.000  
G17  21323709.301 7 112056810.524 7      1827.992          43.000  
G19  23755389.866 4 124835420.61624      2796.027          28.000  
G21  21333412.006 7 112107839.238 7     -2909.329          44.000  
G22  21485506.132 7 112907097.668 7      2532.032          46.000  
G30  22043033.940 5 115836911.139 5     -2333.111          34.000  
R 2  22932671.645 4 122372950.50524       -66.168          27.000  
R 3  22496022.197 5 120422985.911 5      2534.720          31.000  
R 9  18765467.559 7 100206493.368 7      1140.544          44.000  
R10  21717195.262 5 115764820.659 5      3776.438          30.000  
R16  19451154.821 6 103904453.809 6     -3157.814          40.000  
R18  20277486.562 7 108242545.792 7     -2727.372          45.000  
R19  18800881.424 5 100572029.580 5      -608.514          34.000  
E11  24946613.770 6 131095337.255 6     -2434.291          38.000  
E25  24181959.835 6 127077083.964 6     -2182.643          37.000  
E30  25274374.736 6 132817729.620 6      2450.765          41.000  
J 2  36899405.927 6 193907685.54326       733.422          40.000  
J 3  37433668.826 7 196715260.18327      -542.851          45.000  
J 4  36577194.619 4 192214471.80534       309.139          27.000  
> 2024 11 28 13  0 18.9970000  0 23                     
G 2  20257723.732 7 106455045.433 7     -1809.414          47.000  
G 3  21023071.907 5 110476967.558 5      2887.072          34.000  
G 7  23021231.321 6 120977358.63926     -3125.024          37.000  
G 8  22650848.931 4 119030975.65524     -2515.685          28.000  
G14  19662331.080 7 103326293.685 7      1662.128          44.000  
G17  21323639.675 7 112056444.968 7      1828.007          43.000  
G19  23755281.256 4 124834861.53924      2795.155          28.000  
G21  21333522.762 7 112108421.138 7     -2909.552          44.000  
G22  21485409.702 7 112906591.277 7      2531.819          46.000  
G30  22043121.313 5 115837377.947 5     -2334.409          35.000  
R 2  22932675.920 4 122372963.70024       -66.412          27.000  
R 3  22495929.554 5 120422479.011 5      2534.614          32.000  
R 9  18765425.050 7 100206265.286 7      1140.441          44.000  
R10  21717052.885 5 115764065.573 5      3775.385          30.000  
R16  19451273.046 6 103905085.368 6     -3158.036          40.000  
R18  20277588.803 7 108243091.241 7     -2727.168          45.000  
R19  18800904.179 5 100572151.326 5      -608.471          34.000  
E11  24946706.274 6 131095824.157 6     -2434.689          38.000  
E25  24182043.003 6 127077520.536 6     -2182.815          37.000  
E30  25274281.639 6 132817239.495 6      2450.624          41.000  
J 2  36899378.094 6 193907538.92726       733.092          40.000  
J 3  37433689.609 7 196715368.76127      -542.765          45.000  
J 4  36577186.627 5 192214409.99225       308.785          32.000  
> 2024 11 28 13  0 19.1970000  0 23                     
G 2  20257792.730 7 106455407.344 7     -1809.994          46.000  
G 3  21022962.197 5 110476390.030 5      2886.881          34.000  
G 7  23021348.429 6 120977983.74426     -3125.977          37.000  
G 8  22650947.106 4 119031478.99724     -2517.040          28.000  
G14  19662267.823 7 103325961.312 7      1661.453          44.000  
G17  21323570.031 7 112056079.477 7      1827.231          44.000  
G19  23755172.629 4 124834302.38824      2795.237          27.000  
G21  21333633.414 7 112109003.087 7     -2910.148          44.000  
G22  21485313.569 7 112906084.940 7      2531.232          46.000  
G30  22043210.920 6 115837844.794 6     -2334.645          37.000  
R 2  22932679.114 4 122372977.03624       -66.797          27.000  
R 3  22495834.904 5 120421972.174 5      2533.178          32.000  
R 9  18765382.262 7 100206037.300 7      1139.389          44.000  
R10  21716911.905 5 115763310.451 5      3775.621          30.000  
R16  19451391.306 6 103905717.018 6     -3158.634          40.000  
R18  20277690.921 7 108243636.772 7     -2727.919          45.000  
R19  18800927.109 5 100572273.155 5      -609.205          34.000  
E11  24946798.952 6 131096311.095 6     -2435.084          38.000  
E25  24182126.188 6 127077957.173 6     -2183.566          36.000  
E30  25274188.298 6 132816749.415 6      2449.936          41.000  
J 2  36899350.121 6 193907392.34926       732.444          40.000  
J 3  37433710.183 7 196715476.88217      -543.509          45.000  
J 4  36577170.608 5 192214348.12825       309.808          32.000  
> 2024 11 28 13  0 19.3970000  0 23                     
G 2  20257861.588 7 106455769.274 7     -1809.693          47.000  
G 3  21022852.296 5 110475812.540 5      2887.529          35.000  
G 7  23021466.323 5 120978608.77325     -3125.616          34.000  
G 8  22651045.193 4 119031982.21024     -2515.615          29.000  
G14  19662204.740 7 103325628.954 7      1661.693          44.000  
G17  21323500.492 7 112055713.971 7      1827.413          44.000  
G19  23755062.797 4 124833743.26524      2794.649          27.000  
G21  21333744.223 7 112109585.042 7     -2909.865          44.000  
G22  21485217.313 7 112905578.612 7      2531.638          46.000  
G30  22043299.724 6 115838311.698 6     -2334.467          37.000  
R 2  22932681.731 4 122372990.24424       -65.808          28.000  
R 3  22495739.591 5 120421465.361 5      2533.526          32.000  
R 9  18765339.579 7 100205809.330 7      1139.758          44.000  
R10  21716771.832 5 115762555.445 5      3774.168          30.000  
R16  19451509.724 6 103906348.696 6     -3158.305          40.000  
R18  20277793.162 7 108244182.285 7     -2727.460          45.000  
R19  18800950.056 5 100572394.993 5      -609.556          34.000  
E11  24946891.578 6 131096798.036 6     -2434.744          38.000  
E25  24182209.286 6 127078393.830 6     -2182.968          36.000  
E30  25274094.922 6 132816259.318 6      2450.761          41.000  
J 2  36899322.183 6 193907245.77426       733.018          40.000  
J 3  37433730.844 7 196715585.494 7      -542.998          45.000  
J 4  36577158.898 5 192214286.38025       308.871          31.000  
> 2024 11 28 13  0 19.5970000  0 22                     
G 2  20257930.482 7 106456131.186 7     -1809.500          46.000  
G 3  21022742.534 5 110475235.067 5      2887.098          34.000  
G 7  23021583.030 5 120979233.86325     -3125.274          34.000  
G 8  22651143.264 4 119032485.42224     -2514.878          29.000  
G14  19662141.536 7 103325296.591 7      1661.903          44.000  
G17  21323431.092 7 112055348.455 7      1827.761          44.000  
G21  21333854.997 7 112110166.961 7     -2909.383          44.000  
G22  21485120.831 7 112905072.259 7      2531.840          46.000  
G30  22043389.837 6 115838778.545 6     -2334.317          37.000  
R 2  22932682.708 4 122373003.61624       -67.279          27.000  
R 3  22495643.301 5 120420958.455 5      2534.929          32.000  
R 9  18765296.930 7 100205581.359 7      1139.755          44.000  
R10  21716630.503 5 115761800.314 5      3775.979          30.000  
R16  19451628.001 6 103906980.379 6     -3158.556          40.000  
R18  20277895.281 7 108244727.789 7     -2727.493          45.000  
R19  18800972.741 5 100572516.780 5      -608.767          34.000  
E11  24946984.204 6 131097284.952 6     -2434.549          38.000  
E25  24182292.506 6 127078830.512 6     -2183.529          36.000  
E30  25274001.825 6 132815769.240 6      2450.585          41.000  
J 2  36899294.263 6 193907099.15726       733.110          40.000  
J 3  37433751.575 7 196715694.071 7      -542.746          45.000  
J 4  36577148.393 5 192214224.52425       308.149          31.000  
> 2024 11 28 13  0 19.7970000  0 22                     
G 2  20257999.410 7 106456493.113 7     -1809.409          47.000  
G 3  21022632.737 5 110474657.609 5      2886.727          34.000  
G 7  23021703.995 5 120979858.88025     -3125.079          34.000  
G 8  22651237.512 4 119032988.87824     -2519.015          29.000  
G14  19662078.366 7 103324964.261 7      1661.843          44.000  
G17  21323361.623 7 112054982.937 7      1827.814          44.000  
G21  21333965.771 7 112110748.898 7     -2909.486          44.000  
G22  21485024.523 7 112904565.933 7      2531.876          45.000  
G30  22043476.931 6 115839245.419 6     -2334.634          37.000  
R 2  22932683.232 4 122373016.90924       -66.632          28.000  
R 3  22495547.482 5 120420451.660 5      2534.335          32.000  
R 9  18765254.247 7 100205353.433 7      1139.411          44.000  
R10  21716487.847 5 115761045.213 5      3776.312          30.000  
R16  19451746.261 6 103907612.065 6     -3158.429          40.000  
R18  20277997.452 7 108245273.288 7     -2727.405          45.000  
R19  18800995.583 5 100572638.621 5      -608.966          34.000  
E11  24947076.864 6 131097771.875 6     -2434.346          38.000  
E25  24182375.761 6 127079267.150 6     -2183.271          36.000  
E30  25273908.414 6 132815279.145 6      2450.485          41.000  
J 2  36899266.360 6 193906952.55326       733.185          40.000  
J 3  37433772.323 7 196715802.646 7      -542.703          44.000  
J 4  36577137.452 5 192214162.64725       309.656          31.000  
> 2024 11 28 13  0 19.9970000  0 22                     
G 2  20258068.251 7 106456855.030 7     -1809.513          46.000  
G 3  21022522.783 5 110474080.101 5      2887.416          35.000  
G 7  23021824.541 5 120980483.97425     -3125.372          34.000  
G 8  22651332.599 5 119033492.09825     -2516.667          30.000  
G14  19662015.161 7 103324631.918 7      1661.799          44.000  
G17  21323292.136 7 112054617.408 7      1827.639          44.000  
G21  21334076.702 7 112111330.842 7     -2909.556          44.000  
G22  21484928.233 7 112904059.583 7      2531.651          45.000  
G30  22043568.737 6 115839712.294 6     -2333.943          37.000  
R 2  22932682.796 4 122373030.30524       -67.151          28.000  
R 3  22495454.699 5 120419944.855 5      2533.457          32.000  
R 9  18765211.581 7 100205125.502 7      1139.590          44.000  
R10  21716343.569 5 115760290.194 5      3775.146          30.000  
R16  19451864.574 6 103908243.716 6     -3158.390          40.000  
R18  20278099.728 7 108245818.767 7     -2727.298          45.000  
R19  18801018.408 5 100572760.467 5      -609.353          34.000  
E11  24947169.630 6 131098258.816 6     -2434.645          38.000  
E25  24182458.667 6 127079703.795 6     -2182.874          36.000  
E30  25273815.125 6 132814789.047 6      2450.969          41.000  
J 2  36899238.614 6 193906805.90526       733.808          40.000  
J 3  37433792.862 7 196715911.231 7      -542.691          44.000  
J 4  36577125.272 5 192214100.80225       309.421          31.000  
> 2024 11 28 13  0 20.1970000  0 22                     
G 2  20258137.197 7 106457216.925 7     -1809.620          46.000  
G 3  21022412.707 6 110473502.649 6      2887.278          37.000  
G 7  23021943.167 5 120981109.02025     -3125.439          34.000  
G 8  22651432.623 5 119033995.28825     -2515.547          30.000  
G14  19661951.904 7 103324299.564 7      1661.304          44.000  
G17  21323222.527 7 112054251.821 7      1827.998          43.000  
G21  21334187.459 7 112111912.722 7     -2909.625          44.000  
G22  21484831.855 7 112903553.231 7      2531.445          44.000  
G30  22043657.018 6 115840179.160 6     -2334.636          39.000  
R 2  22932683.476 4 122373043.62224       -66.724          29.000  
R 3  22495358.775 5 120419437.997 5      2533.822          31.000  
R 9  18765168.881 7 100204897.608 7      1139.177          44.000  
R10  21716202.240 5 115759535.060 5      3775.133          30.000  
R16  19451982.834 6 103908875.371 6     -3158.410          40.000  
R18  20278202.056 7 108246364.223 7     -2727.419          45.000  
R19  18801041.216 5 100572882.270 5      -609.335          34.000  
E11  24947262.186 6 131098745.664 6     -2434.442          39.000  
E25  24182541.730 6 127080140.424 6     -2183.276          36.000  
E30  25273721.854 6 132814298.934 6      2450.307          41.000  
J 2  36899210.642 6 193906659.27226       733.080          40.000  
J 3  37433813.471 7 196716019.771 7      -542.902          45.000  
J 4  36577113.214 5 192214038.92525       309.389          30.000  
> 2024 11 28 13  0 20.3970000  0 22                     
G 2  20258206.143 7 106457578.832 7     -1809.338          46.000  
G 3  21022302.771 5 110472925.115 5      2887.893          34.000  
G 7  23022064.132 5 120981734.04425     -3124.609          33.000  
G 8  22651530.571 4               4     -2493.595          29.000  
G14  19661888.664 7 103323967.244 7      1661.831          43.000  
G17  21323152.831 7 112053886.248 7      1827.980          43.000  
G21  21334298.145 7 112112494.596 7     -2909.089          44.000  
G22  21484735.495 7 112903046.844 7      2532.032          45.000  
G30  22043743.885 6 115840646.011 6     -2334.303          40.000  
R 2  22932690.003 5 122373057.03625       -66.327          33.000  
R 3  22495264.858 5 120418931.176 5      2534.039          31.000  
R 9  18765126.180 7 100204669.705 7      1139.700          44.000  
R10  21716059.986 5 115758780.024 5      3775.082          30.000  
R16  19452101.094 6 103909507.069 6     -3158.403          40.000  
R18  20278304.157 7 108246909.656 7     -2727.163          45.000  
R19  18801063.953 5 100573004.101 5      -609.060          34.000  
E11  24947354.672 6 131099232.545 6     -2434.215          39.000  
E25  24182624.933 6 127080577.001 6     -2183.156          36.000  
E30  25273628.565 7 132813808.765 7      2451.010          42.000  
J 2  36899182.686 6 193906512.57326       733.234          40.000  
J 3  37433834.219 7 196716128.267 7      -542.133          45.000  
J 4  36577103.599 5 192213977.04125       308.986          31.000  
> 2024 11 28 13  0 20.5970000  0 21                     
G 2  20258274.967 7 106457940.760 7     -1810.075          46.000  
G 3  21022192.852 5 110472347.652 5      2887.086          31.000  
G 7  23022186.912 5 120982359.14025     -3126.111          33.000  
G14  19661825.338 7 103323634.932 7      1661.220          44.000  
G17  21323083.205 7 112053520.692 7      1827.476          42.000  
G21  21334408.815 7 112113076.476 7     -2909.578          44.000  
G22  21484638.926 7 112902540.501 7      2531.585          45.000  
G30  22043829.862 6 115841112.820 6     -2334.195          37.000  
R 2  22932694.749 5 122373070.43725       -66.876          33.000  
R 3  22495169.876 4 120418424.224 4      2535.252          26.000  
R 9  18765083.444 7 100204441.876 7      1139.197          44.000  
R10  21715919.180 5 115758024.967 5      3774.343          30.000  
R16  19452219.337 6 103910138.845 6     -3159.457          40.000  
R18  20278406.345 7 108247455.132 7     -2727.315          45.000  
R19  18801086.778 5 100573125.940 5      -609.522          34.000  
E11  24947447.228 6 131099719.437 6     -2434.418          39.000  
E25  24182707.943 5 127081013.635 5     -2183.178          33.000  
E30  25273535.224 7 132813318.672 7      2450.339          42.000  
J 2  36899154.871 6 193906365.95726       733.105          40.000  
J 3  37433854.880 7 196716236.810 7      -543.000          45.000  
J 4  36577092.675 5 192213915.08725       309.819          30.000  
> 2024 11 28 13  0 20.7970000  0 21                     
G 2  20258343.895 7 106458302.624 7     -1809.195          46.000  
G 3  21022082.968 5 110471770.250 5      2886.070          32.000  
G 7  23022304.003 6 120982984.12626     -3124.463          36.000  
G14  19661762.063 7 103323302.602 7      1661.793          44.000  
G17  21323013.596 7 112053155.123 7      1827.767          43.000  
G21  21334519.589 7 112113658.394 7     -2909.899          43.000  
G22  21484542.670 7 112902034.138 7      2531.957          45.000  
G30  22043919.626 5 115841579.713 5     -2334.334          35.000  
R 2  22932695.691 5 122373083.77925       -67.004          33.000  
R 3  22495077.024 4 120417917.521 4      2533.191          26.000  
R 9  18765040.604 7 100204214.014 7      1139.131          44.000  
R10  21715778.077 5 115757269.822 5      3776.117          30.000  
R16  19452337.702 6 103910770.574 6     -3158.457          41.000  
R18  20278508.482 7 108248000.585 7     -2727.284          45.000  
R19  18801109.603 5 100573247.739 5      -609.005          34.000  
E11  24947539.784 6 131100206.307 6     -2434.548          39.000  
E25  24182791.285 6 127081450.277 6     -2183.703          36.000  
E30  25273442.022 7 132812828.509 7      2451.004          42.000  
J 2  36899126.968 6 193906219.28726       733.104          40.000  
J 3  37433875.541 7 196716345.315 7      -542.750          45.000  
J 4  36577080.425 5 192213853.29925       308.601          30.000  
> 2024 11 28 13  0 20.9970000  0 21                     
G 2  20258412.858 7 106458664.576 7     -1809.722          46.000  
G 3  21021973.101 5 110471192.791 5      2886.806          35.000  
G 7  23022422.769 6 120983609.09426     -3125.458          38.000  
G14  19661698.876 7 103322970.323 7      1661.314          44.000  
G17  21322944.022 7 112052789.588 7      1827.618          44.000  
G21  21334630.310 7 112114240.300 7     -2909.519          43.000  
G22  21484446.241 7 112901527.797 7      2531.334          45.000  
G30  22044008.797 5 115842046.666 5     -2333.997          34.000  
R 2  22932695.290 5 122373097.23225       -67.731          33.000  
R 3  22494980.908 4 120417410.731 4      2534.053          26.000  
R 9  18764997.886 7 100203986.242 7      1138.708          45.000  
R10  21715637.411 5 115756514.782 5      3775.957          30.000  
R16  19452456.031 6 103911402.375 6     -3159.114          41.000  
R18  20278610.565 7 108248546.079 7     -2727.385          45.000  
R19  18801132.445 5 100573369.626 5      -609.365          34.000  
E11  24947632.479 6 131100693.202 6     -2434.684          39.000  
E25  24182874.471 6 127081886.901 6     -2183.558          38.000  
E30  25273348.768 7 132812338.376 7      2450.415          42.000  
J 2  36899099.082 6 193906072.63526       733.174          40.000  
J 3  37433896.237 7 196716453.817 7      -542.443          45.000  
J 4  36577069.047 4 192213791.36624       309.482          29.000  
> 2024 11 28 13  0 21.1970000  0 21                     
G 2  20258481.769 7 106459026.583 7     -1809.995          46.000  
G 3  21021863.409 5 110470615.375 5      2886.885          35.000  
G 7  23022543.908 6 120984234.06226     -3124.585          36.000  
G14  19661635.724 7 103322638.105 7      1661.158          45.000  
G17  21322874.517 7 112052424.100 7      1827.590          44.000  
G21  21334741.067 7 112114822.251 7     -2909.863          44.000  
G22  21484349.985 7 112901021.516 7      2531.376          45.000  
G30  22044099.573 5 115842513.644 5     -2334.860          34.000  
R 2  22932696.180 5 122373110.81725       -67.865          32.000  
R 3  22494884.391 4 120416903.937 4      2533.362          26.000  
R 9  18764955.046 7 100203758.515 7      1138.532          45.000  
R10  21715496.396 5 115755759.788 5      3775.090          30.000  
R16  19452574.431 6 103912034.219 6     -3159.048          41.000  
R18  20278712.754 7 108249091.601 7     -2727.808          45.000  
R19  18801155.200 5 100573491.562 5      -609.604          34.000  
E11  24947725.227 6 131101180.132 6     -2434.692          39.000  
E25  24182957.603 6 127082323.603 6     -2183.712          38.000  
E30  25273255.532 7 132811848.330 7      2450.140          43.000  
J 2  36899071.127 6 193905926.00026       733.280          40.000  
J 3  37433916.828 7 196716562.379 7      -542.611          45.000  
J 4  36577056.082 4 192213729.51324       309.052          29.000  
> 2024 11 28 13  0 21.3970000  0 22                     
G 2  20258550.663 7 106459388.626 7     -1810.553          46.000  
G 3  21021753.647 5 110470038.085 5      2886.594          35.000  
G 7  23022661.767 6 120984859.14626     -3126.251          36.000  
G 8  22652002.861 5               5     -2511.469          30.000  
G14  19661572.362 7 103322305.950 7      1660.440          45.000  
G17  21322805.205 7 112052058.657 7      1826.940          43.000  
G21  21334851.893 7 112115404.276 7     -2910.410          44.000  
G22  21484253.643 7 112900515.286 7      2530.772          45.000  
G30  22044193.019 5 115842980.681 5     -2335.009          34.000  
R 2  22932697.576 5 122373124.45725       -68.213          32.000  
R 3  22494786.722 4 120416397.326 4      2532.563          27.000  
R 9  18764912.415 7 100203530.889 7      1137.782          45.000  
R10  21715356.323 4 115755004.927 4      3774.436          29.000  
R16  19452692.796 6 103912666.153 6     -3160.000          41.000  
R18  20278815.047 7 108249637.161 7     -2727.860          45.000  
R19  18801178.130 5 100573613.571 5      -610.819          34.000  
E11  24947817.975 6 131101667.106 6     -2435.189          39.000  
E25  24183040.684 6 127082760.371 6     -2184.186          38.000  
E30  25273162.347 7 132811358.330 7      2449.950          43.000  
J 2  36899043.294 6 193905779.44626       732.796          39.000  
J 3  37433937.629 7 196716670.986 7      -543.254          45.000  
J 4  36577042.558 4 192213667.66124       309.141          29.000  
> 2024 11 28 13  0 21.5970000  0 22                     
G 2  20258619.574 7 106459750.701 7     -1810.302          46.000  
G 3  21021643.955 5 110469460.789 5      2886.806          35.000  
G 7  23022780.603 5 120985484.26625     -3125.354          35.000  
G 8  22652105.469 5               5     -2511.469          30.000  
G14  19661509.140 7 103321973.854 7      1660.406          45.000  
G17  21322735.579 7 112051693.215 7      1827.352          42.000  
G21  21334962.667 7 112115986.309 7     -2910.203          44.000  
G22  21484157.387 7 112900009.075 7      2530.911          45.000  
G30  22044281.701 5 115843447.749 5     -2335.613          34.000  
R 2  22932701.014 5 122373138.18525       -68.750          32.000  
R 3  22494690.309 4 120415890.820 4      2532.642          27.000  
R 9  18764869.697 7 100203303.338 7      1137.577          46.000  
R10  21715216.093 4 115754250.019 4      3774.541          29.000  
R16  19452811.109 6 103913298.103 6     -3159.891          41.000  
R18  20278917.340 7 108250182.751 7     -2728.375          45.000  
R19  18801201.025 5 100573735.567 5      -610.260          33.000  
E11  24947910.618 6 131102154.091 6     -2434.719          39.000  
E25  24183123.869 6 127083197.159 6     -2183.955          38.000  
E30  25273069.181 7 132810868.326 7      2449.928          43.000  
J 2  36899015.391 6 193905632.83526       733.137          39.000  
J 3  37433958.238 7 196716779.614 7      -543.141          45.000  
J 4  36577029.749 4 192213605.83724       308.762          29.000  
> 2024 11 28 13  0 21.7970000  0 22                     
G 2  20258688.484 7 106460112.815 7     -1810.800          46.000  
G 3  21021534.246 5 110468883.574 5      2885.527          34.000  
G 7  23022898.148 5 120986109.41325     -3125.800          35.000  
G 8  22652201.881 5               5     -2511.469          30.000  
G14  19661445.935 7 103321641.788 7      1660.359          44.000  
G17  21322666.092 7 112051327.828 7      1827.065          42.000  
G21  21335073.494 7 112116568.376 7     -2910.444          44.000  
G22  21484061.044 7 112899502.889 7      2530.919          45.000  
G30  22044368.533 5 115843914.687 5     -2333.837          30.000  
R 2  22932700.089 5 122373151.84725       -69.049          32.000  
R 3  22494595.433 4 120415384.054 4      2534.012          27.000  
R 9  18764826.874 7 100203075.844 7      1137.305          46.000  
R10  21715075.654 4 115753495.157 4      3774.194          29.000  
R16  19452929.334 6 103913930.092 6     -3159.924          40.000  
R18  20279019.511 7 108250728.353 7     -2727.648          45.000  
R19  18801223.954 5 100573857.678 5      -611.423          34.000  
E11  24948003.436 6 131102641.167 6     -2435.483          39.000  
E25  24183206.985 6 127083634.018 6     -2183.882          37.000  
E30  25272975.962 7 132810378.362 7      2449.647          43.000  
J 2  36898987.558 6 193905486.31926       732.793          39.000  
J 3  37433978.968 7 196716888.263 7      -543.161          45.000  
J 4  36577018.878 4 192213544.05824       308.562          28.000  
> 2024 11 28 13  0 21.9970000  0 22                     
G 2  20258757.360 7 106460474.965 7     -1810.907          46.000  
G 3  21021424.379 5 110468306.258 5      2887.223          35.000  
G 7  23023015.518 5 120986734.57025     -3125.214          34.000  
G 8  22652291.854 5               5     -2508.057          30.000  
G14  19661382.573 7 103321309.745 7      1659.908          43.000  
G17  21322596.588 7 112050962.444 7      1826.752          42.000  
G21  21335184.145 7 112117150.449 7     -2910.458          44.000  
G22  21483964.789 7 112898996.780 7      2530.491          45.000  
G30  22044459.047 5 115844381.758 5     -2335.263          30.000  
R 2  22932695.046 5 122373165.67525       -68.860          35.000  
R 3  22494502.056 4 120414877.714 4      2530.688          27.000  
R 9  18764784.191 7 100202848.386 7      1137.004          45.000  
R10  21714935.336 4 115752740.375 4      3773.666          29.000  
R16  19453047.768 6 103914562.125 6     -3160.593          40.000  
R18  20279121.839 7 108251274.005 7     -2728.490          45.000  
R19  18801246.727 5 100573979.755 5      -610.973          34.000  
E11  24948096.079 6 131103128.205 6     -2435.531          39.000  
E25  24183290.082 5 127084070.810 5     -2183.866          35.000  
E30  25272882.743 7 132809888.397 7      2449.827          43.000  
J 2  36898959.707 6 193905339.82926       732.243          41.000  
J 3  37433999.682 7 196716996.935 7      -543.492          45.000  
J 4  36577009.053 4 192213482.33924       307.840          28.000  
> 2024 11 28 13  0 22.1970000  0 21                     
G 2  20258826.324 7 106460837.086 7     -1810.687          46.000  
G 3  21021314.635 5 110467729.144 5      2885.672          35.000  
G 7  23023134.581 5 120987359.82525     -3126.648          31.000  
G14  19661319.456 7 103320977.735 7      1659.929          43.000  
G17  21322527.014 6 112050597.039 6      1827.364          40.000  
G21  21335294.972 7 112117732.532 7     -2910.486          44.000  
G22  21483868.394 7 112898490.623 7      2530.652          45.000  
G30  22044549.422 5 115844848.834 5     -2334.574          31.000  
R 2  22932696.023 5 122373179.45325       -68.707          35.000  
R 3  22494405.696 4 120414287.40614      2535.694          26.000  
R 9  18764741.403 7 100202620.942 7      1136.993          45.000  
R10  21714794.077 5 115751985.577 5      3774.037          30.000  
R16  19453166.063 6 103915194.165 6     -3160.282          40.000  
R18  20279223.993 7 108251819.629 7     -2728.149          45.000  
R19  18801269.639 5 100574101.849 5      -610.520          34.000  
E11  24948188.827 6 131103615.258 6     -2435.343          39.000  
E25  24183373.285 6 127084507.719 6     -2184.687          37.000  
E30  25272789.506 7 132809398.449 7      2449.921          43.000  
J 2  36898931.874 6 193905193.30526       732.541          41.000  
J 3  37434020.378 7 196717105.575 7      -543.148          45.000  
J 4  36576994.622 4 192213420.56824       308.826          28.000  
> 2024 11 28 13  0 22.3970000  0 21                     
G 2  20258895.235 7 106461199.271 7     -1811.036          47.000  
G 3  21021204.838 6 110467151.917 6      2885.864          37.000  
G 7  23023252.003 5 120987984.93825     -3125.995          30.000  
G14  19661256.199 7 103320645.700 7      1660.031          42.000  
G17  21322457.510 6 112050231.641 6      1826.968          39.000  
G21  21335405.850 7 112118314.608 7     -2910.338          44.000  
G22  21483772.243 7 112897984.511 7      2530.533          46.000  
G30  22044638.139 5 115845315.989 5     -2335.611          31.000  
R 2  22932694.330 5 122373193.24525       -68.848          35.000  
R 3  22494314.659 4               4      2532.243          27.000  
R 9  18764698.580 7 100202393.539 7      1136.819          44.000  
R10  21714652.730 4 115751230.722 4      3775.200          29.000  
R16  19453284.324 6 103915826.227 6     -3160.129          41.000  
R18  20279326.164 7 108252365.250 7     -2728.117          45.000  
R19  18801292.516 5 100574223.960 5      -610.177          34.000  
E11  24948281.348 6 131104102.295 6     -2434.872          39.000  
E25  24183456.453 6 127084944.568 6     -2184.471          38.000  
E30  25272696.409 7 132808908.521 7      2449.676          43.000  
J 2  36898904.041 6 193905046.78126       732.758          41.000  
J 3  37434041.039 7 196717214.214 7      -543.166          45.000  
J 4  36576983.803 4 192213358.59524       310.350          27.000  
> 2024 11 28 13  0 22.5970000  0 21                     
G 2  20258964.215 7 106461561.432 7     -1810.576          47.000  
G 3  21021094.884 6 110466574.693 6      2886.188          37.000  
G 7  23023371.555 5 120988609.95825     -3124.396          30.000  
G14  19661193.012 7 103320313.731 7      1660.050          43.000  
G17  21322387.883 6 112049866.239 6      1826.934          41.000  
G21  21335516.659 7 112118896.710 7     -2910.425          45.000  
G22  21483675.988 7 112897478.402 7      2530.897          46.000  
G30  22044723.383 5 115845783.111 5     -2335.825          31.000  
R 2  22932693.021 5 122373207.09825       -68.408          35.000  
R 3  22494218.578 5 120413274.523 5      2532.787          32.000  
R 9  18764656.001 7 100202166.169 7      1136.861          45.000  
R10  21714511.226 4 115750475.975 4      3773.776          29.000  
R16  19453402.653 6 103916458.299 6     -3160.351          41.000  
R18  20279428.230 7 108252910.914 7     -2728.080          45.000  
R19  18801315.411 5 100574346.130 5      -610.333          34.000  
E11  24948374.096 6 131104589.338 6     -2434.805          39.000  
E25  24183539.725 6 127085381.378 6     -2183.465          37.000  
E30  25272603.225 7 132808418.591 7      2449.745          42.000  
J 2  36898876.086 7 193904900.28227       732.677          42.000  
J 3  37434061.857 7 196717322.872 7      -543.310          45.000  
J 4  36576972.740 4               4       314.850          27.000  
> 2024 11 28 13  0 22.7970000  0 22                     
G 2  20259033.144 7 106461923.591 7     -1810.889          47.000  
G 3  21020985.053 5 110465997.470 5      2886.556          35.000  
G 7  23023490.862 5 120989235.14125     -3124.426          30.000  
G 8  22652659.827 4               4     -2507.000          29.000  
G14  19661129.894 7 103319981.756 7      1659.974          43.000  
G17  21322318.327 7 112049500.879 7      1826.974          42.000  
G21  21335627.311 7 112119478.786 7     -2910.336          44.000  
G22  21483579.715 7 112896972.256 7      2530.889          45.000  
G30  22044810.494 5 115846250.295 5     -2336.347          31.000  
R 2  22932688.956 5 122373220.97625       -68.958          35.000  
R 3  22494122.427 5 120412768.080 5      2532.002          31.000  
R 9  18764613.283 7 100201938.828 7      1136.678          45.000  
R10  21714371.625 5 115749721.152 5      3775.266          30.000  
R16  19453521.106 6 103917090.403 6     -3160.493          40.000  
R18  20279530.401 7 108253456.522 7     -2728.010          44.000  
R19  18801338.236 5 100574468.287 5      -610.763          34.000  
E11  24948466.861 6 131105076.395 6     -2435.319          39.000  
E25  24183622.858 5 127085818.189 5     -2184.046          35.000  
E30  25272509.797 7 132807928.639 7      2449.858          42.000  
J 2  36898848.235 7 193904753.75027       732.688          42.000  
J 3  37434082.623 7 196717431.511 7      -543.044          45.000  
J 4  36576959.460 4               4       309.091          26.000  
> 2024 11 28 13  0 22.9970000  0 22                     
G 2  20259102.299 7 106462285.695 7     -1810.497          47.000  
G 3  21020875.203 5 110465420.226 5      2886.269          35.000  
G 7  23023609.366 5 120989860.27225     -3125.104          30.000  
G 8  22652752.209 4               4     -2507.000          29.000  
G14  19661066.742 7 103319649.700 7      1660.309          42.000  
G17  21322248.788 7 112049135.427 7      1827.443          42.000  
G21  21335738.103 7 112120060.788 7     -2910.060          44.000  
G22  21483483.233 7 112896466.060 7      2530.954          45.000  
G30  22044897.833 5 115846717.356 5     -2335.803          31.000  
R 2  22932683.773 5 122373234.82225       -69.635          35.000  
R 3  22494025.718 5 120412261.538 5      2532.789          31.000  
R 9  18764570.635 7 100201711.418 7      1136.987          44.000  
R10  21714228.707 4 115748966.410 4      3773.566          29.000  
R16  19453639.453 6 103917722.484 6     -3160.284          40.000  
R18  20279632.659 7 108254002.090 7     -2727.839          44.000  
R19  18801361.078 5 100574590.363 5      -610.172          34.000  
E11  24948559.348 6 131105563.382 6     -2434.935          38.000  
E25  24183706.183 5 127086254.986 5     -2183.754          35.000  
E30  25272416.560 7 132807438.617 7      2450.313          42.000  
J 2  36898820.158 7 193904607.14327       733.075          42.000  
J 3  37434103.214 7 196717540.065 7      -542.700          45.000  
J 4  36576945.639 4               4       308.205          26.000  
> 2024 11 28 13  0 23.1970000  0 22                     
G 2  20259171.227 7 106462647.833 7     -1810.674          47.000  
G 3  21020765.180 5 110464843.012 5      2886.260          32.000  
G 7  23023727.784 4 120990485.37524     -3126.294          29.000  
G 8  22652846.806 4               4     -2507.000          28.000  
G14  19661003.607 7 103319317.697 7      1659.916          42.000  
G17  21322179.196 6 112048769.962 6      1827.506          39.000  
G21  21335848.842 7 112120642.813 7     -2910.093          44.000  
G22  21483386.855 7 112895959.909 7      2530.768          45.000  
G30  22044989.289 5 115847184.390 5     -2334.766          32.000  
R 2  22932678.677 5 122373248.69725       -69.635          35.000  
R 3  22493932.551 5 120411755.069 5      2532.391          30.000  
R 9  18764528.004 7 100201484.073 7      1136.614          44.000  
R10  21714086.802 4 115748211.528 4      3774.648          29.000  
R16  19453757.835 6 103918354.572 6     -3160.159          40.000  
R18  20279734.778 7 108254547.648 7     -2727.781          44.000  
R19  18801383.903 5 100574712.497 5      -610.504          34.000  
E11  24948651.729 6 131106050.365 6     -2435.145          38.000  
E25  24183789.508 5 127086691.837 5     -2184.458          35.000  
E30  25272323.079 7 132806948.645 7      2449.890          42.000  
J 2  36898792.238 7 193904460.55527       732.875          42.000  
J 3  37434123.823 7 196717648.616 7      -542.588          45.000  
J 4  36576934.733 4               4       309.817          26.000  
> 2024 11 28 13  0 23.3970000  0 22                     
G 2  20259240.173 7 106463009.928 7     -1810.270          47.000  
G 3  21020655.086 5 110464265.839 5      2885.512          32.000  
G 7  23023846.113 5 120991110.41325     -3124.579          30.000  
G 8  22652945.574 4               4     -2507.000          28.000  
G14  19660940.489 7 103318985.691 7      1660.200          43.000  
G17  21322109.587 6 112048404.424 6      1827.708          39.000  
G21  21335959.808 7 112121224.818 7     -2909.780          45.000  
G22  21483290.425 7 112895453.717 7      2531.268          45.000  
G30  22045080.240 5 115847651.577 5     -2336.338          32.000  
R 2  22932675.641 5 122373262.59825       -69.653          35.000  
R 3  22493834.429 5 120411248.508 5      2533.138          30.000  
R 9  18764485.303 7 100201256.694 7      1137.105          42.000  
R10  21713945.787 4 115747456.734 4      3774.102          29.000  
R16  19453876.165 6 103918986.716 6     -3160.760          40.000  
R18  20279836.949 7 108255093.201 7     -2727.596          45.000  
R19  18801406.693 5 100574834.573 5      -610.139          34.000  
E11  24948744.302 6 131106537.309 6     -2434.515          38.000  
E25  24183872.693 5 127087128.646 5     -2183.941          35.000  
E30  25272229.982 7 132806458.588 7      2450.266          42.000  
J 2  36898764.230 7 193904313.92327       733.261          42.000  
J 3  37434144.606 7 196717757.156 7      -542.444          44.000  
J 4  36576924.874 4               4       310.437          26.000  
> 2024 11 28 13  0 23.5970000  0 22                     
G 2  20259309.049 7 106463372.097 7     -1810.921          46.000  
G 3  21020545.080 5 110463688.619 5      2885.774          35.000  
G 7  23023968.387 5 120991735.48525     -3125.915          34.000  
G 8  22653039.492 4               4     -2507.000          28.000  
G14  19660877.267 7 103318653.682 7      1659.917          42.000  
G17  21322039.943 6 112048038.998 6      1826.998          39.000  
G21  21336070.564 7 112121806.884 7     -2910.352          45.000  
G22  21483194.205 7 112894947.565 7      2530.895          44.000  
G30  22045168.311 5 115848118.721 5     -2336.156          32.000  
R 2  22932674.454 5 122373276.50425       -69.873          35.000  
R 3  22493739.866 5 120410742.010 5      2532.432          30.000  
R 9  18764442.812 7 100201029.414 7      1136.199          43.000  
R10  21713806.744 5 115746701.972 5      3773.444          30.000  
R16  19453994.635 6 103919618.914 6     -3161.367          40.000  
R18  20279939.207 7 108255638.818 7     -2728.089          45.000  
R19  18801429.500 5 100574956.706 5      -610.548          34.000  
E11  24948836.981 6 131107024.332 6     -2435.318          38.000  
E25  24183955.669 5 127087565.506 5     -2184.085          35.000  
E30  25272136.816 7 132805968.623 7      2449.661          42.000  
J 2  36898736.310 7 193904167.35427       732.817          43.000  
J 3  37434165.162 7 196717865.750 7      -542.944          44.000  
J 4  36576910.495 4               4       309.493          26.000  
> 2024 11 28 13  0 23.7970000  0 22                     
G 2  20259377.960 7 106463734.273 7     -1811.075          46.000  
G 3  21020435.196 6 110463111.460 6      2885.767          38.000  
G 7  23024087.939 5 120992360.51125     -3125.385          34.000  
G 8  22653135.887 4               4     -2507.000          27.000  
G14  19660814.394 7 103318321.782 7      1659.058          43.000  
G17  21321970.265 6 112047673.603 6      1826.766          41.000  
G21  21336181.443 7 112122388.943 7     -2910.590          45.000  
G22  21483097.810 7 112894441.436 7      2530.305          45.000  
G30  22045255.754 5 115848585.910 5     -2336.404          32.000  
R 2  22932672.483 5 122373290.48225       -69.751          34.000  
R 3  22493645.949 5 120410235.687 5      2531.307          30.000  
R 9  18764400.216 7 100200802.197 7      1135.739          44.000  
R10  21713666.217 5 115745947.225 5      3773.518          30.000  
R16  19454113.017 7 103920251.134 7     -3161.409          42.000  
R18  20280041.431 7 108256184.407 7     -2728.306          45.000  
R19  18801452.343 5 100575078.920 5      -611.126          34.000  
E11  24948929.606 6 131107511.323 6     -2435.049          38.000  
E25  24184038.679 6 127088002.360 6     -2184.750          38.000  
E30  25272043.736 7 132805478.660 7      2449.780          42.000  
J 2  36898708.320 7 193904020.75327       732.894          43.000  
J 3  37434185.736 7 196717974.343 7      -543.263          44.000  
J 4  36576896.639 4               4       309.083          25.000  
> 2024 11 28 13  0 23.9970000  0 22                     
G 2  20259447.045 7 106464096.471 7     -1810.792          46.000  
G 3  21020325.103 6 110462534.312 6      2885.462          38.000  
G 7  23024210.265 6 120992985.59126     -3125.348          37.000  
G 8  22653222.352 4               4     -2507.000          27.000  
G14  19660751.102 7 103317989.877 7      1659.558          43.000  
G17  21321900.708 6 112047308.165 6      1826.922          41.000  
G21  21336292.182 7 112122971.025 7     -2910.375          45.000  
G22  21483001.537 7 112893935.359 7      2530.540          45.000  
G30  22045340.370 5 115849053.058 5     -2335.325          32.000  
R 2  22932670.354 5 122373304.53925       -70.337          34.000  
R 3  22493551.979 4 120409729.087 4      2533.601          29.000  
R 9  18764357.550 7 100200574.987 7      1135.959          43.000  
R10  21713526.196 5 115745192.463 5      3774.588          30.000  
R16  19454231.364 7 103920883.360 7     -3160.892          42.000  
R18  20280143.654 7 108256730.025 7     -2727.989          45.000  
R19  18801475.290 5 100575201.116 5      -610.803          34.000  
E11  24949022.337 6 131107998.384 6     -2434.932          38.000  
E25  24184121.987 6 127088439.224 6     -2184.362          38.000  
E30  25271950.465 7 132804988.710 7      2449.713          42.000  
J 2  36898680.417 7 193903874.18527       732.864          43.000  
J 3  37434206.380 7 196718082.925 7      -542.691          45.000  
J 4  36576889.362 4               4       307.916          25.000  
> 2024 11 28 13  0 24.1970000  0 21                     
G 2  20259515.956 7 106464458.747 7     -1811.380          46.000  
G 3  21020215.079 6 110461957.262 6      2885.209          38.000  
G 7  23024327.495 6 120993610.72026     -3125.714          37.000  
G14  19660687.793 7 103317658.052 7      1659.199          43.000  
G17  21321831.239 7 112046942.836 7      1826.650          42.000  
G21  21336402.991 7 112123553.136 7     -2910.699          45.000  
G22  21482905.351 7 112893429.323 7      2529.950          45.000  
G30  22045426.976 5 115849520.287 5     -2335.863          35.000  
R 2  22932669.132 5 122373318.09615       -70.441          34.000  
R 3  22493456.021 4 120409223.34634      2530.421          29.000  
R 9  18764315.059 7 100200347.891 7      1135.295          43.000  
R10  21713384.640 5 115744437.853 5      3772.541          30.000  
R16  19454349.677 7 103921515.677 7     -3161.672          42.000  
R18  20280245.912 7 108257275.707 7     -2728.468          45.000  
R19  18801498.132 5 100575323.412 5      -611.029          34.000  
E11  24949114.963 6 131108485.452 6     -2435.879          38.000  
E25  24184205.207 6 127088876.217 6     -2185.132          38.000  
E30  25271857.263 7 132804498.835 7      2449.131          42.000  
J 2  36898652.479 7 193903727.66227       732.490          43.000  
J 3  37434227.041 7 196718190.05437      -543.090          45.000  
J 4  36576876.746 4               4       290.910          25.000  
> 2024 11 28 13  0 24.3970000  0 21                     
G 2  20259584.815 7 106464821.009 7     -1811.685          46.000  
G 3  21020105.073 6 110461380.225 6      2884.773          38.000  
G 7  23024444.743 5 120994235.86625     -3125.977          34.000  
G14  19660624.606 7 103317326.234 7      1658.816          43.000  
G17  21321761.543 7 112046577.492 7      1826.833          42.000  
G21  21336513.747 7 112124135.274 7     -2910.902          46.000  
G22  21482809.131 7 112892923.292 7      2530.008          45.000  
G30  22045515.082 5 115849987.515 5     -2336.368          35.000  
R 2  22932664.106 5 122373332.215 5       -70.959          35.000  
R 3  22493363.831 4 120408716.97224      2532.010          29.000  
R 9  18764272.463 7 100200120.816 7      1135.108          43.000  
R10  21713242.107 5 115743683.211 5      3772.912          30.000  
R16  19454467.954 7 103922148.013 7     -3162.211          42.000  
R18  20280348.049 7 108257821.392 7     -2728.516          45.000  
R19  18801521.027 5 100575445.732 5      -611.209          34.000  
E11  24949207.693 6 131108972.545 6     -2435.530          38.000  
E25  24184288.270 6 127089313.146 6     -2184.710          38.000  
E30  25271764.184 7 132804008.937 7      2449.469          42.000  
J 2  36898624.681 7 193903581.11927       732.802          43.000  
J 3  37434247.772 7 196718298.69127      -543.326          45.000  
J 4  36576867.602 4               4       290.910          24.000  
> 2024 11 28 13  0 24.5970000  0 21                     
G 2  20259653.691 7 106465183.292 7     -1811.527          46.000  
G 3  21019995.102 5 110460803.173 5      2885.122          35.000  
G 7  23024562.846 5 120994861.01125     -3125.519          34.000  
G14  19660561.349 7 103316994.469 7      1658.634          43.000  
G17  21321692.003 7 112046212.167 7      1826.590          42.000  
G21  21336624.539 7 112124717.402 7     -2910.613          45.000  
G22  21482712.806 7 112892417.298 7      2529.851          46.000  
G30  22045605.387 5 115850454.810 5     -2336.170          34.000  
R 2  22932662.379 5 122373346.392 5       -71.344          35.000  
R 3  22493269.495 4 120408210.68724      2531.161          29.000  
R 9  18764229.797 7 100199893.789 7      1134.954          43.000  
R10  21713099.382 5 115742928.484 5      3774.283          30.000  
R16  19454586.249 7 103922780.335 7     -3161.908          42.000  
R18  20280450.272 7 108258367.067 7     -2728.393          45.000  
R19  18801543.921 5 100575568.049 5      -611.928          34.000  
E11  24949300.336 6 131109459.626 6     -2435.542          38.000  
E25  24184371.507 6 127089750.101 6     -2184.687          38.000  
E30  25271671.052 7 132803519.071 7      2449.131          42.000  
J 2  36898596.760 7 193903434.61327       732.473          42.000  
J 3  37434268.502 7 196718407.34127      -543.437          45.000  
J 4  36576853.938 3               3       290.910          23.000  
> 2024 11 28 13  0 24.7970000  0 21                     
G 2  20259722.549 7 106465545.603 7     -1811.729          47.000  
G 3  21019885.026 5 110460226.041 5      2886.256          32.000  
G 7  23024682.188 5 120995486.16025     -3125.934          34.000  
G14  19660498.231 7 103316662.688 7      1658.781          44.000  
G17  21321622.517 7 112045846.877 7      1826.297          42.000  
G21  21336735.417 7 112125299.595 7     -2911.009          45.000  
G22  21482616.585 7 112891911.275 7      2529.730          46.000  
G30  22045693.371 5 115850922.098 5     -2337.066          34.000  
R 2  22932660.180 6 122373360.623 6       -71.033          36.000  
R 3  22493177.969 4 120407704.53024      2530.803          29.000  
R 9  18764187.201 7 100199666.790 7      1135.172          43.000  
R10  21712956.203 5 115742174.016 5      3772.310          30.000  
R16  19454704.562 7 103923412.753 7     -3162.236          42.000  
R18  20280552.443 7 108258912.782 7     -2728.714          45.000  
R19  18801566.834 5 100575690.414 5      -611.904          34.000  
E11  24949393.119 6 131109946.736 6     -2435.740          38.000  
E25  24184454.780 6 127090187.032 6     -2184.857          37.000  
E30  25271577.780 7 132803029.188 7      2449.408          42.000  
J 2  36898568.840 7 193903288.12827       732.472          42.000  
J 3  37434289.321 7 196718515.99327      -543.293          45.000  
J 4  36576842.823 3               3       290.910          22.000  
> 2024 11 28 13  0 24.9970000  0 21                     
G 2  20259791.478 7 106465907.985 7     -1812.062          47.000  
G 3  21019775.054 5 110459649.023 5      2884.121          35.000  
G 7  23024802.682 5 120996111.38525     -3126.385          35.000  
G14  19660435.166 7 103316330.997 7      1658.126          44.000  
G17  21321552.995 7 112045481.585 7      1826.352          43.000  
G21  21336846.226 7 112125881.795 7     -2911.101          45.000  
G22  21482520.400 7 112891405.348 7      2529.463          46.000  
G30  22045784.217 5 115851389.446 5     -2337.118          34.000  
R 2  22932659.866 5 122373374.861 5       -70.929          35.000  
R 3  22493082.499 4 120407198.35424      2530.878          29.000  
R 9  18764144.727 7 100199439.866 7      1134.235          43.000  
R10  21712812.535 5 115741419.443 5      3772.968          30.000  
R16  19454822.892 7 103924045.235 7     -3162.502          42.000  
R18  20280654.701 7 108259458.534 7     -2728.951          45.000  
R19  18801589.763 5 100575812.813 5      -612.022          34.000  
E11  24949485.815 6 131110433.906 6     -2435.787          38.000  
E25  24184537.982 6 127090624.061 6     -2185.547          37.000  
E30  25271484.579 7 132802539.383 7      2448.824          42.000  
J 2  36898541.007 7 193903141.70827       732.046          43.000  
J 3  37434309.999 7 196718624.70427      -543.768          45.000  
J 4  36576835.040 3               3       311.823          22.000  
> 2024 11 28 13  0 25.1970000  0 21                     
G 2  20259860.616 7 106466270.386 7     -1812.062          47.000  
G 3  21019665.048 6 110459072.085 6      2885.005          37.000  
G 7  23024923.752 5 120996736.63025     -3125.769          34.000  
G14  19660372.014 7 103315999.344 7      1657.998          43.000  
G17  21321483.473 7 112045116.300 7      1826.539          43.000  
G21  21336957.018 7 112126464.046 7     -2911.256          45.000  
G22  21482424.074 7 112890899.427 7      2529.629          45.000  
G30  22045872.131 5 115851856.806 5     -2336.634          34.000  
R 2  22932658.173 6 122373389.269 6       -72.339          36.000  
R 3  22492987.308 4 120406692.15924      2530.938          29.000  
R 9  18764102.254 7 100199213.012 7      1134.042          43.000  
R10  21712672.305 5 115740664.917 5      3773.129          30.000  
R16  19454941.222 7 103924677.740 7     -3162.504          43.000  
R18  20280756.872 7 108260004.300 7     -2728.674          45.000  
R19  18801612.606 5 100575935.252 5      -611.886          35.000  
E11  24949578.458 6 131110921.071 6     -2435.984          38.000  
E25  24184621.325 6 127091061.122 6     -2185.286          37.000  
E30  25271391.360 7 132802049.594 7      2448.906          42.000  
J 2  36898513.156 7 193902994.73117       732.531          42.000  
J 3  37434330.730 7 196718733.40127      -543.407          45.000  
J 4  36576821.586 3               3       307.469          22.000  
> 2024 11 28 13  0 25.3970000  0 21                     
G 2  20259929.579 7 106466632.809 7     -1812.333          47.000  
G 3  21019555.042 6 110458495.237 6      2884.054          39.000  
G 7  23025042.047 5 120997361.90925     -3126.691          34.000  
G14  19660309.053 7 103315667.745 7      1657.835          43.000  
G17  21321413.952 7 112044751.068 7      1825.957          43.000  
G21  21337067.757 7 112127046.292 7     -2911.286          45.000  
G22  21482327.906 7 112890393.550 7      2529.317          45.000  
G30  22045961.842 5 115852324.244 5     -2337.372          35.000  
R 2  22932659.849 5 122373403.582 5       -71.710          33.000  
R 3  22492890.773 4 120406185.98724      2530.570          29.000  
R 9  18764059.745 7 100198986.225 7      1133.723          43.000  
R10  21712530.888 5 115739910.462 5      3772.361          30.000  
R16  19455059.587 7 103925310.302 7     -3162.812          43.000  
R18  20280859.096 7 108260550.111 7     -2729.107          45.000  
R19  18801635.448 5 100576057.733 5      -612.179          34.000  
E11  24949671.275 6 131111408.266 6     -2436.403          38.000  
E25  24184704.597 6 127091498.218 6     -2185.593          38.000  
E30  25271298.228 7 132801559.825 7      2448.702          42.000  
J 2  36898485.131 7 193902848.307 7       732.154          43.000  
J 3  37434351.548 7 196718842.14227      -543.657          45.000  
J 4  36576811.430 3               3       297.019          22.000  
> 2024 11 28 13  0 25.5970000  0 21                     
G 2  20259998.577 7 106466995.258 7     -1812.524          47.000  
G 3  21019444.966 6 110457918.362 6      2884.240          39.000  
G 7  23025162.244 5 120997987.19625     -3126.831          34.000  
G14  19660246.041 7 103315336.180 7      1657.609          43.000  
G17  21321344.517 7 112044385.882 7      1825.812          43.000  
G21  21337178.461 7 112127628.576 7     -2911.604          44.000  
G22  21482231.616 7 112889887.682 7      2529.102          45.000  
G30  22046052.235 6 115852791.598 6     -2336.828          37.000  
R 2  22932660.686 5 122373418.014 5       -72.455          33.000  
R 3  22492790.836 4 120405679.89824      2531.300          28.000  
R 9  18764017.184 7 100198759.500 7      1133.444          43.000  
R10  21712389.158 4 115739155.998 4      3772.223          29.000  
R16  19455178.143 7 103925942.896 7     -3163.070          43.000  
R18  20280961.354 7 108261095.917 7     -2729.333          45.000  
R19  18801658.395 5 100576180.229 5      -612.885          34.000  
E11  24949763.919 6 131111895.472 6     -2436.126          38.000  
E25  24184787.800 6 127091935.337 6     -2185.731          39.000  
E30  25271205.026 7 132801070.098 7      2448.336          42.000  
J 2  36898457.246 7 193902701.895 7       731.979          43.000  
J 3  37434372.314 7 196718950.87327      -543.815          45.000  
J 4  36576798.935 3               3       314.966          21.000  
> 2024 11 28 13  0 25.7970000  0 21                     
G 2  20260067.575 7 106467357.699 7     -1812.174          47.000  
G 3  21019334.960 6 110457341.533 6      2884.249          40.000  
G 7  23025281.254 5 120998612.45125     -3126.513          34.000  
G14  19660183.150 7 103315004.582 7      1658.255          44.000  
G17  21321275.013 7 112044020.654 7      1826.649          45.000  
G21  21337289.392 7 112128210.844 7     -2911.289          44.000  
G22  21482135.343 7 112889381.781 7      2529.899          45.000  
G30  22046144.511 6 115853258.970 6     -2336.427          37.000  
R 2  22932661.070 5 122373432.437 5       -72.729          34.000  
R 3  22492696.099 4               4      2531.717          27.000  
R 9  18763974.675 7 100198532.753 7      1133.879          44.000  
R10  21712246.677 4 115738401.638 4      3771.578          29.000  
R16  19455296.473 7 103926575.458 7     -3162.842          42.000  
R18  20281063.577 7 108261641.703 7     -2728.774          45.000  
R19  18801681.342 5 100576302.772 5      -613.003          34.000  
E11  24949856.405 6 131112382.690 6     -2435.977          38.000  
E25  24184871.072 6 127092372.461 6     -2185.696          40.000  
E30  25271111.790 7 132800580.273 7      2449.276          42.000  
J 2  36898429.221 7 193902555.465 7       732.043          43.000  
J 3  37434393.010 7 196719059.59527      -543.568          44.000  
J 4  36576784.888 3               3       313.207          21.000  
> 2024 11 28 13  0 25.9970000  0 21                     
G 2  20260136.591 7 106467720.176 7     -1812.118          46.000  
G 3  21019224.901 6 110456764.708 6      2884.190          40.000  
G 7  23025403.004 5 120999237.60525     -3125.751          33.000  
G14  19660120.050 7 103314673.013 7      1657.564          43.000  
G17  21321205.561 7 112043655.480 7      1825.583          43.000  
G21  21337400.288 7 112128793.108 7     -2911.093          45.000  
G22  21482039.227 7 112888875.972 7      2529.679          45.000  
G30  22046234.293 5 115853726.241 5     -2335.847          32.000  
R 2  22932661.437 5 122373446.922 5       -72.815          34.000  
R 3  22492602.914 4               4      2531.950          27.000  
R 9  18763932.149 7 100198306.051 7      1133.320          43.000  
R10  21712105.923 4 115737647.183 4      3771.338          29.000  
R16  19455415.030 6 103927208.073 6     -3162.563          41.000  
R18  20281165.783 7 108262187.546 7     -2729.092          43.000  
R19  18801704.289 5 100576425.279 5      -612.445          34.000  
E11  24949949.240 6 131112869.897 6     -2435.750          38.000  
E25  24184954.362 6 127092809.616 6     -2185.690          40.000  
E30  25271018.414 7 132800090.578 7      2448.588          42.000  
J 2  36898401.266 7 193902409.043 7       732.627          43.000  
J 3  37434413.584 7 196719168.34727      -543.395          43.000  
J 4  36576772.969 3               3       309.781          21.000  
> 2024 11 28 13  0 26.1970000  0 21                     
G 2  20260205.449 7 106468082.634 7     -1812.547          46.000  
G 3  21019114.930 6 110456187.918 6      2883.864          40.000  
G 7  23025520.706 5 120999862.81225     -3125.958          33.000  
G14  19660056.933 7 103314341.474 7      1658.720          44.000  
G17  21321136.040 7 112043290.178 7      1826.282          43.000  
G21  21337511.202 7 112129375.379 7     -2911.662          45.000  
G22  21481942.937 7 112888370.141 7      2528.133          45.000  
G30  22046325.924 5 115854193.655 5     -2337.252          32.000  
R 2  22932661.437 6 122373461.396 6       -72.217          37.000  
R 3  22492509.835 4               4      2529.563          27.000  
R 9  18763889.780 7 100198079.394 7      1133.566          45.000  
R10  21711964.960 5 115736892.706 5      3771.993          30.000  
R16  19455533.465 6 103927840.718 6     -3163.482          40.000  
R18  20281268.007 7 108262733.360 7     -2729.357          43.000  
R19  18801727.079 5 100576547.837 5      -612.869          34.000  
E11  24950041.831 6 131113357.101 6     -2435.989          38.000  
E25  24185037.600 6 127093246.773 6     -2186.024          40.000  
E30  25270925.055 7 132799600.816 7      2448.598          42.000  
J 2  36898373.450 7 193902262.606 7       731.906          42.000  
J 3  37434434.157 7 196719277.06727      -543.580          44.000  
J 4  36576760.719 3               3       305.752          21.000  
> 2024 11 28 13  0 26.3970000  0 21                     
G 2  20260274.465 7 106468445.075 7     -1812.332          46.000  
G 3  21019005.133 6 110455611.082 6      2883.936          38.000  
G 7  23025638.059 5 121000488.03025     -3126.312          33.000  
G14  19659993.728 7 103314009.916 7      1657.325          43.000  
G17  21321066.518 7 112042924.968 7      1826.074          43.000  
G21  21337622.011 7 112129957.612 7     -2911.132          45.000  
G22  21481846.612 7 112887864.213 7      2529.633          46.000  
G30  22046417.537 5 115854661.098 5     -2337.462          33.000  
R 2  22932662.745 6 122373475.886 6       -72.516          36.000  
R 3  22492416.668 4               4      2530.682          27.000  
R 9  18763847.341 7 100197852.713 7      1133.140          45.000  
R10  21711823.422 5 115736138.280 5      3772.714          30.000  
R16  19455651.952 6 103928473.366 6     -3163.752          40.000  
R18  20281370.090 7 108263279.130 7     -2728.956          44.000  
R19  18801749.904 5 100576670.341 5      -612.388          34.000  
E11  24950134.666 6 131113844.271 6     -2435.751          38.000  
E25  24185121.064 6 127093683.903 6     -2185.903          40.000  
E30  25270831.958 7 132799111.005 7      2449.199          43.000  
J 2  36898345.634 6 193902116.145 6       731.754          40.000  
J 3  37434454.749 7 196719385.76827      -543.513          44.000  
J 4  36576748.749 3               3       309.667          21.000  
> 2024 11 28 13  0 26.5970000  0 21                     
G 2  20260343.393 7 106468807.555 7     -1812.434          47.000  
G 3  21018895.337 6 110455034.276 6      2884.090          38.000  
G 7  23025756.581 5 121001113.22725     -3125.555          32.000  
G14  19659930.558 7 103313678.447 7      1657.589          42.000  
G17  21320996.996 7 112042559.747 7      1826.262          44.000  
G21  21337732.907 7 112130539.890 7     -2911.240          45.000  
G22  21481750.287 7 112887358.406 7      2528.915          44.000  
G30  22046506.900 5 115855128.631 5     -2338.423          35.000  
R 2  22932664.682 6 122373490.454 6       -72.894          37.000  
R 3  22492321.355 4               4      2530.053          27.000  
R 9  18763804.972 7 100197626.147 7      1132.881          44.000  
R10  21711683.279 5 115735383.917 5      3772.046          30.000  
R16  19455770.456 6 103929106.049 6     -3163.247          40.000  
R18  20281472.244 7 108263824.941 7     -2728.943          45.000  
R19  18801772.764 5 100576792.928 5      -612.576          34.000  
E11  24950227.431 6 131114331.451 6     -2435.898          38.000  
E25  24185204.441 6 127094121.095 6     -2185.757          40.000  
E30  25270738.826 7 132798621.322 7      2448.541          42.000  
J 2  36898317.941 6 193901969.726 6       732.493          39.000  
J 3  37434475.549 7 196719494.47127      -543.419          44.000  
J 4  36576738.313 3               3       308.624          23.000  
> 2024 11 28 13  0 26.7970000  0 21                     
G 2  20260412.444 7 106469170.050 7     -1812.550          47.000  
G 3  21018785.453 6 110454457.504 6      2884.202          38.000  
G 7  23025877.476 4 121001738.44924     -3125.915          27.000  
G14  19659867.476 7 103313346.955 7      1657.526          45.000  
G17  21320927.457 7 112042194.550 7      1825.893          44.000  
G21  21337843.768 7 112131122.178 7     -2911.546          45.000  
G22  21481654.101 7 112886852.591 7      2529.627          46.000  
G30  22046597.205 5 115855596.139 5     -2337.253          35.000  
R 2  22932666.811 6 122373505.041 6       -72.937          38.000  
R 3  22492230.125 4               4      2530.623          27.000  
R 9  18763762.445 7 100197399.572 7      1133.001          44.000  
R10  21711541.967 5 115734629.484 5      3773.178          30.000  
R16  19455888.891 6 103929738.734 6     -3163.328          36.000  
R18  20281574.415 7 108264370.748 7     -2729.273          45.000  
R19  18801795.676 5 100576915.565 5      -613.509          34.000  
E11  24950319.970 6 131114818.704 6     -2436.610          38.000  
E25  24185287.661 6 127094558.214 6     -2185.646          40.000  
E30  25270645.782 7 132798131.537 7      2448.882          43.000  
J 2  36898290.020 6 193901823.307 6       732.242          39.000  
J 3  37434496.228 7 196719603.18827      -543.735          44.000  
J 4  36576726.814 3               3       309.441          23.000  
> 2024 11 28 13  0 26.9970000  0 21                     
G 2  20260481.459 7 106469532.556 7     -1812.763          46.000  
G 3  21018675.551 6 110453880.758 6      2883.652          41.000  
G 7  23025996.521 4 121002363.80524     -3126.221          28.000  
G14  19659804.393 7 103313015.454 7      1657.162          44.000  
G17  21320858.005 7 112041829.341 7      1825.882          44.000  
G21  21337954.524 7 112131704.459 7     -2911.606          44.000  
G22  21481557.811 7 112886346.726 7      2529.118          45.000  
G30  22046684.369 6 115856063.561 6     -2337.507          38.000  
R 2  22932668.207 6 122373519.639 6       -73.315          38.000  
R 3  22492134.900 4               4      2528.477          26.000  
R 9  18763719.972 7 100197173.003 7      1132.392          44.000  
R10  21711399.329 5 115733875.200 5      3771.741          30.000  
R16  19456006.819 4 103930371.485 4     -3164.988          29.000  
R18  20281676.551 7 108264916.543 7     -2729.014          45.000  
R19  18801818.762 5 100577038.103 5      -613.074          34.000  
E11  24950412.770 6 131115305.924 6     -2436.467          38.000  
E25  24185371.003 6 127094995.366 6     -2185.669          40.000  
E30  25270552.790 7 132797641.805 7      2448.734          42.000  
J 2  36898262.118 6 193901676.869 6       732.227          40.000  
J 3  37434516.924 7 196719711.88027      -543.539          44.000  
J 4  36576715.837 3               3       309.673          23.000  
> 2024 11 28 13  0 27.1970000  0 21                     
G 2  20260550.492 7 106469895.100 7     -1812.645          46.000  
G 3  21018565.545 7 110453304.026 7      2883.659          42.000  
G 7  23026115.654 5 121002989.05525     -3125.879          32.000  
G14  19659741.468 7 103312684.025 7      1657.443          43.000  
G17  21320788.606 7 112041464.169 7      1825.805          44.000  
G21  21338065.403 7 112132286.777 7     -2911.678          44.000  
G22  21481461.555 7 112885840.976 7      2529.013          45.000  
G30  22046774.499 6 115856531.111 6     -2337.635          37.000  
R 2  22932668.923 6 122373534.299 6       -73.450          38.000  
R 3  22492040.703 4               4      2531.503          26.000  
R 9  18763677.602 7 100196946.527 7      1132.415          44.000  
R10  21711258.715 5 115733120.849 5      3771.194          30.000  
R16  19456124.922 3               3     -3168.263          20.000  
R18  20281778.932 7 108265462.406 7     -2729.295          45.000  
R19  18801841.692 5 100577160.750 5      -612.694          34.000  
E11  24950505.640 6 131115793.146 6     -2435.699          37.000  
E25  24185454.119 6 127095432.571 6     -2186.006          40.000  
E30  25270459.623 7 132797152.105 7      2448.216          42.000  
J 2  36898234.197 6 193901530.457 6       731.993          41.000  
J 3  37434537.550 7 196719820.61427      -543.578          44.000  
J 4  36576703.954 4               4       308.591          24.000  
> 2024 11 28 13  0 27.3970000  0 21                     
G 2  20260619.456 7 106470257.645 7     -1812.866          46.000  
G 3  21018455.748 7 110452727.351 7      2883.522          42.000  
G 7  23026232.221 5 121003614.29025     -3125.745          32.000  
G14  19659678.507 7 103312352.655 7      1656.946          43.000  
G17  21320719.067 7 112041098.990 7      1826.018          44.000  
G21  21338176.247 7 112132869.097 7     -2911.676          44.000  
G22  21481365.230 7 112885335.202 7      2528.548          45.000  
G30  22046862.291 6 115856998.650 6     -2338.179          37.000  
R 2  22932670.999 6 122373549.026 6       -73.920          38.000  
R 3  22491946.978 4               4      2527.713          26.000  
R 9  18763635.076 7 100196720.100 7      1132.001          44.000  
R10  21711116.199 5 115732366.512 5      3771.343          30.000  
R16  19456243.322 3               3     -3158.946          21.000  
R18  20281881.120 7 108266008.246 7     -2729.302          45.000  
R19  18801864.482 5 100577283.393 5      -612.606          35.000  
E11  24950598.231 6 131116280.405 6     -2436.082          37.000  
E25  24185537.252 6 127095869.810 6     -2186.352          40.000  
E30  25270366.264 7 132796662.401 7      2448.617          42.000  
J 2  36898206.294 6 193901384.020 6       731.992          41.000  
J 3  37434558.228 7 196719929.35027      -543.657          44.000  
J 4  36576692.245 4               4       309.875          24.000  
> 2024 11 28 13  0 27.5970000  0 21                     
G 2  20260688.524 7 106470620.220 7     -1813.191          45.000  
G 3  21018345.934 7 110452150.688 7      2883.185          42.000  
G 7  23026352.035 5 121004239.50325     -3125.732          33.000  
G14  19659615.512 7 103312021.264 7      1656.884          44.000  
G17  21320649.493 7 112040733.818 7      1825.658          44.000  
G21  21338286.916 7 112133451.437 7     -2911.913          43.000  
G22  21481268.870 7 112884829.435 7      2528.838          45.000  
G30  22046950.764 6 115857466.117 6     -2337.823          37.000  
R 2  22932672.762 6 122373563.742 6       -73.840          38.000  
R 3  22491851.630 4               4      2529.731          26.000  
R 9  18763592.725 7 100196493.710 7      1131.984          44.000  
R10  21710975.167 5 115731612.215 5      3771.649          30.000  
R16  19456360.937 4               4     -3167.740          28.000  
R18  20281983.343 7 108266554.123 7     -2729.456          44.000  
R19  18801887.342 5 100577406.082 5      -613.559          35.000  
E11  24950690.944 6 131116767.660 6     -2436.507          37.000  
E25  24185620.245 6 127096307.049 6     -2186.485          41.000  
E30  25270273.028 7 132796172.727 7      2448.415          42.000  
J 2  36898178.548 6 193901237.621 6       731.902          41.000  
J 3  37434578.907 7 196720038.07927      -543.691          44.000  
J 4  36576679.907 4               4       307.685          25.000  
> 2024 11 28 13  0 27.7970000  0 22                     
G 2  20260757.539 7 106470982.768 7     -1812.745          45.000  
G 3  21018236.015 7 110451574.006 7      2883.408          43.000  
G 7  23026472.092 5 121004864.78025     -3126.282          33.000  
G 8  22655048.605 6               6     -2518.630          37.000  
G14  19659552.586 7 103311689.900 7      1656.860          44.000  
G17  21320580.076 7 112040368.654 7      1825.860          44.000  
G21  21338397.743 7 112134033.751 7     -2911.727          43.000  
G22  21481172.632 7 112884323.682 7      2528.753          45.000  
G30  22047040.946 6 115857933.650 6     -2337.649          37.000  
R 2  22932675.030 6 122373578.485 6       -73.615          38.000  
R 3  22491754.973 4               4      2534.093          25.000  
R 9  18763550.373 7 100196267.316 7      1131.742          44.000  
R10  21710831.586 5 115730857.909 5      3772.141          30.000  
R16  19456479.493 4               4     -3163.358          29.000  
R18  20282085.532 7 108267099.973 7     -2729.215          44.000  
R19  18801910.324 5 100577528.761 5      -613.162          35.000  
E11  24950783.622 6 131117254.865 6     -2435.831          37.000  
E25  24185703.430 6 127096744.288 6     -2186.381          41.000  
E30  25270179.931 7 132795683.004 7      2448.559          43.000  
J 2  36898150.663 6 193901091.232 6       731.997          40.000  
J 3  37434599.533 7 196720146.81027      -543.722          44.000  
J 4  36576667.483 4               4       309.548          25.000  
> 2024 11 28 13  0 27.9970000  0 22                     
G 2  20260826.642 7 106471345.380 7     -1812.806          45.000  
G 3  21018126.183 7 110450997.379 7      2883.204          43.000  
G 7  23026589.061 5 121005490.09625     -3126.483          33.000  
G 8  22655137.269 6               6     -2517.969          37.000  
G14  19659489.574 7 103311358.575 7      1656.603          45.000  
G17  21320510.641 7 112040003.494 7      1825.941          45.000  
G21  21338508.691 7 112134616.104 7     -2911.782          43.000  
G22  21481076.324 7 112883817.967 7      2528.864          44.000  
G30  22047130.082 6 115858401.266 6     -2338.058          37.000  
R 2  22932677.648 5 122373593.350 5       -74.353          35.000  
R 3  22491660.742 4               4      2528.659          25.000  
R 9  18763508.021 7 100196041.001 7      1131.684          44.000  
R10  21710689.681 5 115730103.779 5      3770.090          30.000  
R16  19456598.190 5               5     -3165.318          30.000  
R18  20282187.877 7 108267645.885 7     -2729.735          44.000  
R19  18801933.288 5 100577651.514 5      -613.826          34.000  
E11  24950876.335 5 131117742.180 5     -2436.946          34.000  
E25  24185786.703 7 127097181.569 7     -2186.428          43.000  
E30  25270086.816 7 132795193.359 7      2448.219          43.000  
J 2  36898122.865 6 193900944.863 6       732.060          40.000  
J 3  37434620.247 7 196720255.56627      -543.726          44.000  
J 4  36576656.175 4               4       308.423          26.000  
> 2024 11 28 13  0 28.1970000  0 22                     
G 2  20260895.588 7 106471707.971 7     -1812.910          44.000  
G 3  21018016.439 7 110450420.744 7      2883.346          44.000  
G 7  23026708.665 5 121006115.41925     -3126.092          35.000  
G 8  22655230.803 6               6     -2518.415          38.000  
G14  19659426.578 7 103311027.186 7      1656.951          45.000  
G17  21320441.015 7 112039638.314 7      1825.667          44.000  
G21  21338619.640 6 112135198.469 6     -2912.242          39.000  
G22  21480980.174 7 112883312.203 7      2529.006          43.000  
G30  22047218.206 6 115858868.906 6     -2337.712          37.000  
R 2  22932680.283 6 122373608.146 6       -73.853          36.000  
R 3  22491566.057 4               4      2530.682          25.000  
R 9  18763465.722 7 100195814.657 7      1131.840          46.000  
R10  21710549.975 5 115729349.470 5      3770.985          30.000  
R16  19456717.008 5 103934225.78035     -3164.360          30.000  
R18  20282290.048 7 108268191.751 7     -2729.113          44.000  
R19  18801956.288 5 100577774.278 5      -613.722          34.000  
E11  24950969.101 5 131118229.392 5     -2436.018          34.000  
E25  24185869.870 7 127097618.804 7     -2185.903          43.000  
E30  25269993.650 7 132794703.649 7      2448.649          43.000  
J 2  36898094.892 6 193900798.455 6       732.123          40.000  
J 3  37434640.873 7 196720364.27527      -543.469          44.000  
J 4  36576644.414 4               4       306.594          26.000  
> 2024 11 28 13  0 28.3970000  0 22                     
G 2  20260964.708 7 106472070.564 7     -1813.108          44.000  
G 3  21017906.538 7 110449844.137 7      2883.179          43.000  
G 7  23026825.808 5 121006740.69525     -3127.277          33.000  
G 8  22655320.078 6 119054544.21336     -2517.863          38.000  
G14  19659363.618 7 103310695.897 7      1656.383          44.000  
G17  21320371.528 7 112039273.179 7      1826.033          43.000  
G21  21338730.536 6 112135781.005 6     -2912.875          37.000  
G22  21480883.953 7 112882806.540 7      2528.347          42.000  
G30  22047306.207 6 115859336.517 6     -2338.196          37.000  
R 2  22932682.953 6 122373622.985 6       -74.066          38.000  
R 3  22491472.175 4               4      2522.589          25.000  
R 9  18763423.231 7 100195588.368 7      1131.132          46.000  
R10  21710409.553 5 115728595.152 5      3771.620          30.000  
R16  19456834.623 3               3     -3176.614          23.000  
R18  20282392.481 7 108268737.578 7     -2729.243          44.000  
R19  18801979.427 5 100577896.986 5      -613.518          34.000  
E11  24951061.901 5 131118716.716 5     -2436.072          33.000  
E25  24185953.003 7 127098056.106 7     -2186.895          43.000  
E30  25269900.483 7 132794213.952 7      2448.148          42.000  
J 2  36898066.954 6 193900652.049 6       731.960          39.000  
J 3  37434661.534 7 196720473.02927      -543.875          43.000  
J 4  36576632.356 4               4       310.317          25.000  
> 2024 11 28 13  0 28.5970000  0 22                     
G 2  20261033.672 7 106472433.155 7     -1812.601          44.000  
G 3  21017796.741 6 110449267.469 6      2883.204          40.000  
G 7  23026946.302 5 121007365.85925     -3125.385          33.000  
G 8  22655413.594 6 119055047.75826     -2517.250          40.000  
G14  19659300.501 7 103310364.622 7      1656.458          44.000  
G17  21320301.884 7 112038907.993 7      1826.150          43.000  
G21  21338841.414 6 112136363.388 6     -2912.258          39.000  
G22  21480787.610 7 112882300.775 7      2528.669          43.000  
G30  22047395.587 6 115859804.107 6     -2338.223          37.000  
R 2  22932685.588 5 122373637.901 5       -74.341          35.000  
R 3  22491380.125 4               4      2533.771          26.000  
R 9  18763380.914 7 100195362.102 7      1131.301          45.000  
R10  21710268.695 5 115727840.977 5      3770.002          30.000  
R16  19456957.315 5               5     -3164.641          30.000  
R18  20282494.827 7 108269283.453 7     -2729.092          42.000  
R19  18802002.461 5 100578019.730 5      -613.359          35.000  
E11  24951154.492 5 131119204.049 5     -2437.087          33.000  
E25  24186036.311 6 127098493.360 6     -2186.099          40.000  
E30  25269807.229 6 132793724.315 6      2448.552          41.000  
J 2  36898039.051 6 193900505.659 6       732.260          38.000  
J 3  37434682.160 7 196720581.77527      -543.814          42.000  
J 4  36576621.222 4               4       313.078          25.000  
> 2024 11 28 13  0 28.7970000  0 22                     
G 2  20261102.652 7 106472795.782 7     -1813.277          42.000  
G 3  21017686.944 6 110448690.917 6      2882.581          40.000  
G 7  23027065.748 4 121007991.19824     -3127.466          28.000  
G 8  22655514.735 6 119055551.29326     -2517.818          40.000  
G14  19659237.453 7 103310033.327 7      1656.575          45.000  
G17  21320232.328 7 112038542.814 7      1825.777          42.000  
G21  21338952.223 6 112136945.715 6     -2911.544          41.000  
G22  21480691.390 7 112881795.018 7      2529.128          44.000  
G30  22047484.077 6 115860271.701 6     -2338.034          37.000  
R 2  22932688.258 5 122373652.829 5       -74.390          35.000  
R 3  22491286.679 4               4      2528.241          26.000  
R 9  18763338.527 7 100195135.913 7      1130.952          44.000  
R10  21710124.503 5 115727086.752 5      3771.302          30.000  
R16  19457073.464 5               5     -3165.042          30.000  
R18  20282597.102 6 108269829.335 6     -2729.671          39.000  
R19  18802025.443 5 100578142.459 5      -613.881          35.000  
E11  24951247.920 4 131119691.413 4     -2436.292          28.000  
E25  24186119.443 6 127098930.661 6     -2186.648          38.000  
E30  25269713.940 7 132793234.620 7      2448.624          42.000  
J 2  36898011.114 6 193900359.270 6       731.830          38.000  
J 3  37434702.926 7 196720690.46427      -543.426          42.000  
J 4  36576609.880 4               4       313.078          24.000  
> 2024 11 28 13  0 28.9970000  0 22                     
G 2  20261171.581 6 106473158.399 6     -1813.001          40.000  
G 3  21017577.200 6 110448114.276 6      2883.220          40.000  
G 7  23027183.642 4 121008616.27424     -3124.963          28.000  
G 8  22655607.692 6 119056054.80626     -2517.461          41.000  
G14  19659174.423 7 103309702.009 7      1656.629          45.000  
G17  21320162.614 6 112038177.631 6      1826.364          41.000  
G21  21339063.067 7 112137528.015 7     -2911.314          42.000  
G22  21480595.187 7 112881289.265 7      2528.900          45.000  
G30  22047572.253 6 115860739.279 6     -2337.842          38.000  
R 2  22932690.927 6 122373667.740 6       -74.536          37.000  
R 3  22491192.902 4               4      2528.379          26.000  
R 9  18763296.228 7 100194909.688 7      1131.119          44.000  
R10  21709983.192 5 115726332.522 5      3771.147          30.000  
R16  19457189.804 5 103936775.19835     -3164.219          31.000  
R18  20282699.483 6 108270375.161 6     -2728.906          37.000  
R19  18802048.425 5 100578265.189 5      -613.243          35.000  
E11  24951340.738 4 131120178.615 4     -2435.407          29.000  
E25  24186202.820 6 127099367.895 6     -2185.980          40.000  
E30  25269620.616 7 132792744.881 7      2448.754          42.000  
J 2  36897983.298 6 193900212.824 6       732.922          36.000  
J 3  37434723.814 7 196720799.09827      -543.008          43.000  
J 4  36576598.991 4               4       312.485          24.000  
> 2024 11 28 13  0 29.1970000  0 22                     
G 2  20261240.352 6 106473521.082 6     -1813.300          39.000  
G 3  21017467.438 6 110447537.691 6      2882.845          41.000  
G 7  23027302.530 4 121009241.60024     -3127.008          28.000  
G 8  22655702.552 6 119056558.37526     -2517.878          41.000  
G14  19659111.515 7 103309370.733 7      1656.459          46.000  
G17  21320092.988 6 112037812.444 6      1825.651          41.000  
G21  21339173.858 6 112138110.359 6     -2911.562          41.000  
G22  21480498.966 7 112880783.550 7      2528.801          44.000  
G30  22047660.883 6 115861206.918 6     -2338.621          38.000  
R 2  22932693.650 6 122373682.722 6       -74.744          37.000  
R 3  22491098.915 4               4      2529.010          26.000  
R 9  18763254.051 7 100194683.536 7      1130.859          44.000  
R10  21709841.949 5 115725578.322 5      3770.869          30.000  
R16  19457308.867 5 103937408.14325     -3164.753          30.000  
R18  20282801.776 6 108270921.064 6     -2729.459          37.000  
R19  18802071.354 5 100578387.977 5      -613.446          35.000  
E11  24951433.573 4 131120665.915 4     -2435.942          29.000  
E25  24186286.075 6 127099805.186 6     -2186.523          40.000  
E30  25269527.275 7 132792255.244 7      2448.170          42.000  
J 2  36897955.343 6 193900066.408 6       732.433          36.000  
J 3  37434744.492 7 196720907.79627      -543.356          43.000  
J 4  36576587.892 4               4       303.369          24.000  
> 2024 11 28 13  0 29.3970000  0 22                     
G 2  20261309.455 6 106473883.743 6     -1813.317          39.000  
G 3  21017357.501 6 110446961.124 6      2882.826          41.000  
G 7  23027421.105 4 121009867.03424     -3127.606          27.000  
G 8  22655803.885 6 119057061.96726     -2517.826          41.000  
G14  19659048.572 7 103309039.501 7      1655.924          46.000  
G17  21320023.344 6 112037447.312 6      1825.373          41.000  
G21  21339284.615 6 112138692.747 6     -2911.923          39.000  
G22  21480402.728 7 112880277.884 7      2528.388          42.000  
G30  22047749.216 6 115861674.549 6     -2338.210          38.000  
R 2  22932696.354 5 122373697.725 5       -75.177          35.000  
R 3  22491004.684 4               4      2528.343          27.000  
R 9  18763211.734 7 100194457.406 7      1130.519          46.000  
R10  21709700.219 5 115724824.119 5      3771.196          30.000  
R16  19457426.883 5 103938041.16125     -3165.000          30.000  
R18  20282903.930 5 108271467.025 5     -2729.827          34.000  
R19  18802094.476 5 100578510.832 5      -614.385          34.000  
E11  24951533.441 4 131121153.299 4     -2437.152          29.000  
E25  24186369.191 6 127100242.495 6     -2186.562          40.000  
E30  25269434.091 7 132791765.566 7      2448.385          43.000  
J 2  36897927.457 6 193899919.981 6       732.116          37.000  
J 3  37434765.188 7 196721016.50127      -543.553          43.000  
J 4  36576577.544 4               4       309.221          24.000  
> 2024 11 28 13  0 29.5970000  0 22                     
G 2  20261378.383 6 106474246.374 6     -1812.833          37.000  
G 3  21017247.844 6 110446384.545 6      2882.834          41.000  
G 7  23027541.127 4 121010492.20524     -3125.482          27.000  
G 8  22655895.918 6 119057565.49826     -2517.727          41.000  
G14  19658985.611 7 103308708.232 7      1656.297          46.000  
G17  21319953.630 6 112037082.143 6      1825.812          41.000  
G21  21339395.302 6 112139275.021 6     -2911.665          39.000  
G22  21480306.560 7 112879772.168 7      2528.474          42.000  
G30  22047838.352 6 115862142.139 6     -2338.266          38.000  
R 2  22932699.112 5 122373712.688 5       -75.037          34.000  
R 3  22490911.447 4 120395574.73834      2528.198          28.000  
R 9  18763169.557 7 100194231.267 7      1130.651          47.000  
R10  21709559.989 5 115724069.894 5      3771.365          30.000  
R16  19457544.410 5 103938674.27025     -3165.460          30.000  
R18  20283006.013 5 108272013.096 5     -2731.991          30.000  
R19  18802117.510 5 100578633.618 5      -613.781          34.000  
E11  24951627.148 4 131121640.533 4     -2435.776          28.000  
E25  24186452.393 6 127100679.783 6     -2186.260          40.000  
E30  25269340.889 7 132791275.830 7      2448.797          43.000  
J 2  36897899.589 6 193899773.505 6       732.648          37.000  
J 3  37434785.989 7 196721125.16327      -543.506          43.000  
J 4  36576565.748 4               4       309.925          25.000  
> 2024 11 28 13  0 29.7970000  0 22                     
G 2  20261447.259 6 106474608.990 6     -1812.958          37.000  
G 3  21017138.047 6 110445808.026 6      2882.327          41.000  
G 7  23027660.190 4 121011117.46424     -3126.599          27.000  
G 8  22655991.562 6 119058069.06626     -2517.903          41.000  
G14  19658922.738 7 103308377.045 7      1655.537          45.000  
G17  21319883.986 7 112036716.947 7      1826.015          42.000  
G21  21339506.250 6 112139857.260 6     -2911.480          37.000  
G22  21480210.270 7 112879266.525 7      2528.205          42.000  
G30  22047928.203 6 115862609.731 6     -2338.339          40.000  
R 2  22932701.834 5 122373727.657 5       -74.585          34.000  
R 3  22490817.792 4 120395069.09524      2527.852          28.000  
R 9  18763127.362 7 100194005.175 7      1130.285          47.000  
R10  21709418.066 5 115723315.695 5      3771.592          30.000  
R16  19457660.664 3 103939307.13523     -3164.493          23.000  
R18  20283108.132 5 108272558.980 5     -2729.487          30.000  
R19  18802140.457 5 100578756.439 5      -614.176          34.000  
E11  24951720.332 4 131122127.762 4     -2436.447          28.000  
E25  24186535.683 6 127101117.087 6     -2186.594          39.000  
E30  25269247.775 7 132790786.151 7      2448.260          42.000  
J 2  36897871.704 6 193899627.071 6       732.168          37.000  
J 3  37434806.772 7 196721233.85027      -543.482          42.000  
J 4  36576552.870 4               4       308.403          25.000  
> 2024 11 28 13  0 29.9970000  0 22                     
G 2  20261516.362 5 106474971.610 5     -1813.206          34.000  
G 3  21017028.268 6 110445231.501 6      2882.510          41.000  
G 7  23027780.265 4 121011742.68924     -3125.775          28.000  
G 8  22656086.753 7 119058572.68327     -2518.135          43.000  
G14  19658859.848 7 103308045.861 7      1655.754          44.000  
G17  21319814.552 7 112036351.780 7      1825.832          43.000  
G21  21339617.181 6 112140439.607 6     -2912.244          37.000  
G22  21480114.067 7 112878760.869 7      2528.163          42.000  
G30  22048018.298 6 115863077.414 6     -2338.504          38.000  
R 2  22932704.573 5 122373742.793 5       -75.751          34.000  
R 3  22490725.934 4 120394563.51624      2527.746          28.000  
R 9  18763084.993 7 100193779.149 7      1129.832          47.000  
R10  21709278.464 5 115722561.642 5      3770.361          30.000  
R16  19457782.850 3 103939940.31023     -3165.811          22.000  
R18  20283208.733 5 108273104.781 5     -2728.853          30.000  
R19  18802163.474 5 100578879.301 5      -614.559          34.000  
E11  24951818.385 3               3     -2441.747          19.000  
E25  24186618.851 6 127101554.411 6     -2186.581          39.000  
E30  25269154.643 6 132790296.499 6      2448.303          41.000  
J 2  36897843.818 6 193899480.642 6       732.040          39.000  
J 3  37434827.485 7 196721342.52627      -543.686          42.000  
J 4  36576540.655 4               4       308.561          25.000  
> 2024 11 28 13  0 30.1970000  0 22                     
G 2  20261585.343 5 106475334.284 5     -1813.552          34.000  
G 3  21016918.419 6 110444654.972 6      2882.688          41.000  
G 7  23027892.906 4 121012367.93724     -3126.141          28.000  
G 8  22656183.707 7 119059076.24227     -2517.582          43.000  
G14  19658796.852 7 103307714.690 7      1656.143          44.000  
G17  21319744.943 7 112035986.653 7      1825.655          43.000  
G21  21339728.042 6 112141021.991 6     -2912.216          39.000  
G22  21480017.759 7 112878255.190 7      2528.415          42.000  
G30  22048107.556 6 115863545.060 6     -2338.292          38.000  
R 2  22932707.313 5 122373757.867 5       -75.574          34.000  
R 3  22490633.500 4 120394094.76134      2529.543          27.000  
R 9  18763042.694 7 100193553.125 7      1130.254          47.000  
R10  21709135.512 5 115721807.423 5      3771.030          30.000  
R16  19457902.018 3               3     -3166.738          22.000  
R18  20283310.834 5 108273650.672 5     -2729.420          30.000  
R19  18802186.456 5 100579002.111 5      -613.878          34.000  
E11  24951912.128 3               3     -2441.747          18.000  
E25  24186702.193 6 127101991.721 6     -2186.383          40.000  
E30  25269061.197 6 132789806.854 6      2448.424          41.000  
J 2  36897816.003 6 193899331.70336       732.188          39.000  
J 3  37434848.234 6 196721451.21426      -543.258          41.000  
J 4  36576529.068 4               4       308.177          26.000  
> 2024 11 28 13  0 30.3970000  0 22                     
G 2  20261654.463 5 106475697.074 5     -1814.007          34.000  
G 3  21016808.709 6 110444078.513 6      2881.826          41.000  
G 7  23028015.197 4 121012993.21124     -3126.239          28.000  
G 8  22656278.985 7 119059579.81927     -2518.161          43.000  
G14  19658733.805 7 103307383.583 7      1655.303          44.000  
G17  21319675.369 7 112035621.565 7      1825.302          44.000  
G21  21339838.869 6 112141604.413 6     -2912.448          39.000  
G22  21479921.521 7 112877749.560 7      2527.947          42.000  
G30  22048196.343 6 115864012.827 6     -2338.996          38.000  
R 2  22932710.088 5 122373773.056 5       -75.488          34.000  
R 3  22490539.252 4 120393589.03324      2528.574          27.000  
R 9  18763000.517 7 100193327.208 7      1129.375          47.000  
R10  21708995.247 5 115721053.333 5      3770.357          30.000  
R16  19458023.925 3               3     -3166.738          21.000  
R18  20283411.853 4 108274196.621 4     -2729.968          29.000  
R19  18802209.368 5 100579125.018 5      -614.168          34.000  
E11  24952004.911 3               3     -2439.151          18.000  
E25  24186785.413 6 127102429.107 6     -2186.996          40.000  
E30  25268967.908 6 132789317.213 6      2448.082          41.000  
J 2  36897788.257 6 193899185.28526       731.715          40.000  
J 3  37434868.860 6 196721559.93426      -543.534          40.000  
J 4  36576517.324 4               4       308.237          26.000  
> 2024 11 28 13  0 30.5970000  0 22                     
G 2  20261723.322 5 106476059.852 5     -1813.955          34.000  
G 3  21016699.105 6 110443502.034 6      2882.072          41.000  
G 7  23028134.470 4 121013618.46924     -3125.769          29.000  
G 8  22656375.554 7 119060083.40527     -2518.198          42.000  
G14  19658670.775 7 103307052.473 7      1655.239          45.000  
G17  21319605.952 7 112035256.469 7      1825.412          44.000  
G21  21339949.747 6 112142186.790 6     -2912.307          38.000  
G22  21479825.266 7 112877243.918 7      2527.728          42.000  
G30  22048285.409 6 115864480.610 6     -2339.263          38.000  
R 2  22932712.827 5 122373788.300 5       -77.039          34.000  
R 3  22490446.015 4 120393083.43324      2527.411          27.000  
R 9  18762958.462 7 100193101.301 7      1129.115          47.000  
R10  21708854.372 4 115720299.217 4      3770.426          29.000  
R16  19458140.562 3               3     -3160.071          22.000  
R18  20283514.914 5 108274742.602 5     -2730.091          30.000  
R19  18802232.437 5 100579247.958 5      -614.775          34.000  
E11  24952096.053 3               3     -2435.652          19.000  
E25  24186868.686 6 127102866.502 6     -2187.438          39.000  
E30  25268874.899 6 132788827.591 6      2447.945          41.000  
J 2  36897760.546 6 193899038.88326       731.715          40.000  
J 3  37434889.521 6 196721668.64626      -543.588          40.000  
J 4  36576506.243 4 192210833.93434       308.159          26.000  
> 2024 11 28 13  0 30.7970000  0 22                     
G 2  20261792.250 5 106476422.640 5     -1813.851          34.000  
G 3  21016589.517 6 110442925.599 6      2882.209          41.000  
G 7  23028254.196 5 121014243.86425     -3127.112          34.000  
G 8  22656471.845 6 119060587.04426     -2518.250          41.000  
G14  19658607.797 7 103306721.406 7      1655.365          45.000  
G17  21319536.500 7 112034891.372 7      1825.184          45.000  
G21  21340060.679 6 112142769.245 6     -2912.164          38.000  
G22  21479729.115 7 112876738.284 7      2528.145          43.000  
G30  22048374.265 6 115864948.386 6     -2338.752          37.000  
R 2  22932715.567 5 122373803.531 5       -75.836          34.000  
R 3  22490351.086 4 120392577.75424      2528.937          27.000  
R 9  18762916.249 7 100192875.435 7      1129.173          47.000  
R10  21708712.955 4 115719545.174 4      3770.023          29.000  
R16  19458262.085 4               4     -3167.069          24.000  
R18  20283615.759 5 108275288.519 5     -2728.709          31.000  
R19  18802255.402 5 100579370.885 5      -614.790          34.000  
E11  24952180.512 3               3     -2440.847          21.000  
E25  24186951.993 6 127103303.923 6     -2187.104          39.000  
E30  25268781.784 7 132788337.977 7      2447.997          42.000  
J 2  36897732.695 6 193898892.48026       732.065          39.000  
J 3  37434910.269 6 196721777.34626      -543.456          40.000  
J 4  36576495.546 4 192210772.34224       308.055          26.000  
> 2024 11 28 13  0 30.9970000  0 22                     
G 2  20261861.178 5 106476785.472 5     -1814.353          34.000  
G 3  21016479.860 6 110442349.224 6      2881.761          41.000  
G 7  23028371.950 6 121014869.23826     -3127.185          36.000  
G 8  22656569.688 6 119061090.67526     -2517.942          41.000  
G14  19658544.889 7 103306390.409 7      1654.856          46.000  
G17  21319466.822 7 112034526.296 7      1825.333          45.000  
G21  21340171.505 6 112143351.704 6     -2911.811          38.000  
G22  21479632.860 7 112876232.732 7      2527.860          44.000  
G30  22048463.244 6 115865416.135 6     -2339.116          37.000  
R 2  22932718.220 5 122373818.861 5       -77.344          34.000  
R 3  22490255.075 4 120392072.03624      2528.551          27.000  
R 9  18762874.002 7 100192649.658 7      1128.837          47.000  
R10  21708572.272 4 115718791.171 4      3770.024          29.000  
R16  19458381.602 4               4     -3166.283          25.000  
R18  20283718.227 5 108275834.486 5     -2729.994          31.000  
R19  18802278.401 5 100579493.895 5      -614.536          34.000  
E11  24952274.150 3               3     -2437.101          22.000  
E25  24187035.213 6 127103741.372 6     -2187.427          39.000  
E30  25268688.565 7 132787848.416 7      2447.689          42.000  
J 2  36897704.932 6 193898746.11126       731.842          38.000  
J 3  37434930.791 6 196721886.11926      -543.823          40.000  
J 4  36576483.488 4 192210710.72124       307.824          26.000  
> 2024 11 28 13  0 31.1970000  0 22                     
G 2  20261930.246 5 106477148.231 5     -1813.294          35.000  
G 3  21016370.116 6 110441772.874 6      2881.764          41.000  
G 7  23028489.250 5 121015494.56125     -3126.483          34.000  
G 8  22656665.909 6 119061594.33626     -2517.995          41.000  
G14  19658481.963 7 103306059.407 7      1654.998          46.000  
G17  21319397.265 7 112034161.222 7      1825.557          44.000  
G21  21340282.384 6 112143934.165 6     -2912.505          38.000  
G22  21479536.674 7 112875727.166 7      2527.646          44.000  
G30  22048552.135 6 115865883.992 6     -2338.881          37.000  
R 2  22932720.994 5 122373834.144 5       -76.447          34.000  
R 3  22490160.163 4               4      2527.444          26.000  
R 9  18762831.773 7 100192423.904 7      1128.855          47.000  
R10  21708431.885 4 115718037.231 4      3769.618          29.000  
R16  19458505.429 4               4     -3166.849          26.000  
R18  20283818.688 5 108276380.457 5     -2729.799          31.000  
R19  18802301.401 5 100579616.911 5      -614.563          34.000  
E11  24952362.553 3               3     -2435.462          23.000  
E25  24187118.625 6 127104178.825 6     -2187.066          38.000  
E30  25268595.381 7 132787358.862 7      2447.877          42.000  
J 2  36897677.047 6 193898599.77126       731.550          38.000  
J 3  37434951.417 6 196721994.37316      -543.619          40.000  
J 4  36576471.185 4 192210649.14024       308.473          26.000  
> 2024 11 28 13  0 31.3970000  0 22                     
G 2  20261999.087 5 106477511.135 5     -1815.691          35.000  
G 3  21016260.406 6 110441196.540 6      2881.615          41.000  
G 7  23028608.418 5 121016119.91625     -3126.672          34.000  
G 8  22656762.181 6 119062098.01126     -2518.440          41.000  
G14  19658419.003 7 103305728.438 7      1654.778          46.000  
G17  21319327.708 7 112033796.174 7      1825.371          44.000  
G21  21340393.192 6 112144516.620 6     -2911.774          38.000  
G22  21479440.454 7 112875221.666 7      2527.531          42.000  
G30  22048640.992 6 115866351.823 6     -2339.079          37.000  
R 2  22932723.769 5 122373849.503 5       -76.794          33.000  
R 3  22490066.368 4               4      2526.383          26.000  
R 9  18762789.561 7 100192198.195 7      1128.534          47.000  
R10  21708288.932 4 115717283.230 4      3769.953          29.000  
R16  19458626.900 4               4     -3168.641          26.000  
R18  20283917.473 5 108276926.471 5     -2729.142          31.000  
R19  18802324.714 5 100579739.998 5      -615.203          34.000  
E11  24952463.083 3               3     -2436.917          23.000  
E25  24187202.072 6 127104616.323 6     -2187.762          37.000  
E30  25268502.214 7 132786869.305 7      2447.806          42.000  
J 2  36897649.161 6 193898453.38826       731.965          38.000  
J 3  37434972.008 6 196722103.143 6      -543.809          40.000  
J 4  36576459.494 4 192210587.44724       308.621          25.000  
> 2024 11 28 13  0 31.5970000  0 22                     
G 2  20262067.998 5 106477873.897 5     -1814.419          34.000  
G 3  21016150.574 6 110440620.236 6      2881.476          40.000  
G 7  23028727.672 5 121016745.17625     -3125.989          33.000  
G 8  22656858.210 6 119062601.64026     -2518.067          41.000  
G14  19658356.077 7 103305397.489 7      1654.692          45.000  
G17  21319258.099 7 112033431.112 7      1825.252          43.000  
G21  21340504.054 6 112145099.025 6     -2912.099          38.000  
G22  21479344.216 6 112874716.149 6      2527.657          41.000  
G30  22048729.918 6 115866819.635 6     -2339.420          38.000  
R 2  22932726.578 5 122373864.876 5       -77.374          33.000  
R 3  22489970.863 4               4      2527.806          27.000  
R 9  18762747.262 7 100191972.492 7      1128.447          47.000  
R10  21708146.033 4 115716529.277 4      3769.717          29.000  
R16  19458748.074 5               5     -3166.419          31.000  
R18  20284017.672 5 108277472.360 5     -2729.588          31.000  
R19  18802347.801 5 100579863.045 5      -615.632          34.000  
E11  24952555.116 4               4     -2438.094          24.000  
E25  24187285.537 6 127105053.803 6     -2187.559          37.000  
E30  25268408.960 7 132786379.722 7      2447.780          42.000  
J 2  36897621.293 6 193898307.02126       731.837          38.000  
J 3  37434992.564 6 196722211.858 6      -543.674          40.000  
J 4  36576447.872 4 192210525.80824       308.837          25.000  
> 2024 11 28 13  0 31.7970000  0 22                     
G 2  20262136.979 5 106478236.730 5     -1814.492          35.000  
G 3  21016040.987 6 110440043.941 6      2881.506          40.000  
G 7  23028846.630 5 121017370.57125     -3127.185          33.000  
G 8  22656953.872 6 119063105.34726     -2518.604          41.000  
G14  19658293.326 7 103305066.570 7      1654.503          45.000  
G17  21319188.438 7 112033066.090 7      1825.339          42.000  
G21  21340615.002 6 112145681.518 6     -2912.340          37.000  
G22  21479247.925 7 112874210.662 7      2527.576          42.000  
G30  22048818.827 6 115867287.506 6     -2339.623          38.000  
R 2  22932729.335 5 122373880.300 5       -77.039          33.000  
R 3  22489872.845 4               4      2527.336          27.000  
R 9  18762705.032 7 100191746.854 7      1127.993          47.000  
R10  21708004.825 4 115715775.338 4      3769.852          28.000  
R16  19458865.880 5 103945678.61835     -3166.566          31.000  
R18  20284118.953 5 108278018.352 5     -2729.680          30.000  
R19  18802370.783 5 100579986.137 5      -615.534          34.000  
E11  24952651.110 3               3     -2437.765          23.000  
E25  24187369.053 6 127105491.327 6     -2187.796          37.000  
E30  25268315.864 7 132785890.191 7      2447.655          42.000  
J 2  36897593.565 6 193898160.68926       731.968          38.000  
J 3  37435013.382 6 196722320.624 6      -543.672          40.000  
J 4  36576435.884 4 192210464.21624       308.193          25.000  
> 2024 11 28 13  0 31.9970000  0 22                     
G 2  20262206.012 5 106478599.606 5     -1814.291          35.000  
G 3  21015931.417 6 110439467.652 6      2881.601          40.000  
G 7  23028964.576 5 121017995.89925     -3127.039          32.000  
G 8  22657050.721 6 119063609.02126     -2518.661          41.000  
G14  19658230.453 7 103304735.650 7      1654.547          45.000  
G17  21319118.829 7 112032701.045 7      1825.380          42.000  
G21  21340726.003 6 112146263.986 6     -2912.522          38.000  
G22  21479151.687 7 112873705.169 7      2527.646          42.000  
G30  22048907.771 6 115867755.348 6     -2339.184          38.000  
R 2  22932732.058 5 122373895.776 5       -77.594          33.000  
R 3  22489777.742 4 120389536.70834      2527.037          28.000  
R 9  18762662.890 7 100191521.223 7      1128.252          47.000  
R10  21707865.328 4 115715021.409 4      3769.911          28.000  
R16  19458983.757 5 103946312.07725     -3167.201          32.000  
R18  20284220.566 5 108278564.290 5     -2729.409          30.000  
R19  18802393.834 5 100580109.215 5      -615.337          34.000  
E11  24952746.615 3               3     -2427.947          22.000  
E25  24187452.186 6 127105928.816 6     -2187.474          39.000  
E30  25268222.941 7 132785400.669 7      2447.629          42.000  
J 2  36897565.644 6 193898014.33826       731.901          39.000  
J 3  37435033.991 6 196722429.388 6      -543.523          40.000  
J 4  36576424.279 4               4       306.580          24.000  
> 2024 11 28 13  0 32.1970000  0 22                     
G 2  20262275.063 5 106478962.437 5     -1813.592          34.000  
G 3  21015821.743 6 110438891.338 6      2881.595          40.000  
G 7  23029085.786 5 121018621.19225     -3125.506          32.000  
G 8  22657145.615 7 119064112.68027     -2518.021          42.000  
G14  19658167.440 7 103304404.706 7      1654.977          45.000  
G17  21319049.360 7 112032335.977 7      1825.544          43.000  
G21  21340836.917 6 112146846.434 6     -2912.164          38.000  
G22  21479055.310 6 112873199.632 6      2527.949          41.000  
G30  22048996.784 6 115868223.201 6     -2339.550          38.000  
R 2  22932734.832 5 122373911.212 5       -76.880          33.000  
R 3  22489683.441 4 120389031.24724      2528.326          29.000  
R 9  18762620.660 7 100191295.593 7      1128.269          46.000  
R10  21707724.435 4 115714327.00714      3769.680          28.000  
R16  19459100.272 5 103946956.48035     -3166.661          31.000  
R18  20284319.125 5 108279110.393 5     -2730.638          30.000  
R19  18802416.781 5 100580232.298 5      -614.896          34.000  
E11  24952843.044 3               3     -2427.947          22.000  
E25  24187535.494 6 127106366.261 6     -2187.170          39.000  
E30  25268129.914 7 132784911.105 7      2447.915          42.000  
J 2  36897537.689 6 193897867.96126       732.002          39.000  
J 3  37435054.635 6 196722538.120 6      -543.323          40.000  
J 4  36576413.181 3               3       307.403          23.000  
> 2024 11 28 13  0 32.3970000  0 22                     
G 2  20262344.200 5 106479325.237 5     -1814.588          34.000  
G 3  21015711.928 6 110438315.009 6      2881.628          40.000  
G 7  23029205.983 5 121019246.51525     -3126.965          31.000  
G 8  22657240.195 6 119064616.29326     -2518.227          41.000  
G14  19658104.532 7 103304073.783 7      1654.651          45.000  
G17  21318979.856 7 112031970.884 7      1825.565          44.000  
G21  21340947.725 6 112147428.872 6     -2911.716          38.000  
G22  21478959.159 6 112872694.089 6      2527.458          41.000  
G30  22049085.728 6 115868690.997 6     -2338.573          37.000  
R 2  22932737.554 5 122373926.607 5       -76.898          32.000  
R 3  22489590.379 4 120388525.78624      2526.255          29.000  
R 9  18762578.483 7 100191069.964 7      1128.028          46.000  
R10  21707583.141 4 115713573.098 4      3769.452          28.000  
R16  19459221.830 4 103947589.79724     -3166.004          26.000  
R18  20284419.900 5 108279656.466 5     -2730.470          30.000  
R19  18802439.885 5 100580355.344 5      -615.463          33.000  
E11  24952936.647 3               3     -2437.584          22.000  
E25  24187618.696 6 127106803.742 6     -2187.575          39.000  
E30  25268036.992 7 132784421.507 7      2447.974          42.000  
J 2  36897509.769 6 193897721.56626       731.785          39.000  
J 3  37435075.383 6 196722646.792 6      -543.167          40.000  
J 4  36576401.995 3               3       312.838          23.000  
> 2024 11 28 13  0 32.5970000  0 23                     
G 2  20262413.198 5 106479688.150 5     -1815.038          34.000  
G 3  21015602.184 6 110437738.753 6      2880.904          40.000  
G 7  23029328.152 5 121019871.89425     -3126.739          32.000  
G 8  22657337.585 7 119065119.96327     -2518.637          42.000  
G14  19658041.712 7 103303742.903 7      1654.190          45.000  
G17  21318910.352 7 112031605.820 7      1825.046          43.000  
G19  23748101.661 4               4      2794.570          26.000  
G21  21341058.569 6 112148011.359 6     -2912.551          38.000  
G22  21478862.694 6 112872188.581 6      2527.338          41.000  
G30  22049174.619 5 115869158.845 5     -2339.815          35.000  
R 2  22932740.312 5 122373942.149 5       -77.545          33.000  
R 3  22489496.566 4 120388020.28824      2527.320          29.000  
R 9  18762536.376 7 100190844.423 7      1127.353          46.000  
R10  21707440.834 4 115712819.237 4      3768.819          28.000  
R16  19459341.556 4 103948223.25724     -3167.784          26.000  
R18  20284519.541 3               3     -2730.621          22.000  
R19  18802462.990 5 100580478.417 5      -615.327          33.000  
E11  24953031.140 3               3     -2437.584          21.000  
E25  24187701.916 6 127107241.250 6     -2187.677          39.000  
E30  25267943.807 7 132783931.960 7      2447.509          42.000  
J 2  36897481.866 6 193897575.16126       732.025          39.000  
J 3  37435096.201 6 196722755.524 6      -543.714          40.000  
J 4  36576390.339 4               4       301.792          24.000  
> 2024 11 28 13  0 32.7970000  0 23                     
G 2  20262482.232 5 106480051.017 5     -1813.443          34.000  
G 3  21015492.492 6 110437162.498 6      2880.899          41.000  
G 7  23029445.086 5               5     -3134.277          31.000  
G 8  22657431.327 7 119065623.60727     -2518.356          42.000  
G14  19657978.734 7 103303412.045 7      1654.122          45.000  
G17  21318840.952 7 112031240.765 7      1825.240          43.000  
G19  23747993.574 4               4      2794.570          25.000  
G21  21341169.465 6 112148593.864 6     -2912.418          38.000  
G22  21478766.491 6 112871683.072 6      2527.725          41.000  
G30  22049263.511 5 115869626.706 5     -2338.989          35.000  
R 2  22932742.981 5 122373957.706 5       -78.137          33.000  
R 3  22489404.045 4 120387514.87724      2527.149          29.000  
R 9  18762494.164 7 100190618.905 7      1127.501          46.000  
R10  21707299.889 4 115712065.307 4      3769.280          27.000  
R16  19459460.270 4 103948856.86024     -3167.783          26.000  
R18  20284623.858 4               4     -2729.889          24.000  
R19  18802486.006 5 100580601.553 5      -615.571          33.000  
E11  24953120.224 3               3     -2434.926          21.000  
E25  24187785.189 6 127107678.761 6     -2187.516          39.000  
E30  25267850.623 7 132783442.405 7      2447.803          42.000  
J 2  36897454.033 6 193897428.77026       731.797          39.000  
J 3  37435116.932 6 196722864.255 6      -543.710          40.000  
J 4  36576377.914 4               4       312.678          24.000  
> 2024 11 28 13  0 32.9970000  0 22                     
G 2  20262551.317 5 106480413.984 5     -1815.001          34.000  
G 3  21015382.835 6 110436586.240 6      2881.475          41.000  
G 7  23029563.276 4               4     -3129.921          25.000  
G 8  22657527.408 6 119066127.26426     -2518.195          41.000  
G14  19657915.861 7 103303081.203 7      1654.297          45.000  
G17  21318771.448 7 112030875.732 7      1825.403          44.000  
G21  21341280.327 6 112149176.389 6     -2912.752          38.000  
G22  21478670.393 6 112871177.603 6      2527.392          41.000  
G30  22049352.489 6 115870094.636 6     -2339.365          36.000  
R 2  22932745.739 5 122373973.300 5       -78.156          33.000  
R 3  22489309.221 4 120387009.42224      2527.781          29.000  
R 9  18762451.864 7 100190393.429 7      1127.435          46.000  
R10  21707157.600 4 115711311.418 4      3769.175          27.000  
R16  19459579.071 4 103949490.27724     -3166.971          27.000  
R18  20284726.395 5 108281170.25535     -2729.071          30.000  
R19  18802508.953 5 100580724.728 5      -615.477          33.000  
E11  24953213.600 3               3     -2435.352          21.000  
E25  24187868.357 6 127108116.316 6     -2187.611          39.000  
E30  25267757.474 7 132782952.892 7      2447.765          42.000  
J 2  36897426.252 6 193897282.38726       732.142          39.000  
J 3  37435137.523 6 196722972.988 6      -543.597          40.000  
J 4  36576365.664 4               4       306.390          24.000  
> 2024 11 28 13  0 33.1970000  0 22                     
G 2  20262620.333 6 106480776.882 6     -1814.884          36.000  
G 3  21015273.143 6 110436010.013 6      2881.254          41.000  
G 7  23029681.100 4               4     -3127.925          25.000  
G 8  22657623.751 6 119066630.96926     -2518.685          41.000  
G14  19657852.883 7 103302750.405 7      1653.991          45.000  
G17  21318701.856 7 112030510.713 7      1825.036          44.000  
G21  21341391.327 6 112149758.932 6     -2912.939          37.000  
G22  21478574.138 6 112870672.154 6      2526.964          41.000  
G30  22049441.538 6 115870562.584 6     -2339.589          36.000  
R 2  22932748.408 5 122373988.887 5       -78.571          33.000  
R 3  22489217.555 4 120386504.02424      2527.129          29.000  
R 9  18762409.722 7 100190168.007 7      1126.963          46.000  
R10  21707016.183 4 115710557.578 4      3769.425          27.000  
R16  19459693.457 4 103950123.83224     -3167.516          26.000  
R18  20284831.079 5 108281716.29325     -2729.760          30.000  
R19  18802531.988 5 100580847.905 5      -615.722          33.000  
E11  24953306.976 3               3     -2436.910          22.000  
E25  24187951.681 6 127108553.888 6     -2187.976          38.000  
E30  25267664.080 7 132782463.366 7      2447.447          42.000  
J 2  36897398.227 6 193897136.02326       731.911          37.000  
J 3  37435158.254 6 196723081.729 6      -543.795          40.000  
J 4  36576353.676 4               4       314.190          25.000  
> 2024 11 28 13  0 33.3970000  0 22                     
G 2  20262689.383 6 106481139.799 6     -1814.668          37.000  
G 3  21015163.416 6 110435433.811 6      2880.903          41.000  
G 7  23029799.622 4               4     -3125.966          25.000  
G 8  22657721.228 6 119067134.62726     -2518.323          41.000  
G14  19657789.835 7 103302419.596 7      1653.854          45.000  
G17  21318632.387 7 112030145.652 7      1825.155          42.000  
G21  21341502.154 6 112150341.445 6     -2912.700          37.000  
G22  21478477.865 6 112870166.667 6      2527.207          41.000  
G30  22049530.674 6 115871030.514 6     -2340.131          36.000  
R 2  22932751.148 5 122374004.534 5       -78.680          32.000  
R 3  22489123.323 4 120385998.63524      2527.008          29.000  
R 9  18762367.510 7 100189942.563 7      1127.185          46.000  
R10  21706875.360 4 115709803.715 4      3769.474          27.000  
R16  19459814.055 4 103950757.48724     -3168.470          26.000  
R18  20284934.228 5 108282262.29125     -2730.472          30.000  
R19  18802554.882 5 100580971.104 5      -616.231          33.000  
E11  24953397.438 3               3     -2430.681          22.000  
E25  24188034.954 6 127108991.407 6     -2187.610          38.000  
E30  25267570.879 7 132781973.826 7      2447.719          42.000  
J 2  36897370.307 6 193896989.61026       732.484          37.000  
J 3  37435178.968 6 196723190.447 6      -543.929          40.000  
J 4  36576342.001 4               4       312.223          25.000  
> 2024 11 28 13  0 33.5970000  0 22                     
G 2  20262758.556 6 106481502.726 6     -1814.764          36.000  
G 3  21015053.811 6 110434857.663 6      2880.870          40.000  
G 7  23029919.644 4               4     -3124.925          25.000  
G 8  22657816.820 6 119067638.32026     -2518.840          41.000  
G14  19657726.857 7 103302088.831 7      1653.839          45.000  
G17  21318562.813 6 112029780.700 6      1824.629          41.000  
G21  21341612.910 6 112150923.948 6     -2912.698          37.000  
G22  21478381.679 7 112869661.272 7      2527.172          42.000  
G30  22049619.670 6 115871498.428 6     -2339.281          36.000  
R 2  22932753.818 5 122374020.216 5       -78.845          32.000  
R 3  22489029.372 4 120385493.41324      2525.721          29.000  
R 9  18762325.437 7 100189717.207 7      1126.858          47.000  
R10  21706731.832 4 115709049.939 4      3769.013          27.000  
R16  19459930.466 4 103951390.94724     -3167.271          26.000  
R18  20285035.421 4               4     -2729.900          24.000  
R19  18802578.074 5 100581094.319 5      -616.249          33.000  
E11  24953482.752 4               4     -2437.232          24.000  
E25  24188118.069 6 127109429.003 6     -2187.777          38.000  
E30  25267477.730 7 132781484.350 7      2447.494          42.000  
J 2  36897342.543 6 193896843.28226       731.598          37.000  
J 3  37435199.664 6 196723299.197 6      -544.062          40.000  
J 4  36576330.868 4               4       303.949          25.000  
> 2024 11 28 13  0 33.7970000  0 22                     
G 2  20262827.676 5 106481865.615 5     -1814.527          34.000  
G 3  21014943.997 6 110434281.515 6      2880.774          40.000  
G 7  23030042.267 4               4     -3126.428          26.000  
G 8  22657912.308 7 119068142.03127     -2518.580          42.000  
G14  19657664.071 7 103301758.089 7      1653.710          45.000  
G17  21318493.117 7 112029415.662 7      1825.339          42.000  
G21  21341723.772 6 112151506.373 6     -2912.198          37.000  
G22  21478285.424 7 112869155.858 7      2526.701          42.000  
G30  22049708.771 6 115871966.385 6     -2339.513          36.000  
R 2  22932756.523 5 122374035.910 5       -78.357          33.000  
R 3  22488935.053 4 120384988.06024      2526.950          29.000  
R 9  18762283.295 7 100189491.858 7      1126.601          46.000  
R10  21706590.747 4 115708296.195 4      3768.667          27.000  
R16  19460047.121 4               4     -3161.344          26.000  
R18  20285136.057 4               4     -2727.695          24.000  
R19  18802601.073 5 100581217.554 5      -616.377          33.000  
E11  24953575.535 4               4     -2439.098          24.000  
E25  24188201.237 6 127109866.572 6     -2187.979          38.000  
E30  25267384.354 6 132780994.829 6      2447.772          41.000  
J 2  36897314.710 6 193896696.93826       731.663          39.000  
J 3  37435220.272 6 196723407.909 6      -543.580          40.000  
J 4  36576319.787 4               4       302.841          25.000  
> 2024 11 28 13  0 33.9970000  0 22                     
G 2  20262896.796 5 106482228.549 5     -1815.149          33.000  
G 3  21014834.200 6 110433705.394 6      2880.812          40.000  
G 7  23030154.978 4               4     -3127.087          26.000  
G 8  22658007.708 7 119068645.78727     -2518.373          42.000  
G14  19657601.181 7 103301427.406 7      1653.485          45.000  
G17  21318423.630 7 112029050.684 7      1824.952          43.000  
G21  21341834.598 6 112152088.893 6     -2912.573          39.000  
G22  21478189.151 7 112868650.473 7      2527.164          42.000  
G30  22049797.767 6 115872434.388 6     -2339.712          36.000  
R 2  22932759.262 5 122374051.657 5       -78.278          32.000  
R 3  22488841.380 4 120384482.77724      2525.546          28.000  
R 9  18762241.153 7 100189266.588 7      1126.410          46.000  
R10  21706450.046 4 115707542.384 4      3769.147          27.000  
R16  19460165.189 4               4     -3176.172          25.000  
R18  20285234.773 3               3     -2727.001          23.000  
R19  18802624.073 5 100581340.832 5      -615.931          33.000  
E11  24953666.695 3               3     -2447.386          23.000  
E25  24188284.701 6 127110304.238 6     -2188.407          38.000  
E30  25267291.204 6 132780505.393 6      2447.232          41.000  
J 2  36897286.842 6 193896550.65226       731.381          39.000  
J 3  37435240.811 6 196723516.652 6      -543.476          40.000  
J 4  36576308.567 4               4       311.674          25.000  
