     3.03           OBSERVATION DATA    M: Mixed            RINEX VERSION / TYPE
Emlid RGL 1.2.7                         20241129 090521 UTC PGM / RUN BY / DATE 
format: u-blox                                              COMMENT             
                                                            MARKER NAME         
                                                            MARKER NUMBER       
                                                            MARKER TYPE         
                                                            OBSERVER / AGENCY   
                    EMLID REACH M+                          REC # / TYPE / VERS 
                                                            ANT # / TYPE        
        0.0000        0.0000        0.0000                  APPROX POSITION XYZ 
        0.0000        0.0000        0.0000                  ANTENNA: DELTA H/E/N
G    4 C1C L1C D1C S1C                                      SYS / # / OBS TYPES 
R    4 C1C L1C D1C S1C                                      SYS / # / OBS TYPES 
E    4 C1C L1C D1C S1C                                      SYS / # / OBS TYPES 
J    4 C1C L1C D1C S1C                                      SYS / # / OBS TYPES 
C    4 C1I L1I D1I S1I                                      SYS / # / OBS TYPES 
  2024    11    29     9     5    6.7990000     GPS         TIME OF FIRST OBS   
  2024    11    29     9     5   38.9990000     GPS         TIME OF LAST OBS    
G                                                           SYS / PHASE SHIFT   
R                                                           SYS / PHASE SHIFT   
E                                                           SYS / PHASE SHIFT   
J                                                           SYS / PHASE SHIFT   
C                                                           SYS / PHASE SHIFT   
  0                                                         GLONASS SLOT / FRQ #
 C1C    0.000 C1P    0.000 C2C    0.000 C2P    0.000        GLONASS COD/PHS/BIS 
                                                            END OF HEADER       
> 2024 11 29  9  5  6.7990000  0 22                     
G 4  22790693.213 5 119765863.044 5     -2778.422          34.000  
G 8  20075810.674 7 105499097.11317      1203.549          44.000  
G 9  22699775.782 4 119288178.180 4     -1674.628          28.000  
G16  21152927.562 6 111159371.719 6     -1795.580          41.000  
G18  24964514.529 6 131189366.01916     -2551.415          36.000  
G21  22957483.302 5 120642365.855 5      3818.218          34.000  
G26  23183460.585 6 121829903.22016     -2575.432          39.000  
G27  19884273.349 7 104492554.928 7     -1069.029          47.000  
R 7  23291150.198 3               3      -187.516          22.000  
R14  24135898.676 6 128657786.901 6     -3088.011          40.000  
R15  20305206.979 7 108504822.773 7     -1412.031          46.000  
R16  19948804.615 7 106562907.318 7      1739.660          47.000  
R17  20222422.404 6 108214225.63416     -2137.997          39.000  
R18  19401319.627 7 103565520.35717      1823.078          46.000  
R19  22010280.973 4               4      4273.731          27.000  
E 4  25729689.674 6 135210413.069 6     -2352.230          37.000  
E14  21520256.031 7 113089684.436 7      2767.855          44.000  
E21  26618860.389 6 139883044.339 6     -1814.553          38.000  
E26  24806248.442 6 130357769.974 6      1118.665          41.000  
J 2  38952971.580 7 204699247.29827        19.621          44.000  
J 3  37187840.070 6 195423401.076 6        17.031          40.000  
J 4  37462910.540 4 196868924.70114      -278.243          28.000  
> 2024 11 29  9  5  6.9990000  0 22                     
G 4  22790799.049 5 119766418.790 5     -2778.630          34.000  
G 8  20075764.849 7 105498856.361 7      1203.671          44.000  
G 9  22699836.002 4 119288513.024 4     -1674.011          28.000  
G16  21152995.897 6 111159730.799 6     -1795.514          41.000  
G18  24964611.761 6 131189876.226 6     -2551.097          36.000  
G21  22957337.837 5 120641602.214 5      3818.077          35.000  
G26  23183558.638 6 121830418.318 6     -2575.507          38.000  
G27  19884313.869 7 104492768.709 7     -1068.973          47.000  
R 7  23291156.393 3               3      -179.230          22.000  
R14  24136014.458 6 128658404.439 6     -3088.027          39.000  
R15  20305259.906 7 108505105.175 7     -1412.056          46.000  
R16  19948739.543 7 106562559.374 7      1739.795          47.000  
R17  20222502.378 6 108214653.222 6     -2137.896          39.000  
R18  19401251.380 7 103565155.729 7      1822.970          46.000  
R19  22010123.484 4               4      4272.610          27.000  
E 4  25729779.246 6 135210883.513 6     -2352.190          38.000  
E14  21520150.806 7 113089130.796 7      2768.237          44.000  
E21  26618929.352 6 139883407.209 6     -1814.295          37.000  
E26  24806205.846 6 130357546.234 6      1118.758          41.000  
J 2  38952970.864 7 204699243.33627        19.713          44.000  
J 3  37187839.372 6 195423397.692 6        17.031          40.000  
J 4  37462921.341 4 196868980.319 4      -277.712          29.000  
> 2024 11 29  9  5  7.1990000  0 22                     
G 4  22790904.884 5 119766974.528 5     -2778.406          34.000  
G 8  20075719.077 7 105498615.678 7      1203.455          44.000  
G 9  22699900.708 4 119288847.901 4     -1674.386          28.000  
G16  21153064.128 6 111160089.890 6     -1795.352          41.000  
G18  24964708.854 5 131190386.516 5     -2551.921          35.000  
G21  22957192.546 5 120640838.569 5      3818.529          35.000  
G26  23183656.604 6 121830933.441 6     -2575.321          38.000  
G27  19884354.615 7 104492982.530 7     -1069.247          46.000  
R 7  23291163.443 3               3      -182.672          22.000  
R14  24136130.171 6 128659021.978 6     -3087.568          39.000  
R15  20305312.728 7 108505387.601 7     -1412.109          46.000  
R16  19948674.280 7 106562211.463 7      1739.525          47.000  
R17  20222582.405 6 108215080.854 6     -2138.141          39.000  
R18  19401183.202 7 103564791.160 7      1822.777          46.000  
R19  22009966.589 4               4      4269.411          27.000  
E 4  25729868.748 6 135211353.986 6     -2352.721          38.000  
E14  21520045.355 7 113088577.213 7      2767.828          44.000  
E21  26618998.385 6 139883770.087 6     -1814.204          37.000  
E26  24806163.232 6 130357322.546 6      1118.444          41.000  
J 2  38952970.184 7 204699239.38527        19.750          44.000  
J 3  37187838.779 6 195423394.340 6        16.733          40.000  
J 4  37462931.358 4 196869036.048 4      -278.881          29.000  
> 2024 11 29  9  5  7.3990000  0 23                     
G 4  22791010.580 5 119767530.284 5     -2778.831          35.000  
G 8  20075673.271 7 105498374.941 7      1203.771          44.000  
G 9  22699959.672 4 119289182.784 4     -1674.422          28.000  
G16  21153132.602 6 111160448.951 6     -1795.212          41.000  
G18  24964805.755 5 131190896.687 5     -2550.948          32.000  
G21  22957047.012 5 120640074.916 5      3818.334          35.000  
G26  23183754.552 6 121831448.521 6     -2575.206          38.000  
G27  19884395.257 7 104493196.308 7     -1068.992          46.000  
G31  24211252.113 5 127230988.43125     -3552.687          31.000  
R 7  23291171.208 3               3      -187.217          22.000  
R14  24136245.900 6 128659639.504 6     -3087.469          39.000  
R15  20305365.637 7 108505669.984 7     -1411.854          45.000  
R16  19948609.138 7 106561863.508 7      1739.850          47.000  
R17  20222662.362 6 108215508.477 6     -2138.216          39.000  
R18  19401114.971 7 103564426.575 7      1822.909          46.000  
R19  22009805.175 4               4      4271.991          27.000  
E 4  25729958.093 6 135211824.400 6     -2352.022          37.000  
E14  21519939.920 7 113088023.567 7      2768.273          44.000  
E21  26619067.331 6 139884132.907 6     -1814.007          37.000  
E26  24806120.671 6 130357098.799 6      1118.886          41.000  
J 2  38952969.363 7 204699235.37327        20.087          44.000  
J 3  37187838.081 6 195423390.939 6        16.705          40.000  
J 4  37462945.824 5 196869091.657 5      -278.480          30.000  
> 2024 11 29  9  5  7.5990000  0 23                     
G 4  22791116.276 5 119768086.006 5     -2778.782          35.000  
G 8  20075627.446 7 105498134.233 7      1203.640          44.000  
G 9  22700019.858 4 119289517.664 4     -1674.471          28.000  
G16  21153200.798 6 111160808.028 6     -1795.552          41.000  
G18  24964902.604 5 131191406.909 5     -2551.141          32.000  
G21  22956901.581 6 120639311.247 6      3818.606          36.000  
G26  23183852.517 6 121831963.631 6     -2575.488          38.000  
G27  19884435.828 7 104493410.106 7     -1068.995          46.000  
G31  24211386.601 5 127231698.94525     -3552.028          31.000  
R 7  23291177.578 3               3      -186.118          22.000  
R14  24136361.700 6 128660256.997 6     -3087.184          39.000  
R15  20305418.598 7 108505952.364 7     -1411.803          45.000  
R16  19948544.153 7 106561515.565 7      1739.709          47.000  
R17  20222742.197 6 108215936.099 6     -2138.186          39.000  
R18  19401046.706 7 103564062.014 7      1822.758          46.000  
R19  22009645.488 4               4      4270.308          27.000  
E 4  25730047.595 6 135212294.825 6     -2352.363          37.000  
E14  21519834.469 7 113087469.947 7      2768.005          44.000  
E21  26619136.329 6 139884495.717 6     -1814.175          37.000  
E26  24806078.006 6 130356875.092 6      1118.459          41.000  
J 2  38952968.491 7 204699231.36427        20.234          44.000  
J 3  37187837.418 6 195423387.526 6        16.959          40.000  
J 4  37462958.580 5 196869147.271 5      -278.531          30.000  
> 2024 11 29  9  5  7.7990000  0 23                     
G 4  22791221.850 5 119768641.761 5     -2778.408          35.000  
G 8  20075581.709 7 105497893.565 7      1203.414          44.000  
G 9  22700087.006 4 119289852.572 4     -1674.417          28.000  
G16  21153268.958 6 111161167.155 6     -1795.754          41.000  
G18  24964999.557 5 131191917.168 5     -2550.793          32.000  
G21  22956756.204 6 120638547.634 6      3818.065          36.000  
G26  23183950.570 6 121832478.748 6     -2575.448          38.000  
G27  19884476.435 7 104493623.956 7     -1069.276          46.000  
G31  24211525.383 5 127232409.67325     -3553.746          31.000  
R 7  23291183.493 3               3      -186.832          23.000  
R14  24136477.639 6 128660874.558 6     -3087.850          39.000  
R15  20305471.490 7 108506234.793 7     -1412.034          45.000  
R16  19948479.116 7 106561167.662 7      1739.620          47.000  
R17  20222822.241 6 108216363.788 6     -2138.206          39.000  
R18  19400978.354 7 103563697.520 7      1822.545          46.000  
R19  22009484.841 4               4      4271.646          27.000  
E 4  25730137.220 6 135212765.277 6     -2352.075          37.000  
E14  21519729.104 7 113086916.370 7      2767.844          44.000  
E21  26619205.344 6 139884858.538 6     -1814.135          37.000  
E26  24806035.637 6 130356651.404 6      1118.435          41.000  
J 2  38952967.514 7 204699227.38427        19.895          44.000  
J 3  37187836.667 6 195423384.134 6        17.066          40.000  
J 4  37462970.115 5 196869202.955 5      -278.201          31.000  
> 2024 11 29  9  5  7.9990000  0 23                     
G 4  22791327.581 5 119769197.498 5     -2778.285          34.000  
G 8  20075535.972 7 105497652.891 7      1203.369          44.000  
G 9  22700152.479 4 119290187.449 4     -1674.221          28.000  
G16  21153337.293 6 111161526.249 6     -1795.458          41.000  
G18  24965096.511 5 131192427.470 5     -2551.178          32.000  
G21  22956610.896 6 120637783.959 6      3818.304          36.000  
G26  23184048.518 6 121832993.849 6     -2575.470          40.000  
G27  19884517.199 7 104493837.796 7     -1069.176          47.000  
G31  24211661.914 5 127233120.32625     -3552.866          31.000  
R 7  23291189.531 3               3      -189.527          23.000  
R14  24136593.474 6 128661492.092 6     -3087.665          39.000  
R15  20305524.399 7 108506517.218 7     -1411.997          45.000  
R16  19948413.957 7 106560819.734 7      1739.687          47.000  
R17  20222902.163 6 108216791.488 6     -2138.333          39.000  
R18  19400910.071 7 103563333.043 7      1822.510          46.000  
R19  22009325.137 4               4      4271.423          27.000  
E 4  25730226.809 6 135213235.771 6     -2352.681          38.000  
E14  21519623.810 7 113086362.777 7      2767.987          44.000  
E21  26619274.465 6 139885221.381 6     -1814.233          37.000  
E26  24805993.285 6 130356427.730 6      1118.301          41.000  
J 2  38952966.833 7 204699223.35927        20.072          44.000  
J 3  37187836.213 6 195423380.749 6        16.785          40.000  
J 4  37462979.084 5 196869258.589 5      -278.062          31.000  
> 2024 11 29  9  5  8.1990000  0 23                     
G 4  22791433.260 5 119769753.275 5     -2778.882          34.000  
G 8  20075490.078 7 105497412.259 7      1203.206          44.000  
G 9  22700215.143 4 119290522.396 4     -1674.565          28.000  
G16  21153405.698 6 111161885.363 6     -1795.564          41.000  
G18  24965193.569 5 131192937.772 5     -2551.468          32.000  
G21  22956465.500 6 120637020.313 6      3818.637          36.000  
G26  23184146.571 6 121833508.964 6     -2575.382          41.000  
G27  19884557.928 7 104494051.678 7     -1069.397          47.000  
G31  24211799.317 5 127233830.92125     -3552.236          31.000  
R 7  23291196.162 3               3      -187.709          23.000  
R14  24136709.308 6 128662109.638 6     -3087.965          39.000  
R15  20305577.360 7 108506799.676 7     -1412.255          44.000  
R16  19948348.763 7 106560471.827 7      1739.525          47.000  
R17  20222982.137 6 108217219.226 6     -2138.659          39.000  
R18  19400841.788 7 103562968.620 7      1822.184          46.000  
R19  22009166.480 4               4      4270.729          27.000  
E 4  25730316.311 6 135213706.233 6     -2352.192          38.000  
E14  21519518.376 7 113085809.209 7      2767.886          44.000  
E21  26619343.376 6 139885584.210 6     -1814.122          37.000  
E26  24805950.654 6 130356204.084 6      1118.229          41.000  
J 2  38952966.118 7 204699219.35527        20.064          44.000  
J 3  37187835.481 6 195423377.345 6        16.945          41.000  
J 4  37462989.135 5 196869314.215 5      -277.605          32.000  
> 2024 11 29  9  5  8.3990000  0 23                     
G 4  22791538.921 5 119770309.019 5     -2778.382          34.000  
G 8  20075444.289 7 105497171.614 7      1203.067          44.000  
G 9  22700275.765 4 119290857.339 4     -1674.471          28.000  
G16  21153473.964 6 111162244.460 6     -1795.655          41.000  
G18  24965290.714 5 131193448.049 5     -2550.875          32.000  
G21  22956320.245 6 120636256.686 6      3818.334          36.000  
G26  23184244.571 6 121834024.047 6     -2575.496          41.000  
G27  19884598.534 7 104494265.546 7     -1069.549          47.000  
G31  24211934.346 5 127234541.55425     -3553.323          30.000  
R 7  23291202.270 3               3      -186.807          23.000  
R14  24136825.160 6 128662727.142 6     -3087.601          38.000  
R15  20305630.112 7 108507082.118 7     -1412.399          44.000  
R16  19948283.604 7 106560123.904 7      1739.524          47.000  
R17  20223062.164 6 108217646.955 6     -2139.074          39.000  
R18  19400773.558 7 103562604.183 7      1821.801          46.000  
R19  22009008.293 4               4      4271.060          27.000  
E 4  25730405.726 6 135214176.694 6     -2352.372          38.000  
E14  21519413.133 7 113085255.622 7      2767.823          44.000  
E21  26619412.269 6 139885947.015 6     -1814.130          37.000  
E26  24805908.110 6 130355980.428 6      1117.973          41.000  
J 2  38952965.245 7 204699215.31527        20.211          44.000  
J 3  37187834.905 6 195423373.921 6        17.245          41.000  
J 4  37463001.996 5 196869369.809 5      -277.556          32.000  
> 2024 11 29  9  5  8.5990000  0 23                     
G 4  22791644.617 5 119770864.797 5     -2778.854          34.000  
G 8  20075398.569 7 105496930.981 7      1203.237          44.000  
G 9  22700339.197 4 119291192.282 4     -1674.677          28.000  
G16  21153542.211 6 111162603.549 6     -1795.504          41.000  
G18  24965387.720 5 131193958.311 5     -2550.720          31.000  
G21  22956174.832 6 120635493.031 6      3818.157          36.000  
G26  23184342.537 6 121834539.121 6     -2575.366          41.000  
G27  19884639.246 7 104494479.423 7     -1069.285          47.000  
G31  24212072.465 5 127235252.12125     -3552.761          30.000  
R 7  23291209.634 3               3      -186.807          23.000  
R14  24136940.943 6 128663344.677 6     -3087.455          38.000  
R15  20305682.986 7 108507364.566 7     -1412.201          44.000  
R16  19948218.375 7 106559775.992 7      1739.531          47.000  
R17  20223142.069 6 108218074.709 6     -2138.794          39.000  
R18  19400705.275 7 103562239.770 7      1822.193          46.000  
R19  22008848.153 4 117732458.89834      4270.940          28.000  
E 4  25730495.403 6 135214647.157 6     -2352.253          38.000  
E14  21519307.734 7 113084702.043 7      2768.014          44.000  
E21  26619481.250 6 139886309.844 6     -1814.267          37.000  
E26  24805865.445 6 130355756.775 6      1118.403          41.000  
J 2  38952964.373 7 204699211.27027        20.114          44.000  
J 3  37187834.242 6 195423370.502 6        17.402          41.000  
J 4  37463012.431 5 196869425.408 5      -277.198          32.000  
> 2024 11 29  9  5  8.7990000  0 23                     
G 4  22791750.260 5 119771420.469 5     -2778.671          34.000  
G 8  20075352.728 7 105496690.261 7      1203.908          44.000  
G 9  22700404.618 4 119291527.128 4     -1673.985          27.000  
G16  21153610.512 6 111162962.538 6     -1794.573          41.000  
G18  24965484.761 5 131194468.558 5     -2550.793          31.000  
G21  22956029.437 6 120634729.260 6      3819.340          36.000  
G26  23184440.677 6 121835054.095 6     -2574.533          41.000  
G27  19884679.870 7 104494693.223 7     -1068.807          47.000  
G31  24212209.344 5 127235962.53625     -3551.935          31.000  
R 7  23291217.172 3               3      -179.266          22.000  
R14  24137056.655 6 128663962.094 6     -3086.940          38.000  
R15  20305735.738 7 108507646.923 7     -1411.742          44.000  
R16  19948152.972 7 106559427.979 7      1740.076          47.000  
R17  20223221.921 6 108218502.397 6     -2138.534          39.000  
R18  19400636.940 7 103561875.281 7      1822.626          46.000  
R19  22008688.256 4 117731604.61224      4271.637          28.000  
E 4  25730584.905 6 135215117.505 6     -2351.487          38.000  
E14  21519202.404 7 113084148.372 7      2768.354          44.000  
E21  26619550.231 6 139886672.520 6     -1813.236          37.000  
E26  24805822.779 6 130355533.034 6      1118.639          41.000  
J 2  38952963.378 7 204699207.10027        20.966          44.000  
J 3  37187833.666 6 195423366.984 6        17.837          41.000  
J 4  37463021.697 5 196869480.901 5      -277.345          32.000  
> 2024 11 29  9  5  8.9990000  0 23                     
G 4  22791856.026 5 119771976.124 5     -2778.685          34.000  
G 8  20075306.729 7 105496449.522 7      1203.667          44.000  
G 9  22700467.613 4 119291861.989 4     -1674.556          27.000  
G16  21153678.707 6 111163321.486 6     -1794.759          41.000  
G18  24965581.784 5 131194978.677 5     -2550.090          31.000  
G21  22955883.972 6 120633965.492 6      3818.946          36.000  
G26  23184538.695 6 121835569.039 6     -2574.405          41.000  
G27  19884720.529 7 104494906.988 7     -1068.617          47.000  
G31  24212344.374 5 127236672.92425     -3551.296          31.000  
R 7  23291224.135 3               3      -192.323          23.000  
R14  24137172.472 6 128664579.493 6     -3086.948          38.000  
R15  20305788.508 7 108507929.248 7     -1411.807          45.000  
R16  19948087.691 7 106559079.920 7      1740.296          47.000  
R17  20223301.930 6 108218930.054 6     -2138.262          39.000  
R18  19400568.553 7 103561510.789 7      1822.453          46.000  
R19  22008528.674 4 117730750.29624      4271.671          28.000  
E 4  25730674.529 6 135215587.811 6     -2351.515          38.000  
E14  21519097.075 7 113083594.661 7      2768.581          44.000  
E21  26619619.351 6 139887035.184 6     -1813.233          37.000  
E26  24805780.253 6 130355309.258 6      1118.872          41.000  
J 2  38952962.645 7 204699202.89127        21.050          44.000  
J 3  37187832.933 6 195423363.417 6        17.840          41.000  
J 4  37463032.499 5 196869536.304 5      -276.809          32.000  
> 2024 11 29  9  5  9.1990000  0 23                     
G 4  22791961.530 5 119772531.717 5     -2778.627          34.000  
G 8  20075261.009 7 105496208.759 7      1203.490          44.000  
G 9  22700529.230 4 119292196.829 4     -1674.230          27.000  
G16  21153747.077 6 111163680.391 6     -1794.711          41.000  
G18  24965678.772 5 131195488.839 5     -2550.621          31.000  
G21  22955738.524 6 120633201.648 6      3819.322          36.000  
G26  23184636.660 6 121836083.938 6     -2574.667          41.000  
G27  19884761.153 7 104495120.747 7     -1068.980          47.000  
G31  24212476.647 5 127237383.30725     -3551.779          32.000  
R 7  23291231.831 3               3      -180.975          23.000  
R14  24137288.324 6 128665196.847 6     -3086.875          38.000  
R15  20305841.382 7 108508211.549 7     -1411.586          45.000  
R16  19948022.479 7 106558731.832 7      1740.260          47.000  
R17  20223381.957 6 108219357.703 6     -2138.176          39.000  
R18  19400500.375 7 103561146.278 7      1822.244          46.000  
R19  22008369.406 4 117729895.94024      4271.937          28.000  
E 4  25730764.014 6 135216058.083 6     -2351.389          38.000  
E14  21518991.588 7 113083040.936 7      2768.565          44.000  
E21  26619688.506 6 139887397.805 6     -1813.187          37.000  
E26  24805737.657 6 130355085.456 6      1119.032          41.000  
J 2  38952961.685 7 204699198.62127        21.314          44.000  
J 3  37187832.182 6 195423359.810 6        18.031          41.000  
J 4  37463044.348 5 196869591.687 5      -276.589          32.000  
> 2024 11 29  9  5  9.3990000  0 23                     
G 4  22792067.226 5 119773087.295 5     -2778.104          34.000  
G 8  20075215.185 7 105495968.005 7      1204.025          44.000  
G 9  22700590.986 4 119292531.606 4     -1673.945          27.000  
G16  21153815.377 6 111164039.312 6     -1794.414          41.000  
G18  24965775.708 5 131195998.988 5     -2550.485          31.000  
G21  22955593.164 6 120632437.818 6      3819.333          36.000  
G26  23184734.608 6 121836598.837 6     -2574.272          40.000  
G27  19884801.899 7 104495334.503 7     -1068.531          47.000  
G31  24212609.879 5 127238093.68725     -3551.763          32.000  
R 7  23291237.816 3               3      -182.626          23.000  
R14  24137404.176 6 128665814.159 6     -3086.121          38.000  
R15  20305894.343 7 108508493.864 7     -1411.320          45.000  
R16  19947957.337 7 106558383.744 7      1740.702          47.000  
R17  20223461.914 6 108219785.382 6     -2138.305          39.000  
R18  19400432.109 7 103560781.807 7      1822.404          46.000  
R19  22008210.295 4 117729041.61624      4271.936          28.000  
E 4  25730853.534 6 135216528.382 6     -2351.241          38.000  
E14  21518886.049 7 113082487.219 7      2768.800          44.000  
E21  26619757.522 6 139887760.426 6     -1812.842          37.000  
E26  24805695.078 6 130354861.692 6      1119.105          41.000  
J 2  38952960.848 7 204699194.37227        21.508          43.000  
J 3  37187831.450 6 195423356.202 6        18.148          41.000  
J 4  37463052.567 5 196869647.087 5      -276.647          32.000  
> 2024 11 29  9  5  9.5990000  0 23                     
G 4  22792172.870 5 119773642.901 5     -2777.767          34.000  
G 8  20075169.396 7 105495727.317 7      1203.099          44.000  
G 9  22700654.749 4 119292866.442 4     -1674.222          27.000  
G16  21153883.590 6 111164398.254 6     -1794.817          41.000  
G18  24965872.766 5 131196509.182 5     -2550.916          31.000  
G21  22955447.769 6 120631674.029 6      3818.568          36.000  
G26  23184832.521 6 121837113.766 6     -2574.808          40.000  
G27  19884842.628 7 104495548.311 7     -1069.161          47.000  
G31  24212747.439 5 127238804.10125     -3552.793          32.000  
R 7  23291245.913 4               4      -190.345          24.000  
R14  24137519.993 6 128666431.557 6     -3086.860          39.000  
R15  20305947.130 7 108508776.215 7     -1411.873          45.000  
R16  19947892.213 7 106558035.688 7      1740.257          47.000  
R17  20223541.905 6 108220213.116 6     -2138.857          39.000  
R18  19400363.862 7 103560417.375 7      1821.789          45.000  
R19  22008050.416 4 117728187.31924      4271.446          27.000  
E 4  25730943.123 6 135216998.676 6     -2351.598          38.000  
E14  21518780.598 7 113081933.538 7      2768.128          44.000  
E21  26619826.659 6 139888123.086 6     -1813.419          37.000  
E26  24805652.534 6 130354637.946 6      1118.554          41.000  
J 2  38952960.062 7 204699190.11927        20.865          43.000  
J 3  37187830.699 6 195423352.609 6        17.756          41.000  
J 4  37463060.559 5 196869702.479 5      -276.555          32.000  
> 2024 11 29  9  5  9.7990000  0 23                     
G 4  22792278.600 5 119774198.648 5     -2778.560          34.000  
G 8  20075123.571 7 105495486.676 7      1203.023          44.000  
G 9  22700719.158 4 119293201.360 4     -1674.906          27.000  
G16  21153951.925 6 111164757.278 6     -1795.012          41.000  
G18  24965969.702 5 131197019.462 5     -2551.472          31.000  
G21  22955302.513 6 120630910.293 6      3818.977          36.000  
G26  23184930.609 6 121837628.737 6     -2574.668          40.000  
G27  19884883.322 7 104495762.187 7     -1069.385          47.000  
G31  24212883.534 5 127239514.60125     -3552.869          32.000  
R 7  23291252.858 4               4      -189.627          24.000  
R14  24137635.636 6 128667049.003 6     -3087.252          39.000  
R15  20306000.022 7 108509058.641 7     -1412.042          45.000  
R16  19947827.176 7 106557687.708 7      1740.105          47.000  
R17  20223621.880 6 108220640.930 6     -2139.168          40.000  
R18  19400295.649 7 103560053.032 7      1821.779          46.000  
R19  22007889.909 4 117727333.08324      4271.144          27.000  
E 4  25731032.678 6 135217469.067 6     -2351.810          38.000  
E14  21518675.338 7 113081379.924 7      2768.181          44.000  
E21  26619895.623 6 139888485.783 6     -1813.550          37.000  
E26  24805609.991 6 130354414.285 6      1118.362          41.000  
J 2  38952959.242 7 204699185.92427        20.960          43.000  
J 3  37187829.914 6 195423349.068 6        17.827          41.000  
J 4  37463072.495 5 196869757.987 5      -277.517          32.000  
> 2024 11 29  9  5  9.9990000  0 23                     
G 4  22792384.436 5 119774754.359 5     -2778.639          34.000  
G 8  20075077.730 7 105495246.099 7      1202.974          44.000  
G 9  22700782.537 4 119293536.369 4     -1675.344          26.000  
G16  21154020.190 6 111165116.339 6     -1795.298          41.000  
G18  24966066.673 5 131197529.734 5     -2551.071          31.000  
G21  22955157.136 6 120630146.585 6      3818.557          36.000  
G26  23185028.767 6 121838143.771 6     -2574.913          40.000  
G27  19884924.016 7 104495976.123 7     -1069.635          47.000  
G31  24213018.127 5 127240225.13625     -3553.493          32.000  
R 7  23291260.431 4               4      -187.500          25.000  
R14  24137751.383 6 128667666.509 6     -3087.669          39.000  
R15  20306052.913 7 108509341.117 7     -1412.348          45.000  
R16  19947762.261 7 106557339.769 7      1739.640          47.000  
R17  20223701.854 6 108221068.790 6     -2139.079          40.000  
R18  19400227.488 7 103559688.763 7      1821.374          46.000  
R19  22007730.623 4 117726478.94024      4270.946          27.000  
E 4  25731122.005 6 135217939.499 6     -2352.239          38.000  
E14  21518569.991 7 113080826.377 7      2767.598          44.000  
E21  26619964.569 6 139888848.523 6     -1813.742          37.000  
E26  24805567.342 6 130354190.682 6      1117.794          41.000  
J 2  38952958.492 7 204699181.74927        20.903          43.000  
J 3  37187829.251 6 195423345.579 6        17.532          40.000  
J 4  37463084.762 5 196869813.482 5      -277.653          32.000  
> 2024 11 29  9  5 10.1990000  0 23                     
G 4  22792490.184 5 119775310.112 5     -2778.286          34.000  
G 8  20075031.958 7 105495005.563 7      1202.760          44.000  
G 9  22700844.660 4 119293871.385 4     -1674.996          27.000  
G16  21154088.438 6 111165475.428 6     -1795.376          41.000  
G18  24966163.818 5 131198040.123 5     -2551.788          31.000  
G21  22955011.845 6 120629382.922 6      3818.161          36.000  
G26  23185126.819 6 121838658.851 6     -2575.230          40.000  
G27  19884964.622 7 104496190.105 7     -1069.786          47.000  
G31  24213154.029 5 127240935.69925     -3552.955          32.000  
R 7  23291268.581 4               4      -188.747          25.000  
R14  24137867.235 6 128668284.008 6     -3087.607          39.000  
R15  20306105.805 7 108509623.639 7     -1412.641          45.000  
R16  19947697.137 7 106556991.861 7      1739.664          47.000  
R17  20223781.689 6 108221496.748 6     -2139.777          40.000  
R18  19400159.415 7 103559324.555 7      1820.972          45.000  
R19  22007570.971 4 117725624.72424      4270.665          27.000  
E 4  25731211.473 6 135218409.979 6     -2352.542          38.000  
E14  21518464.819 7 113080272.851 7      2767.618          44.000  
E21  26620033.706 6 139889211.285 6     -1814.141          37.000  
E26  24805524.729 6 130353967.098 6      1117.796          41.000  
J 2  38952957.689 7 204699177.61227        20.786          43.000  
J 3  37187828.623 6 195423342.118 6        17.506          40.000  
J 4  37463094.046 5 196869869.014 5      -277.537          32.000  
> 2024 11 29  9  5 10.3990000  0 23                     
G 4  22792595.915 5 119775865.932 5     -2778.819          34.000  
G 8  20074986.168 7 105494765.066 7      1202.472          44.000  
G 9  22700907.027 4 119294206.429 4     -1675.246          27.000  
G16  21154156.721 6 111165834.550 6     -1795.426          41.000  
G18  24966260.894 5 131198550.508 5     -2552.119          32.000  
G21  22954866.554 6 120628619.263 6      3818.473          36.000  
G26  23185224.977 6 121839173.935 6     -2575.556          40.000  
G27  19885005.369 7 104496404.132 7     -1070.161          47.000  
G31  24213291.048 5 127241646.24425     -3552.039          32.000  
R 7  23291277.114 4               4      -188.562          25.000  
R14  24137983.087 6 128668901.579 6     -3087.837          39.000  
R15  20306158.644 7 108509906.187 7     -1412.788          45.000  
R16  19947631.821 7 106556643.977 7      1739.404          47.000  
R17  20223861.646 6 108221924.714 6     -2139.987          40.000  
R18  19400091.202 7 103558960.379 7      1820.850          45.000  
R19  22007410.865 4 117724770.64324      4270.281          27.000  
E 4  25731300.870 6 135218880.444 6     -2352.583          38.000  
E14  21518359.664 7 113079719.350 7      2767.587          44.000  
E21  26620102.931 6 139889574.028 6     -1813.777          37.000  
E26  24805482.081 6 130353743.542 6      1117.818          41.000  
J 2  38952956.974 7 204699173.47227        20.747          43.000  
J 3  37187827.907 6 195423338.677 6        17.438          40.000  
J 4  37463105.354 5 196869924.529 5      -277.884          32.000  
> 2024 11 29  9  5 10.5990000  0 23                     
G 4  22792701.681 5 119776421.731 5     -2778.979          34.000  
G 8  20074940.449 7 105494524.582 7      1202.277          44.000  
G 9  22700970.197 4 119294541.609 4     -1676.295          27.000  
G16  21154225.195 6 111166193.665 6     -1795.565          41.000  
G18  24966358.127 5 131199060.924 5     -2552.402          32.000  
G21  22954721.212 6 120627855.606 6      3818.493          36.000  
G26  23185323.030 6 121839689.002 6     -2575.257          40.000  
G27  19885046.115 7 104496618.159 7     -1070.124          47.000  
G31  24213425.677 5 127242356.84625     -3552.693          32.000  
R 7  23291284.234 4               4      -188.545          25.000  
R14  24138098.765 6 128669519.127 6     -3088.153          39.000  
R15  20306211.658 7 108510188.749 7     -1412.904          45.000  
R16  19947566.679 7 106556296.104 7      1739.484          47.000  
R17  20223941.655 6 108222352.725 6     -2139.997          40.000  
R18  19400022.919 7 103558596.241 7      1820.846          45.000  
R19  22007252.034 4 117723916.50824      4270.675          27.000  
E 4  25731390.372 6 135219350.924 6     -2352.194          38.000  
E14  21518254.229 7 113079165.869 7      2767.523          44.000  
E21  26620171.860 6 139889936.798 6     -1813.565          37.000  
E26  24805439.450 6 130353520.025 6      1117.500          41.000  
J 2  38952955.944 7 204699169.32927        20.816          43.000  
J 3  37187827.261 6 195423335.236 6        17.175          40.000  
J 4  37463116.574 5 196869980.036 5      -277.711          32.000  
> 2024 11 29  9  5 10.7990000  0 23                     
G 4  22792807.464 5 119776977.594 5     -2779.309          34.000  
G 8  20074894.659 7 105494284.160 7      1202.074          44.000  
G 9  22701033.454 4 119294876.639 4     -1675.109          27.000  
G16  21154293.583 6 111166552.819 6     -1795.905          41.000  
G18  24966455.185 5 131199571.339 5     -2551.758          32.000  
G21  22954575.747 6 120627091.999 6      3818.290          36.000  
G26  23185421.187 6 121840204.113 6     -2575.593          40.000  
G27  19885086.809 7 104496832.242 7     -1070.617          47.000  
G31  24213560.218 5 127243067.46025     -3553.712          32.000  
R 7  23291293.220 4               4      -189.061          25.000  
R14  24138214.651 6 128670136.704 6     -3088.014          39.000  
R15  20306264.585 7 108510471.359 7     -1413.136          45.000  
R16  19947501.625 7 106555948.273 7      1739.123          47.000  
R17  20224021.577 6 108222780.801 6     -2140.733          40.000  
R18  19399954.619 7 103558232.169 7      1820.213          45.000  
R19  22007091.684 4 117723062.38224      4270.394          27.000  
E 4  25731480.014 6 135219821.479 6     -2353.059          38.000  
E14  21518148.882 7 113078612.423 7      2767.240          44.000  
E21  26620240.963 6 139890299.610 6     -1814.181          37.000  
E26  24805396.836 6 130353296.536 6      1117.352          41.000  
J 2  38952955.298 7 204699165.21027        20.740          43.000  
J 3  37187826.581 6 195423331.805 6        17.035          41.000  
J 4  37463128.789 5 196870035.578 5      -277.460          31.000  
> 2024 11 29  9  5 10.9990000  0 23                     
G 4  22792913.178 5 119777533.469 5     -2779.330          34.000  
G 8  20074848.940 7 105494043.774 7      1201.873          44.000  
G 9  22701097.845 4 119295211.788 4     -1675.398          26.000  
G16  21154361.778 6 111166912.029 6     -1795.874          41.000  
G18  24966552.208 5 131200081.805 5     -2551.415          31.000  
G21  22954430.351 6 120626328.427 6      3818.081          36.000  
G26  23185519.345 6 121840719.251 6     -2575.450          40.000  
G27  19885127.607 7 104497046.371 7     -1070.587          47.000  
G31  24213693.712 5 127243778.09825     -3553.245          31.000  
R 7  23291300.654 4               4      -189.092          25.000  
R14  24138330.434 6 128670754.322 6     -3088.092          39.000  
R15  20306317.529 7 108510754.011 7     -1413.146          45.000  
R16  19947436.396 7 106555600.485 7      1738.940          47.000  
R17  20224101.639 6 108223208.907 6     -2140.447          40.000  
R18  19399886.493 7 103557868.154 7      1820.081          45.000  
R19  22006930.740 4 117722208.37824      4270.296          27.000  
E 4  25731569.516 6 135220292.032 6     -2352.639          38.000  
E14  21518043.588 7 113078059.010 7      2767.194          44.000  
E21  26620310.083 6 139890662.455 6     -1814.307          37.000  
E26  24805354.171 6 130353073.106 6      1117.246          41.000  
J 2  38952954.426 7 204699161.12527        20.524          43.000  
J 3  37187825.988 6 195423328.422 6        17.122          41.000  
J 4  37463140.394 5 196870091.163 5      -277.812          31.000  
> 2024 11 29  9  5 11.1990000  0 23                     
G 4  22793018.996 5 119778089.354 5     -2779.582          34.000  
G 8  20074803.028 7 105493803.411 7      1201.750          44.000  
G 9  22701161.887 4 119295547.033 4     -1676.344          26.000  
G16  21154430.061 6 111167271.217 6     -1796.155          41.000  
G18  24966649.318 5 131200592.313 5     -2551.848          31.000  
G21  22954285.166 6 120625564.844 6      3818.267          36.000  
G26  23185617.450 6 121841234.395 6     -2575.832          41.000  
G27  19885168.406 7 104497260.528 7     -1070.952          47.000  
G31  24213830.173 5 127244488.72625     -3553.663          31.000  
R 7  23291308.140 4               4      -188.691          25.000  
R14  24138446.251 6 128671371.933 6     -3087.963          38.000  
R15  20306370.350 7 108511036.682 7     -1413.547          45.000  
R16  19947371.377 7 106555252.698 7      1738.865          47.000  
R17  20224181.805 6 108223637.078 6     -2140.901          40.000  
R18  19399818.438 7 103557504.175 7      1819.774          45.000  
R19  22006770.582 4 117721354.33724      4270.056          27.000  
E 4  25731658.914 6 135220762.601 6     -2352.896          38.000  
E14  21517938.328 7 113077505.613 7      2766.863          44.000  
E21  26620379.151 6 139891025.261 6     -1813.993          37.000  
E26  24805311.732 6 130352849.678 6      1117.116          41.000  
J 2  38952953.798 7 204699157.02427        20.455          43.000  
J 3  37187825.377 6 195423325.036 6        16.763          41.000  
J 4  37463150.201 5 196870146.757 5      -278.273          31.000  
> 2024 11 29  9  5 11.3990000  0 23                     
G 4  22793124.814 5 119778645.280 5     -2779.169          34.000  
G 8  20074757.396 7 105493563.115 7      1201.369          44.000  
G 9  22701225.511 4 119295882.285 4     -1676.457          26.000  
G16  21154498.379 6 111167630.474 6     -1796.218          41.000  
G18  24966746.429 5 131201102.935 5     -2553.173          32.000  
G21  22954139.840 6 120624801.367 6      3817.204          36.000  
G26  23185715.520 6 121841749.579 6     -2575.762          41.000  
G27  19885209.187 7 104497474.744 7     -1071.183          47.000  
G31  24213964.452 5 127245199.37725     -3553.240          31.000  
R 7  23291316.133 4               4      -188.912          25.000  
R14  24138562.225 6 128671989.607 6     -3087.862          38.000  
R15  20306423.294 7 108511319.420 7     -1413.623          45.000  
R16  19947306.252 7 106554904.977 7      1738.609          47.000  
R17  20224261.954 6 108224065.305 6     -2141.355          40.000  
R18  19399750.312 7 103557140.277 7      1819.402          45.000  
R19  22006610.756 4 117720500.44524      4269.113          28.000  
E 4  25731748.346 6 135221233.211 6     -2353.144          38.000  
E14  21517832.999 7 113076952.259 7      2766.853          44.000  
E21  26620448.376 6 139891388.150 6     -1814.529          37.000  
E26  24805269.136 6 130352626.335 6      1116.771          41.000  
J 2  38952952.943 7 204699152.97027        20.404          44.000  
J 3  37187824.644 6 195423321.691 6        16.823          41.000  
J 4  37463159.031 5 196870202.348 5      -278.394          31.000  
> 2024 11 29  9  5 11.5990000  0 23                     
G 4  22793230.580 5 119779201.281 5     -2779.497          34.000  
G 8  20074711.537 7 105493322.841 7      1201.247          44.000  
G 9  22701290.286 4 119296217.524 4     -1675.689          26.000  
G16  21154566.679 6 111167989.740 6     -1796.548          41.000  
G18  24966843.347 5 131201613.519 5     -2553.589          32.000  
G21  22953994.602 5 120624037.838 5      3817.100          35.000  
G26  23185813.573 6 121842264.783 6     -2576.157          41.000  
G27  19885249.933 7 104497688.986 7     -1071.438          47.000  
G31  24214099.325 5 127245910.04125     -3553.325          31.000  
R 7  23291323.915 4               4      -189.679          25.000  
R14  24138677.972 6 128672607.316 6     -3088.135          38.000  
R15  20306476.343 7 108511602.172 7     -1413.894          45.000  
R16  19947241.268 7 106554557.265 7      1738.435          47.000  
R17  20224342.068 6 108224493.556 6     -2141.229          40.000  
R18  19399682.239 7 103556776.405 7      1819.267          45.000  
R19  22006451.784 4 117719646.43424      4269.823          28.000  
E 4  25731837.674 6 135221703.816 6     -2352.845          38.000  
E14  21517727.599 7 113076398.919 7      2766.721          44.000  
E21  26620517.514 6 139891751.044 6     -1814.498          37.000  
E26  24805226.714 6 130352402.992 6      1116.553          41.000  
J 2  38952952.053 7 204699148.92127        20.110          44.000  
J 3  37187823.998 6 195423318.364 6        16.561          41.000  
J 4  37463167.459 5 196870257.957 5      -278.092          31.000  
> 2024 11 29  9  5 11.7990000  0 23                     
G 4  22793336.293 5 119779757.314 5     -2780.453          34.000  
G 8  20074665.747 7 105493082.617 7      1201.079          44.000  
G 9  22701354.381 4 119296552.845 4     -1676.868          26.000  
G16  21154635.084 6 111168349.045 6     -1796.890          41.000  
G18  24966940.493 5 131202124.117 5     -2553.103          32.000  
G21  22953849.224 5 120623274.371 5      3817.338          35.000  
G26  23185911.591 6 121842780.020 6     -2576.129          40.000  
G27  19885290.732 7 104497903.283 7     -1071.604          47.000  
G31  24214235.472 5 127246620.77625     -3553.142          32.000  
R 7  23291332.082 4               4      -189.648          25.000  
R14  24138793.894 6 128673225.055 6     -3088.954          38.000  
R15  20306529.392 7 108511884.980 7     -1414.081          45.000  
R16  19947176.231 7 106554209.600 7      1738.299          47.000  
R17  20224422.147 6 108224921.902 6     -2141.872          40.000  
R18  19399614.043 7 103556412.615 7      1818.900          45.000  
R19  22006291.207 4 117718792.50124      4269.742          28.000  
E 4  25731927.246 6 135222174.525 6     -2353.569          38.000  
E14  21517622.305 7 113075845.636 7      2766.327          44.000  
E21  26620586.512 6 139892113.974 6     -1814.932          37.000  
E26  24805184.258 6 130352179.722 6      1116.296          41.000  
J 2  38952951.372 7 204699144.89727        19.962          44.000  
J 3  37187823.422 6 195423315.070 6        16.487          41.000  
J 4  37463178.575 5 196870313.642 5      -278.413          30.000  
> 2024 11 29  9  5 11.9990000  0 23                     
G 4  22793442.007 5 119780313.290 5     -2779.695          34.000  
G 8  20074620.063 7 105492842.418 7      1200.869          44.000  
G 9  22701418.161 4 119296888.209 4     -1677.107          27.000  
G16  21154703.523 6 111168708.337 6     -1796.523          41.000  
G18  24967037.586 5 131202634.772 5     -2553.707          32.000  
G21  22953703.881 5 120622510.893 5      3817.301          35.000  
G26  23186009.731 6 121843295.255 6     -2576.197          40.000  
G27  19885331.618 7 104498117.585 7     -1071.583          47.000  
G31  24214369.803 5 127247331.55425     -3553.756          32.000  
R 7  23291340.388 4               4      -190.265          26.000  
R14  24138909.729 6 128673842.759 6     -3088.422          38.000  
R15  20306582.370 7 108512167.775 7     -1413.965          45.000  
R16  19947111.107 7 106553861.939 7      1738.250          47.000  
R17  20224502.156 6 108225350.249 6     -2141.791          40.000  
R18  19399545.865 7 103556048.841 7      1818.923          45.000  
R19  22006131.590 4 117717938.59324      4269.781          27.000  
E 4  25732016.835 6 135222645.177 6     -2353.119          38.000  
E14  21517517.062 7 113075292.342 7      2766.435          44.000  
E21  26620655.492 6 139892476.868 6     -1814.557          37.000  
E26  24805141.854 6 130351956.432 6      1116.344          41.000  
J 2  38952950.674 7 204699140.85527        20.061          44.000  
J 3  37187822.759 6 195423311.760 6        16.451          40.000  
J 4  37463188.487 5 196870369.259 5      -278.375          30.000  
> 2024 11 29  9  5 12.1990000  0 23                     
G 4  22793547.685 5 119780869.283 5     -2779.691          34.000  
G 8  20074574.518 7 105492602.199 7      1201.042          44.000  
G 9  22701480.633 4 119297223.553 4     -1676.713          27.000  
G16  21154771.789 6 111169067.611 6     -1796.199          41.000  
G18  24967134.801 5 131203145.395 5     -2553.591          32.000  
G21  22953558.399 6 120621747.404 6      3817.482          36.000  
G26  23186107.836 6 121843810.468 6     -2576.032          40.000  
G27  19885372.416 7 104498331.878 7     -1071.392          47.000  
G31  24214503.716 5 127248042.24525     -3553.888          32.000  
R 7  23291349.131 4               4      -189.731          26.000  
R14  24139025.493 6 128674460.472 6     -3088.323          38.000  
R15  20306635.332 7 108512450.580 7     -1413.959          45.000  
R16  19947046.035 7 106553514.259 7      1738.265          47.000  
R17  20224582.200 6 108225778.614 6     -2141.927          40.000  
R18  19399477.530 7 103555685.079 7      1818.849          45.000  
R19  22005972.235 4 117717084.68324      4270.084          27.000  
E 4  25732106.459 6 135223115.859 6     -2353.312          38.000  
E14  21517411.803 7 113074739.043 7      2766.633          44.000  
E21  26620724.403 6 139892839.766 6     -1814.603          37.000  
E26  24805099.188 6 130351733.142 6      1116.629          41.000  
J 2  38952950.029 7 204699136.78627        20.289          44.000  
J 3  37187822.183 6 195423308.431 6        16.719          40.000  
J 4  37463199.882 5 196870424.888 5      -278.083          30.000  
> 2024 11 29  9  5 12.3990000  0 23                     
G 4  22793653.433 5 119781425.280 5     -2780.159          34.000  
G 8  20074528.833 7 105492361.979 7      1201.115          44.000  
G 9  22701545.303 4 119297558.826 4     -1676.391          27.000  
G16  21154840.106 6 111169426.896 6     -1796.228          41.000  
G18  24967231.789 5 131203655.989 5     -2553.011          32.000  
G21  22953413.021 6 120620983.905 6      3817.240          36.000  
G26  23186205.801 6 121844325.670 6     -2575.866          40.000  
G27  19885413.355 7 104498546.177 7     -1071.348          47.000  
G31  24214639.985 5 127248752.95125     -3553.982          32.000  
R 7  23291358.013 4               4      -190.113          26.000  
R14  24139141.241 6 128675078.161 6     -3088.440          38.000  
R15  20306688.224 7 108512733.365 7     -1413.948          45.000  
R16  19946980.910 7 106553166.556 7      1738.655          47.000  
R17  20224662.297 6 108226206.975 6     -2141.865          40.000  
R18  19399409.370 7 103555321.322 7      1818.789          45.000  
R19  22005812.356 4 117716230.76524      4269.899          27.000  
E 4  25732196.066 6 135223586.468 6     -2352.746          38.000  
E14  21517306.508 7 113074185.730 7      2766.570          44.000  
E21  26620793.524 6 139893202.625 6     -1814.206          37.000  
E26  24805056.767 6 130351509.853 6      1116.567          41.000  
J 2  38952949.208 7 204699132.68427        20.455          44.000  
J 3  37187821.520 6 195423305.096 6        16.631          40.000  
J 4  37463210.352 5 196870480.456 5      -278.117          30.000  
> 2024 11 29  9  5 12.5990000  0 23                     
G 4  22793759.217 5 119781981.270 5     -2779.702          34.000  
G 8  20074483.061 7 105492121.799 7      1200.933          44.000  
G 9  22701608.683 4 119297894.265 4     -1677.390          27.000  
G16  21154908.406 6 111169786.179 6     -1796.164          41.000  
G18  24967328.830 5 131204166.612 5     -2552.668          31.000  
G21  22953267.783 6 120620220.405 6      3817.370          36.000  
G26  23186303.837 6 121844840.881 6     -2575.779          40.000  
G27  19885454.066 7 104498760.499 7     -1071.539          47.000  
G31  24214774.649 5 127249463.64425     -3553.253          32.000  
R 7  23291366.686 4               4      -190.443          26.000  
R14  24139257.215 6 128675695.852 6     -3087.981          38.000  
R15  20306741.237 7 108513016.171 7     -1413.878          45.000  
R16  19946915.891 7 106552818.891 7      1738.480          47.000  
R17  20224742.515 6 108226635.366 6     -2141.993          40.000  
R18  19399341.174 7 103554957.612 7      1818.689          45.000  
R19  22005652.459 4 117715376.85024      4269.710          27.000  
E 4  25732285.760 6 135224057.149 6     -2353.109          38.000  
E14  21517201.266 7 113073632.441 7      2766.580          44.000  
E21  26620862.627 6 139893565.503 6     -1814.553          37.000  
E26  24805014.153 6 130351286.595 6      1116.417          41.000  
J 2  38952948.371 7 204699128.58627        20.642          44.000  
J 3  37187820.979 6 195423301.758 6        16.716          40.000  
J 4  37463220.665 5 196870536.030 5      -277.645          30.000  
> 2024 11 29  9  5 12.7990000  0 23                     
G 4  22793864.947 5 119782537.287 5     -2779.706          34.000  
G 8  20074437.481 7 105491881.636 7      1200.900          44.000  
G 9  22701672.987 4 119298229.598 4     -1676.856          27.000  
G16  21154976.689 6 111170145.498 6     -1796.641          41.000  
G18  24967426.534 5 131204677.368 5     -2554.389          31.000  
G21  22953122.545 6 120619456.906 6      3817.580          36.000  
G26  23186401.872 6 121845356.114 6     -2576.123          40.000  
G27  19885494.882 7 104498974.868 7     -1071.794          47.000  
G31  24214909.870 5 127250174.40525     -3554.507          32.000  
R 7  23291376.179 4 124680494.03734      -190.327          26.000  
R14  24139373.102 6 128676313.593 6     -3088.422          38.000  
R15  20306794.338 7 108513299.003 7     -1413.975          45.000  
R16  19946850.941 7 106552471.240 7      1738.276          47.000  
R17  20224822.664 6 108227063.809 6     -2142.015          40.000  
R18  19399273.206 7 103554593.951 7      1818.276          45.000  
R19  22005493.052 4 117714522.95924      4269.494          27.000  
E 4  25732375.420 6 135224527.845 6     -2353.406          38.000  
E14  21517095.901 7 113073079.186 7      2766.147          44.000  
E21  26620931.572 6 139893928.364 6     -1814.244          37.000  
E26  24804971.749 6 130351063.349 6      1116.302          41.000  
J 2  38952947.585 7 204699124.51227        20.387          44.000  
J 3  37187820.369 6 195423298.430 6        16.564          40.000  
J 4  37463231.746 5 196870591.605 5      -277.156          31.000  
> 2024 11 29  9  5 12.9990000  0 23                     
G 4  22793970.696 5 119783093.318 5     -2779.922          34.000  
G 8  20074391.692 7 105491641.514 7      1200.584          44.000  
G 9  22701737.570 4 119298565.013 4     -1677.308          27.000  
G16  21155045.111 6 111170504.816 6     -1796.457          41.000  
G18  24967524.290 5 131205188.022 5     -2553.383          31.000  
G21  22952977.150 6 120618693.448 6      3817.313          36.000  
G26  23186500.012 6 121845871.351 6     -2576.172          41.000  
G27  19885535.646 7 104499189.247 7     -1071.957          47.000  
G31  24215044.987 5 127250885.07325     -3552.846          32.000  
R 7  23291384.502 4 124680532.23824      -191.251          26.000  
R14  24139488.901 6 128676931.329 6     -3088.674          38.000  
R15  20306847.352 7 108513581.867 7     -1414.122          45.000  
R16  19946785.887 7 106552123.607 7      1738.226          47.000  
R17  20224902.726 6 108227492.287 6     -2142.322          40.000  
R18  19399205.097 7 103554230.324 7      1818.179          45.000  
R19  22005332.876 4 117713669.11524      4269.109          27.000  
E 4  25732464.869 6 135224998.560 6     -2353.702          38.000  
E14  21516990.659 7 113072525.941 7      2766.324          44.000  
E21  26621000.396 6 139894291.271 6     -1814.271          37.000  
E26  24804929.101 6 130350840.156 6      1115.938          41.000  
J 2  38952946.835 7 204699120.42027        20.517          44.000  
J 3  37187819.671 6 195423295.113 6        16.723          40.000  
J 4  37463242.914 5 196870647.232 5      -277.515          31.000  
> 2024 11 29  9  5 13.1990000  0 23                     
G 4  22794076.462 5 119783649.441 5     -2780.743          34.000  
G 8  20074345.955 7 105491401.427 7      1200.340          44.000  
G 9  22701800.932 4 119298900.492 4     -1677.613          27.000  
G16  21155113.342 6 111170864.203 6     -1797.258          41.000  
G18  24967620.912 5 131205698.754 5     -2553.727          30.000  
G21  22952831.981 6 120617930.035 6      3816.745          36.000  
G26  23186598.169 6 121846386.627 6     -2576.435          41.000  
G27  19885576.427 7 104499403.681 7     -1072.131          47.000  
G31  24215181.326 5 127251595.86625     -3553.680          32.000  
R 7  23291392.774 4               4      -190.769          26.000  
R14  24139604.718 6 128677549.087 6     -3088.820          38.000  
R15  20306900.279 7 108513864.780 7     -1414.507          45.000  
R16  19946720.885 7 106551776.031 7      1737.859          47.000  
R17  20224982.752 6 108227920.853 6     -2142.995          40.000  
R18  19399137.094 7 103553866.761 7      1817.701          45.000  
R19  22005173.364 4 117712815.29224      4268.913          27.000  
E 4  25732554.494 6 135225469.295 6     -2353.885          38.000  
E14  21516885.399 7 113071972.750 7      2765.891          44.000  
E21  26621069.359 6 139894654.196 6     -1814.720          38.000  
E26  24804886.662 6 130350616.981 6      1115.763          41.000  
J 2  38952945.980 7 204699115.87517        20.348          44.000  
J 3  37187819.025 6 195423291.830 6        16.405          41.000  
J 4  37463253.873 5 196870702.889 5      -278.521          31.000  
> 2024 11 29  9  5 13.3990000  0 23                     
G 4  22794182.123 5 119784205.489 5     -2780.755          34.000  
G 8  20074300.357 7 105491161.343 7      1200.407          44.000  
G 9  22701864.695 4 119299235.908 4     -1677.097          27.000  
G16  21155181.659 6 111171223.537 6     -1796.743          41.000  
G18  24967718.354 4 131206209.526 4     -2554.159          24.000  
G21  22952686.813 6 120617166.566 6      3817.068          36.000  
G26  23186696.257 6 121846901.872 6     -2576.208          41.000  
G27  19885617.330 7 104499618.129 7     -1072.298          47.000  
G31  24215316.094 5 127252306.60125     -3554.148          32.000  
R 7  23291400.906 4               4      -191.107          26.000  
R14  24139720.466 6 128678166.835 6     -3088.496          38.000  
R15  20306953.380 7 108514147.685 7     -1414.650          44.000  
R16  19946655.883 7 106551428.430 7      1737.913          47.000  
R17  20225062.884 6 108228349.389 6     -2142.707          40.000  
R18  19399068.986 7 103553503.208 7      1817.657          45.000  
R19  22005013.066 4 117711961.44624      4269.013          28.000  
E 4  25732644.048 6 135225940.001 6     -2353.382          38.000  
E14  21516780.140 7 113071419.542 7      2766.045          44.000  
E21  26621138.514 6 139895017.106 6     -1814.481          37.000  
E26  24804844.083 6 130350393.819 6      1115.692          41.000  
J 2  38952945.265 7 204699111.787 7        20.472          44.000  
J 3  37187818.432 6 195423288.525 6        16.607          41.000  
J 4  37463264.727 5 196870758.465 5      -277.780          31.000  
> 2024 11 29  9  5 13.5990000  0 23                     
G 4  22794287.853 5 119784761.538 5     -2780.092          34.000  
G 8  20074254.603 7 105490921.259 7      1200.500          44.000  
G 9  22701929.383 4 119299571.306 4     -1677.121          27.000  
G16  21155249.994 6 111171582.857 6     -1796.637          41.000  
G18  24967813.911 4 131206720.164 4     -2553.877          24.000  
G21  22952541.487 6 120616403.092 6      3817.400          36.000  
G26  23186794.345 6 121847417.085 6     -2575.977          41.000  
G27  19885658.199 7 104499832.541 7     -1072.047          47.000  
G31  24215451.438 5 127253017.30025     -3553.529          32.000  
R 7  23291408.392 4               4      -191.248          25.000  
R14  24139836.230 6 128678784.579 6     -3088.478          38.000  
R15  20307006.376 7 108514430.563 7     -1414.480          44.000  
R16  19946590.811 7 106551080.794 7      1738.289          47.000  
R17  20225142.858 6 108228777.934 6     -2142.595          40.000  
R18  19399001.000 7 103553139.647 7      1817.762          45.000  
R19  22004853.798 4 117711107.63124      4268.978          28.000  
E 4  25732733.655 6 135226410.701 6     -2353.245          38.000  
E14  21516674.793 7 113070866.297 7      2766.267          44.000  
E21  26621207.548 6 139895379.954 6     -1814.128          37.000  
E26  24804801.627 6 130350170.616 6      1116.007          40.000  
J 2  38952944.532 7 204699107.658 7        20.934          44.000  
J 3  37187817.803 6 195423285.157 6        17.113          41.000  
J 4  37463275.581 5 196870814.006 5      -277.228          32.000  
> 2024 11 29  9  5 13.7990000  0 22                     
G 4  22794393.741 5 119785317.531 5     -2779.202          34.000  
G 8  20074208.936 7 105490681.148 7      1200.992          45.000  
G 9  22701993.983 4 119299906.737 4     -1677.273          27.000  
G16  21155318.364 6 111171942.163 6     -1796.068          41.000  
G21  22952396.214 6 120615639.593 6      3817.613          36.000  
G26  23186892.328 7 121847932.261 7     -2575.695          42.000  
G27  19885698.823 8 104500046.942 8     -1071.548          48.000  
G31  24215586.310 5 127253727.92325     -3552.797          32.000  
R 7  23291416.750 4               4      -190.232          25.000  
R14  24139952.082 6 128679402.250 6     -3087.836          38.000  
R15  20307059.355 7 108514713.415 7     -1413.752          44.000  
R16  19946525.739 8 106550733.157 8      1738.689          48.000  
R17  20225222.780 6 108229206.485 6     -2142.064          38.000  
R18  19398933.031 7 103552776.091 7      1818.175          46.000  
R19  22004694.774 4 117710253.69624      4269.793          28.000  
E 4  25732823.175 6 135226881.381 6     -2353.288          38.000  
E14  21516569.498 7 113070313.021 7      2766.864          44.000  
E21  26621276.546 6 139895742.754 6     -1813.632          37.000  
E26  24804759.118 6 130349947.434 6      1115.952          39.000  
J 2  38952943.746 7 204699103.495 7        21.301          44.000  
J 3  37187817.158 6 195423281.798 6        17.395          41.000  
J 4  37463286.330 5 196870869.518 5      -276.853          31.000  
> 2024 11 29  9  5 13.9990000  0 22                     
G 4  22794499.577 5 119785873.482 5     -2779.447          34.000  
G 8  20074163.216 7 105490441.005 7      1200.695          45.000  
G 9  22702058.985 4 119300242.018 4     -1674.798          28.000  
G16  21155386.734 6 111172301.412 6     -1796.179          41.000  
G21  22952250.889 6 120614876.033 6      3817.963          36.000  
G26  23186990.206 7 121848447.370 7     -2575.630          42.000  
G27  19885739.709 8 104500261.301 8     -1071.803          48.000  
G31  24215719.560 4 127254438.66224     -3555.274          27.000  
R 7  23291425.074 4               4      -190.246          25.000  
R14  24140067.812 6 128680019.894 6     -3088.081          38.000  
R15  20307112.211 7 108514996.255 7     -1414.425          43.000  
R16  19946460.685 8 106550385.436 8      1738.554          48.000  
R17  20225302.824 6 108229635.000 6     -2142.690          38.000  
R18  19398864.958 7 103552412.526 7      1817.584          46.000  
R19  22004536.431 4 117709399.79424      4269.663          28.000  
E 4  25732912.869 6 135227351.991 6     -2353.265          38.000  
E14  21516464.151 7 113069759.720 7      2766.430          44.000  
E21  26621345.492 6 139896105.558 6     -1814.597          37.000  
E26  24804716.487 6 130349724.194 6      1116.069          39.000  
J 2  38952942.926 7 204699099.289 7        21.071          44.000  
J 3  37187816.407 6 195423278.405 6        16.400          40.000  
J 4  37463297.009 5 196870925.024 5      -277.004          31.000  
> 2024 11 29  9  5 14.1990000  0 22                     
G 4  22794605.290 5 119786429.438 5     -2779.095          34.000  
G 8  20074117.462 7 105490200.860 7      1200.970          44.000  
G 9  22702124.337 4 119300577.602 4     -1677.877          28.000  
G16  21155455.000 6 111172660.660 6     -1795.488          40.000  
G21  22952105.511 6 120614112.439 6      3818.334          36.000  
G26  23187088.171 7 121848962.528 7     -2575.682          42.000  
G27  19885780.507 7 104500475.654 7     -1071.709          47.000  
G31  24215855.445 5 127255149.07825     -3550.741          33.000  
R 7  23291432.072 4               4      -190.730          25.000  
R14  24140183.699 6 128680637.492 6     -3087.783          38.000  
R15  20307165.155 7 108515279.007 7     -1413.906          43.000  
R16  19946395.683 8 106550037.748 8      1738.589          48.000  
R17  20225382.921 6 108230063.551 6     -2142.898          40.000  
R18  19398796.849 7 103552048.927 7      1818.069          46.000  
R19  22004376.726 4 117708545.85724      4269.500          28.000  
E 4  25733002.406 6 135227822.562 6     -2352.697          38.000  
E14  21516358.891 7 113069206.378 7      2766.960          44.000  
E21  26621414.507 6 139896468.326 6     -1813.285          38.000  
E26  24804673.944 6 130349500.901 6      1116.548          40.000  
J 2  38952942.158 7 204699095.029 7        21.537          43.000  
J 3  37187815.605 6 195423274.906 6        17.936          40.000  
J 4  37463307.235 5 196870980.400 5      -276.594          31.000  
> 2024 11 29  9  5 14.3990000  0 22                     
G 4  22794710.951 5 119786985.398 5     -2780.827          34.000  
G 8  20074071.812 7 105489960.660 7      1200.642          45.000  
G 9  22702189.897 4 119300912.848 4     -1676.768          28.000  
G16  21155523.474 6 111173019.793 6     -1795.471          38.000  
G21  22951960.256 5 120613348.878 5      3817.305          35.000  
G26  23187186.172 7 121849477.602 7     -2575.645          42.000  
G27  19885821.219 7 104500690.017 7     -1072.189          45.000  
G31  24215989.707 5 127255859.84325     -3554.049          32.000  
R 7  23291439.767 4               4      -191.158          24.000  
R14  24140299.464 6 128681255.131 6     -3088.204          38.000  
R15  20307218.082 7 108515561.815 7     -1413.933          44.000  
R16  19946330.628 7 106549690.014 7      1738.442          47.000  
R17  20225462.982 6 108230492.106 6     -2143.050          40.000  
R18  19398728.968 7 103551685.348 7      1817.684          46.000  
R19  22004217.319 4 117707691.83424      4269.876          28.000  
E 4  25733091.960 6 135228293.180 6     -2353.444          38.000  
E14  21516253.632 7 113068653.037 7      2766.482          44.000  
E21  26621483.505 6 139896831.076 6     -1813.807          38.000  
E26  24804631.505 6 130349277.646 6      1116.141          40.000  
J 2  38952941.373 7 204699090.764 7        21.245          43.000  
J 3  37187815.029 6 195423271.480 6        16.936          40.000  
J 4  37463317.077 4 196871035.821 4      -277.418          25.000  
> 2024 11 29  9  5 14.5990000  0 22                     
G 4  22794816.770 5 119787541.306 5     -2778.736          34.000  
G 8  20074026.092 7 105489720.557 7      1200.642          43.000  
G 9  22702254.567 4 119301248.224 4     -1677.051          28.000  
G16  21155591.879 6 111173378.972 6     -1796.464          39.000  
G21  22951814.913 5 120612585.223 5      3818.435          35.000  
G26  23187284.207 6 121849992.705 6     -2575.674          39.000  
G27  19885862.035 7 104500904.410 7     -1072.094          44.000  
G31  24216127.180 5 127256570.30525     -3552.112          35.000  
R 7  23291447.393 4               4      -191.169          25.000  
R14  24140415.194 6 128681872.725 6     -3088.434          38.000  
R15  20307271.113 7 108515844.641 7     -1414.333          45.000  
R16  19946265.469 7 106549342.286 7      1738.503          47.000  
R17  20225542.992 6 108230920.658 6     -2142.869          40.000  
R18  19398661.000 7 103551321.822 7      1817.431          46.000  
R19  22004056.393 4 117706838.01124      4269.375          28.000  
E 4  25733181.567 6 135228763.732 6     -2352.390          38.000  
E14  21516148.442 7 113068099.705 7      2766.688          44.000  
E21  26621552.695 6 139897193.803 6     -1813.232          38.000  
E26  24804588.961 6 130349054.401 6      1116.084          40.000  
J 2  38952940.588 7 204699086.465 7        21.407          43.000  
J 3  37187814.401 7 195423267.980 7        17.513          42.000  
J 4  37463325.890 4 196871091.374 4      -277.068          26.000  
> 2024 11 29  9  5 14.7990000  0 23                     
G 4  22794922.692 5 119788097.329 5     -2780.555          34.000  
G 8  20073980.390 7 105489480.511 7      1200.226          43.000  
G 9  22702319.325 4 119301583.716 4     -1677.293          28.000  
G16  21155660.197 6 111173738.256 6     -1796.724          41.000  
G18  24968401.757 5 131209835.32815     -2553.643          30.000  
G21  22951669.622 5 120611821.783 5      3817.199          31.000  
G26  23187382.085 6 121850507.900 6     -2576.131          40.000  
G27  19885902.921 7 104501118.863 7     -1072.285          44.000  
G31  24216259.278 5 127257280.97525     -3553.881          32.000  
R 7  23291454.932 4               4      -192.557          24.000  
R14  24140530.976 6 128682490.407 6     -3088.856          39.000  
R15  20307324.127 7 108516127.526 7     -1414.657          45.000  
R16  19946200.380 7 106548994.648 7      1738.083          47.000  
R17  20225623.210 6 108231349.340 6     -2143.740          36.000  
R18  19398592.944 7 103550958.371 7      1817.081          46.000  
R19  22003897.386 4 117705984.07524      4269.047          27.000  
E 4  25733271.139 6 135229234.437 6     -2354.095          37.000  
E14  21516043.043 7 113067546.460 7      2765.917          44.000  
E21  26621621.589 6 139897556.613 6     -1814.386          38.000  
E26  24804546.557 6 130348831.243 6      1115.729          40.000  
J 2  38952939.925 7 204699082.234 7        21.186          43.000  
J 3  37187813.912 7 195423264.581 7        16.749          43.000  
J 4  37463335.557 4 196871146.770 4      -277.357          26.000  
> 2024 11 29  9  5 14.9990000  0 23                     
G 4  22795028.493 5 119788653.436 5     -2780.905          34.000  
G 8  20073934.758 7 105489240.528 7      1199.721          43.000  
G 9  22702383.786 4 119301919.265 4     -1678.034          28.000  
G16  21155728.479 6 111174097.594 6     -1796.808          41.000  
G18  24968496.372 4 131210346.039 4     -2553.700          29.000  
G21  22951524.244 5 120611058.323 5      3817.101          32.000  
G26  23187480.121 6 121851023.105 6     -2576.267          40.000  
G27  19885943.806 7 104501333.403 7     -1073.005          44.000  
G31  24216394.448 5 127257991.71225     -3553.466          32.000  
R 7  23291461.685 4               4      -192.489          24.000  
R14  24140646.810 6 128683108.118 6     -3088.828          39.000  
R15  20307377.176 7 108516410.483 7     -1415.017          45.000  
R16  19946135.500 7 106548647.069 7      1737.797          46.000  
R17  20225703.377 5 108231778.013 5     -2143.716          35.000  
R18  19398524.975 7 103550595.025 7      1816.540          46.000  
R19  22003736.391 4 117705130.26124      4268.781          27.000  
E 4  25733360.606 6 135229705.150 6     -2353.680          37.000  
E14  21515937.905 7 113066993.256 7      2765.750          44.000  
E21  26621690.657 6 139897919.463 6     -1814.367          38.000  
E26  24804504.048 6 130348608.158 6      1115.077          40.000  
J 2  38952939.122 7 204699078.059 7        20.521          42.000  
J 3  37187813.162 7 195423261.240 7        16.478          42.000  
J 4  37463346.097 4 196871202.336 4      -277.760          26.000  
> 2024 11 29  9  5 15.1990000  0 23                     
G 4  22795134.311 5 119789209.565 5     -2780.992          34.000  
G 8  20073888.951 7 105489000.600 7      1199.683          43.000  
G 9  22702452.837 4 119302254.813 4     -1677.824          29.000  
G16  21155796.867 6 111174456.973 6     -1796.744          41.000  
G18  24968590.254 4 131210856.898 4     -2554.408          29.000  
G21  22951378.902 5 120610294.900 5      3817.434          32.000  
G26  23187578.208 6 121851538.359 6     -2576.234          40.000  
G27  19885984.710 7 104501547.968 7     -1072.714          44.000  
G31  24216528.465 5 127258702.43925     -3553.536          32.000  
R 7  23291469.380 4               4      -192.842          24.000  
R14  24140762.645 6 128683725.913 6     -3088.915          39.000  
R15  20307430.050 7 108516693.470 7     -1414.806          45.000  
R16  19946070.410 7 106548299.531 7      1737.775          46.000  
R17  20225783.525 5 108232206.785 5     -2143.674          35.000  
R18  19398456.972 7 103550231.722 7      1816.540          46.000  
R19  22003576.773 4 117704276.52324      4268.733          27.000  
E 4  25733450.248 6 135230175.904 6     -2353.541          37.000  
E14  21515832.558 7 113066440.102 7      2765.839          43.000  
E21  26621759.707 6 139898282.339 6     -1814.452          38.000  
E26  24804461.644 6 130348385.098 6      1115.260          40.000  
J 2  38952938.319 7 204699073.888 7        21.021          42.000  
J 3  37187812.481 7 195423257.902 7        16.786          42.000  
J 4  37463355.956 4 196871257.925 4      -278.166          26.000  
> 2024 11 29  9  5 15.3990000  0 23                     
G 4  22795240.112 5 119789765.707 5     -2781.231          34.000  
G 8  20073843.476 7 105488760.735 7      1199.200          43.000  
G 9  22702513.825 4 119302590.494 4     -1679.489          29.000  
G16  21155865.411 6 111174816.397 6     -1797.169          41.000  
G18  24968684.328 4 131211367.711 4     -2554.543          29.000  
G21  22951233.576 5 120609531.501 5      3816.838          35.000  
G26  23187676.174 6 121852053.642 6     -2576.528          40.000  
G27  19886025.648 7 104501762.623 7     -1073.317          43.000  
G31  24216664.525 5 127259413.23925     -3553.280          31.000  
R 7  23291476.552 3               3      -191.915          23.000  
R14  24140878.584 6 128684343.730 6     -3089.133          39.000  
R15  20307483.116 7 108516976.537 7     -1415.159          45.000  
R16  19946005.478 7 106547952.068 7      1737.124          46.000  
R17  20225863.639 5 108232635.657 5     -2144.646          35.000  
R18  19398389.125 7 103549868.514 7      1815.987          45.000  
R19  22003418.203 4 117703422.74524      4268.661          27.000  
E 4  25733539.733 6 135230646.733 6     -2354.427          37.000  
E14  21515727.298 7 113065887.000 7      2765.513          43.000  
E21  26621828.601 6 139898645.241 6     -1814.471          38.000  
E26  24804419.380 6 130348162.115 6      1114.791          40.000  
J 2  38952937.482 7 204699069.771 7        20.881          42.000  
J 3  37187811.870 7 195423254.627 7        16.625          42.000  
J 4  37463366.636 4 196871313.519 4      -277.833          27.000  
> 2024 11 29  9  5 15.5990000  0 23                     
G 4  22795345.982 5 119790321.933 5     -2781.044          34.000  
G 8  20073797.826 7 105488520.885 7      1199.225          44.000  
G 9  22702576.699 4 119302926.134 4     -1678.610          29.000  
G16  21155933.816 6 111175175.844 6     -1796.935          41.000  
G18  24968776.116 4 131211878.614 4     -2554.458          28.000  
G21  22951088.268 5 120608768.160 5      3816.648          35.000  
G26  23187774.297 6 121852568.990 6     -2576.604          40.000  
G27  19886066.412 7 104501977.326 7     -1073.787          43.000  
G31  24216801.230 5 127260123.97125     -3553.127          31.000  
R 7  23291486.237 4               4      -193.038          24.000  
R14  24140994.454 6 128684961.561 6     -3088.673          39.000  
R15  20307536.199 7 108517259.634 7     -1415.534          45.000  
R16  19945940.424 7 106547604.605 7      1737.417          46.000  
R17  20225943.736 5 108233064.531 5     -2144.380          34.000  
R18  19398321.087 7 103549505.363 7      1815.758          45.000  
R19  22003258.307 4 117702569.04824      4268.352          27.000  
E 4  25733629.375 6 135231117.581 6     -2354.362          37.000  
E14  21515621.969 7 113065333.925 7      2765.297          43.000  
E21  26621897.704 6 139899008.231 6     -1814.962          37.000  
E26  24804376.976 6 130347939.163 6      1114.795          40.000  
J 2  38952936.766 7 204699065.691 7        20.588          42.000  
J 3  37187811.242 6 195423251.366 6        16.209          41.000  
J 4  37463378.642 4 196871369.068 4      -277.276          28.000  
> 2024 11 29  9  5 15.7990000  0 23                     
G 4  22795451.696 5 119790878.138 5     -2781.342          34.000  
G 8  20073752.316 7 105488281.091 7      1198.414          44.000  
G 9  22702639.484 5 119303261.802 5     -1679.008          30.000  
G16  21156002.256 6 111175535.371 6     -1797.894          41.000  
G18  24968869.283 4 131212389.691 4     -2556.063          28.000  
G21  22950943.065 6 120608004.763 6      3817.368          36.000  
G26  23187872.384 6 121853084.351 6     -2577.047          40.000  
G27  19886107.315 7 104502192.068 7     -1073.929          42.000  
G31  24216936.364 4 127260834.98724     -3555.697          26.000  
R 7  23291494.160 4               4      -192.880          24.000  
R14  24141110.271 6 128685579.474 6     -3089.780          39.000  
R15  20307589.213 7 108517542.752 7     -1415.823          45.000  
R16  19945875.387 7 106547257.179 7      1736.790          46.000  
R17  20226023.937 5 108233493.418 5     -2144.564          34.000  
R18  19398253.223 7 103549142.258 7      1815.184          45.000  
R19  22003098.323 4 117701715.46124      4267.686          27.000  
E 4  25733719.156 6 135231588.410 6     -2354.508          37.000  
E14  21515516.779 7 113064780.905 7      2764.692          42.000  
E21  26621966.458 6 139899371.210 6     -1815.106          37.000  
E26  24804334.502 6 130347716.223 6      1114.263          40.000  
J 2  38952936.086 7 204699061.629 7        19.912          42.000  
J 3  37187810.631 6 195423248.161 6        15.802          40.000  
J 4  37463389.007 4 196871424.798 4      -280.094          28.000  
> 2024 11 29  9  5 15.9990000  0 23                     
G 4  22795557.427 5 119791434.398 5     -2781.939          35.000  
G 8  20073706.771 7 105488041.283 7      1198.420          43.000  
G 9  22702706.301 4 119303597.706 4     -1681.485          29.000  
G16  21156070.626 6 111175894.842 6     -1797.672          41.000  
G18  24968972.937 4 131212900.707 4     -2555.232          28.000  
G21  22950797.792 6 120607241.515 6      3816.725          36.000  
G26  23187970.437 6 121853599.640 6     -2576.817          41.000  
G27  19886148.201 6 104502406.826 6     -1074.174          40.000  
G31  24217074.325 5 127261545.74125     -3552.596          34.000  
R 7  23291502.047 3               3      -195.150          23.000  
R14  24141226.175 6 128686197.332 6     -3089.057          39.000  
R15  20307642.244 7 108517825.894 7     -1415.736          44.000  
R16  19945810.140 7 106546909.750 7      1737.072          45.000  
R17  20226104.156 5 108233922.436 5     -2146.000          34.000  
R18  19398185.219 7 103548779.178 7      1815.102          45.000  
R19  22002938.584 4 117700861.78324      4268.665          27.000  
E 4  25733808.833 6 135232059.280 6     -2354.160          37.000  
E14  21515411.432 6 113064227.835 6      2765.063          41.000  
E21  26622035.386 6 139899734.102 6     -1813.811          39.000  
E26  24804292.203 6 130347493.372 6      1114.161          38.000  
J 2  38952935.318 6 204699057.516 6        20.635          40.000  
J 3  37187809.951 6 195423244.954 6        15.784          40.000  
J 4  37463399.355 4 196871480.446 4      -279.128          28.000  
> 2024 11 29  9  5 16.1990000  0 23                     
G 4  22795663.349 5 119791990.671 5     -2781.752          34.000  
G 8  20073661.261 7 105487801.519 7      1198.990          43.000  
G 9  22702768.058 4 119303933.380 4     -1678.078          29.000  
G16  21156139.170 6 111176254.394 6     -1797.576          41.000  
G18  24969073.939 4 131213411.606 4     -2554.482          29.000  
G21  22950651.489 4 120606478.238 4      3813.506          29.000  
G26  23188068.472 6 121854115.000 6     -2577.282          40.000  
G27  19886189.087 6 104502621.646 6     -1074.796          38.000  
G31  24217208.343 5 127262256.66625     -3555.094          34.000  
R 7  23291509.184 3               3      -192.646          23.000  
R14  24141342.080 6 128686815.272 6     -3090.642          39.000  
R15  20307695.328 7 108518109.085 7     -1416.102          43.000  
R16  19945744.999 7 106546562.381 7      1736.601          42.000  
R17  20226184.357 5 108234351.397 5     -2144.743          34.000  
R18  19398117.233 7 103548416.115 7      1815.356          45.000  
R19  22002779.717 4 117700007.75414      4267.179          27.000  
E 4  25733898.405 6 135232530.216 6     -2354.493          37.000  
E14  21515306.451 6 113063674.868 6      2764.791          38.000  
E21  26622104.349 6 139900097.082 6     -1815.505          37.000  
E26  24804249.816 6 130347270.467 6      1114.162          38.000  
J 2  38952934.550 6 204699053.486 6        19.974          37.000  
J 3  37187809.305 6 195423241.692 6        16.483          41.000  
J 4  37463413.036 4 196871535.884 4      -277.162          28.000  
> 2024 11 29  9  5 16.3990000  0 23                     
G 4  22795769.133 5 119792546.921 5     -2781.059          35.000  
G 8  20073615.715 7 105487561.842 7      1198.594          43.000  
G 9  22702829.814 4 119304269.153 4     -1679.045          29.000  
G16  21156207.558 6 111176613.968 6     -1798.191          40.000  
G18  24969159.044 5 131213922.544 5     -2554.164          33.000  
G21  22950503.860 5 120605714.946 5      3816.840          33.000  
G26  23188166.630 6 121854630.410 6     -2577.106          40.000  
G27  19886230.025 6 104502836.488 6     -1073.885          38.000  
G31  24217346.043 5 127262967.53125     -3553.983          34.000  
R 7  23291517.054 4               4      -193.924          24.000  
R14  24141457.897 6 128687433.151 6     -3089.776          39.000  
R15  20307748.516 7 108518392.277 7     -1415.931          43.000  
R16  19945679.962 6 106546215.034 6      1736.589          40.000  
R17  20226264.698 5 108234780.449 5     -2145.011          34.000  
R18  19398049.160 7 103548053.159 7      1814.857          44.000  
R19  22002620.798 4 117699154.163 4      4267.707          27.000  
E 4  25733987.942 6 135233001.098 6     -2354.359          38.000  
E14  21515201.331 6 113063121.933 6      2764.799          38.000  
E21  26622173.208 5 139900460.150 5     -1815.577          35.000  
E26  24804207.430 6 130347047.648 6      1114.440          38.000  
J 2  38952933.852 6 204699049.406 6        20.619          37.000  
J 3  37187808.607 7 195423238.453 7        16.683          43.000  
J 4  37463421.813 4 196871591.690 4      -279.747          28.000  
> 2024 11 29  9  5 16.5990000  0 23                     
G 4  22795874.881 5 119793103.199 5     -2781.242          34.000  
G 8  20073570.048 6 105487322.200 6      1197.917          41.000  
G 9  22702895.462 4 119304604.855 4     -1678.477          28.000  
G16  21156275.910 6 111176973.510 6     -1797.728          39.000  
G18  24969255.177 5 131214433.616 5     -2554.327          32.000  
G21  22950356.616 6 120604951.647 6      3816.388          36.000  
G26  23188264.770 6 121855145.818 6     -2576.955          40.000  
G27  19886270.911 5 104503051.362 5     -1074.010          33.000  
G31  24217478.490 5 127263678.36125     -3554.651          35.000  
R 7  23291524.558 3               3      -193.718          23.000  
R14  24141573.731 6 128688051.104 6     -3089.115          37.000  
R15  20307801.443 6 108518675.501 6     -1416.250          41.000  
R16  19945614.855 6 106545867.719 6      1736.807          38.000  
R17  20226344.951 5 108235209.553 5     -2146.106          33.000  
R18  19397981.314 7 103547690.226 7      1814.712          43.000  
R19  22002461.984 4 117698300.564 4      4268.040          28.000  
E 4  25734077.584 5 135233472.098 5     -2354.967          35.000  
E14  21515096.089 6 113062568.977 6      2764.500          36.000  
E21  26622242.311 6 139900823.125 6     -1815.025          37.000  
E26  24804164.956 6 130346824.833 6      1114.020          36.000  
J 2  38952933.084 5 204699045.345 5        21.092          34.000  
J 3  37187807.874 6 195423235.228 6        16.093          40.000  
J 4  37463432.231 4 196871647.384 4      -277.752          28.000  
> 2024 11 29  9  5 16.7990000  0 23                     
G 4  22795980.664 5 119793659.601 5     -2781.917          30.000  
G 8  20073524.381 6 105487082.656 6      1197.734          39.000  
G 9  22702960.656 4 119304941.007 4     -1680.737          28.000  
G16  21156344.489 6 111177333.141 6     -1798.213          39.000  
G18  24969361.833 5 131214944.547 5     -2554.671          32.000  
G21  22950213.210 6 120604188.320 6      3816.792          38.000  
G26  23188362.753 6 121855661.350 6     -2577.712          40.000  
G27  19886311.866 5 104503266.355 5     -1075.505          33.000  
G31  24217610.553 5 127264389.22025     -3554.314          34.000  
R 7  23291532.760 3               3      -190.017          23.000  
R14  24141689.670 5 128688669.240 5     -3091.416          34.000  
R15  20307854.334 6 108518958.864 6     -1416.963          39.000  
R16  19945549.748 6 106545520.479 6      1736.099          37.000  
R17  20226425.100 5 108235638.729 5     -2146.096          33.000  
R18  19397913.275 7 103547327.330 7      1814.429          42.000  
R19  22002304.147 4 117697446.919 4      4268.111          28.000  
E 4  25734167.086 5 135233943.067 5     -2355.195          35.000  
E14  21514990.777 5 113062016.085 5      2764.404          32.000  
E21  26622311.483 6 139901186.223 6     -1815.458          37.000  
E26  24804122.569 5 130346602.115 5      1113.685          33.000  
J 2  38952932.683 5 204699041.254 5        21.069          31.000  
J 3  37187807.281 6 195423232.054 6        15.574          36.000  
J 4  37463444.534 5 196871702.953 5      -278.285          33.000  
> 2024 11 29  9  5 16.9990000  0 23                     
G 4  22796086.604 5 119794216.095 5     -2782.230          30.000  
G 8  20073478.819 6 105486843.097 6      1198.250          39.000  
G 9  22703027.856 4 119305276.862 4     -1679.357          27.000  
G16  21156412.807 6 111177692.779 6     -1797.729          37.000  
G18  24969482.483 5 131215455.598 5     -2554.443          31.000  
G21  22950070.292 6 120603425.091 6      3816.105          36.000  
G26  23188460.736 6 121856176.791 6     -2576.760          40.000  
G27  19886352.072 4 104503481.316 4     -1074.474          28.000  
G31  24217745.705 5 127265100.16125     -3554.331          30.000  
R 7  23291539.966 3               3      -187.679          22.000  
R14  24141805.662 5 128689287.208 5     -3088.866          34.000  
R15  20307907.488 6 108519242.209 6     -1416.761          39.000  
R16  19945484.729 6 106545173.177 6      1737.366          37.000  
R17  20226505.266 5 108236067.947 5     -2145.953          32.000  
R18  19397845.289 6 103546964.542 6      1814.143          39.000  
R19  22002143.814 4 117696593.499 4      4266.875          28.000  
E 4  25734256.675 5 135234414.173 5     -2356.098          32.000  
E14  21514886.006 4 113061463.201 4      2764.924          28.000  
E21  26622380.656 6 139901549.289 6     -1815.208          37.000  
E26  24804080.078 4 130346379.519 4      1113.198          29.000  
J 2  38952931.968 4               4        27.350          25.000  
J 3  37187807.473 4 195423229.219 4        11.128          29.000  
J 4  37463452.177 5 196871758.639 5      -278.155          33.000  
> 2024 11 29  9  5 17.1990000  0 23                     
G 4  22796192.405 4 119794772.548 4     -2783.257          29.000  
G 8  20073433.308 6 105486603.594 6      1197.634          39.000  
G 9  22703091.305 4 119305612.736 4     -1679.472          27.000  
G16  21156481.352 5 111178052.425 5     -1797.954          35.000  
G18  24969623.080 4 131215966.736 4     -2556.522          27.000  
G21  22949924.792 5 120602661.913 5      3816.045          33.000  
G26  23188558.963 6 121856692.310 6     -2577.545          38.000  
G27  19886393.621 4 104503696.190 4     -1074.129          28.000  
G31  24217880.578 5 127265811.11325     -3554.969          30.000  
R 7  23291547.208 3               3      -177.335          22.000  
R14  24141921.688 6 128689905.322 6     -3090.331          37.000  
R15  20307960.536 6 108519525.556 6     -1416.969          37.000  
R16  19945420.006 6 106544825.947 6      1736.365          37.000  
R17  20226585.572 5 108236497.222 5     -2146.654          32.000  
R18  19397777.582 6 103546601.776 6      1813.995          37.000  
R19  22001984.389 4 117695740.184 4      4266.229          27.000  
E 4  25734346.596 5 135234885.224 5     -2355.674          32.000  
E14  21514781.811 4 113060910.381 4      2764.254          28.000  
E21  26622449.846 5 139901912.392 5     -1815.690          35.000  
E26  24804037.377 4 130346156.904 4      1113.262          29.000  
J 2  38952930.938 4               4        27.350          24.000  
J 3  37187806.566 3               3        16.739          23.000  
J 4  37463462.472 5 196871814.381 5      -277.858          32.000  
> 2024 11 29  9  5 17.3990000  0 23                     
G 4  22796298.293 4 119795328.916 4     -2781.340          29.000  
G 8  20073387.746 6 105486364.113 6      1197.263          37.000  
G 9  22703156.063 4 119305948.769 4     -1680.070          27.000  
G16  21156549.739 5 111178412.137 5     -1799.119          34.000  
G18  24969764.270 5 131216477.894 5     -2556.200          32.000  
G21  22949778.996 4 120601898.771 4      3815.394          29.000  
G26  23188656.963 6 121857207.794 6     -2577.441          38.000  
G27  19886435.745 4 104503911.232 4     -1075.074          27.000  
G31  24218016.882 4 127266522.27824     -3556.569          24.000  
R 7  23291555.288 3               3      -208.514          22.000  
R14  24142037.593 6 128690523.345 6     -3090.369          37.000  
R15  20308013.672 6 108519808.921 6     -1417.180          37.000  
R16  19945355.126 6 106544478.698 6      1736.380          37.000  
R17  20226665.774 4 108236926.493 4     -2146.355          28.000  
R18  19397709.649 6 103546239.017 6      1813.944          37.000  
R19  22001825.435 4               4      4267.639          26.000  
E 4  25734436.255 5 135235356.229 5     -2354.442          32.000  
E14  21514676.027 4 113060357.566 4      2764.384          27.000  
E21  26622519.036 5 139902275.451 5     -1815.064          35.000  
E26  24803992.757 4 130345934.252 4      1112.929          29.000  
J 2  38952929.699 3               3        27.350          23.000  
J 3  37187807.351 4               4        14.213          29.000  
J 4  37463475.455 4 196871870.097 4      -277.761          28.000  
> 2024 11 29  9  5 17.5990000  0 23                     
G 4  22796404.111 4 119795885.298 4     -2781.675          29.000  
G 8  20073342.131 6 105486124.588 6      1197.625          37.000  
G 9  22703219.599 4               4     -1681.781          26.000  
G16  21156618.249 5 111178771.777 5     -1798.960          34.000  
G18  24969884.432 5 131216989.088 5     -2555.776          32.000  
G21  22949635.642 4 120601135.466 4      3816.760          28.000  
G26  23188755.051 6 121857723.255 6     -2577.500          38.000  
G27  19886476.980 4               4     -1074.670          26.000  
G31  24218151.981 3               3     -3557.589          22.000  
R 7  23291563.245 3               3      -193.806          22.000  
R14  24142153.462 6 128691141.363 6     -3090.093          38.000  
R15  20308066.721 5 108520092.289 5     -1417.080          34.000  
R16  19945290.037 5 106544131.521 5      1735.971          34.000  
R17  20226746.306 4 108237355.823 4     -2147.094          28.000  
R18  19397641.785 6 103545876.290 6      1813.666          36.000  
R19  22001665.818 4               4      4267.639          26.000  
E 4  25734525.897 5 135235827.233 5     -2354.541          32.000  
E14  21514571.588 4 113059804.743 4      2764.038          27.000  
E21  26622587.877 5 139902638.549 5     -1815.891          35.000  
E26  24803949.184 4 130345711.588 4      1113.436          29.000  
J 2  38952928.425 3               3        27.350          22.000  
J 3  37187808.084 5               5        16.932          30.000  
J 4  37463488.212 4 196871925.866 4      -279.000          28.000  
> 2024 11 29  9  5 17.7990000  0 23                     
G 4  22796510.086 4 119796441.813 4     -2782.883          29.000  
G 8  20073296.429 6 105485885.139 6      1197.109          38.000  
G 9  22703285.317 4               4     -1681.110          26.000  
G16  21156686.671 5 111179131.477 5     -1799.086          33.000  
G18  24969992.693 5 131217500.405 5     -2556.718          33.000  
G21  22949491.294 4 120600372.425 4      3815.087          28.000  
G26  23188853.156 6 121858238.796 6     -2577.569          38.000  
G27  19886518.041 4               4     -1074.670          26.000  
G31  24218286.487 3               3     -3557.589          22.000  
R 7  23291570.086 3               3      -193.806          22.000  
R14  24142269.454 6 128691759.455 6     -3090.447          37.000  
R15  20308119.787 5 108520375.701 5     -1417.386          34.000  
R16  19945225.366 5 106543784.415 5      1735.291          30.000  
R17  20226827.572 4 108237785.116 4     -2146.188          27.000  
R18  19397573.886 5 103545513.682 5      1813.301          34.000  
R19  22001506.689 4               4      4267.639          25.000  
E 4  25734615.853 5 135236298.346 5     -2355.741          32.000  
E14  21514467.096 4 113059251.967 4      2764.042          27.000  
E21  26622656.840 5 139903001.634 5     -1815.688          34.000  
E26  24803905.750 4 130345488.982 4      1113.138          29.000  
J 2  38952927.081 3               3        27.350          21.000  
J 3  37187807.124 4               4        14.952          29.000  
J 4  37463496.047 4 196871981.597 4      -279.007          28.000  
> 2024 11 29  9  5 17.9990000  0 22                     
G 4  22796615.782 5 119796998.270 5     -2782.610          34.000  
G 8  20073251.023 6 105485645.680 6      1197.509          41.000  
G 9  22703349.377 4               4     -1681.468          26.000  
G16  21156755.233 6 111179491.160 6     -1798.574          36.000  
G18  24970095.963 6 131218011.689 6     -2556.514          36.000  
G21  22949342.653 5 120599609.273 5      3815.795          33.000  
G26  23188951.366 7 121858754.330 7     -2577.599          42.000  
G27  19886559.834 4               4     -1071.447          26.000  
R 7  23291578.549 3               3      -193.362          22.000  
R14  24142385.411 6 128692377.563 6     -3090.659          41.000  
R15  20308172.975 6 108520659.136 6     -1417.187          38.000  
R16  19945160.748 5 106543437.243 5      1735.547          30.000  
R17  20226908.890 4 108238214.616 4     -2147.920          28.000  
R18  19397505.970 6 103545151.080 6      1812.893          41.000  
R19  22001346.496 4               4      4261.827          25.000  
E 4  25734705.704 5 135236769.422 5     -2355.489          35.000  
E14  21514362.360 4 113058699.258 4      2763.832          27.000  
E21  26622725.874 6 139903364.784 6     -1815.990          36.000  
E26  24803866.557 4 130345266.395 4      1113.031          29.000  
J 2  38952926.907 3               3        27.350          21.000  
J 3  37187804.245 4 195423243.78234        15.553          29.000  
J 4  37463507.459 5 196872037.358 5      -278.616          32.000  
> 2024 11 29  9  5 18.1990000  0 22                     
G 4  22796721.635 5 119797554.727 5     -2781.822          34.000  
G 8  20073205.426 6 105485406.247 6      1196.937          41.000  
G 9  22703412.180 4               4     -1681.221          26.000  
G16  21156823.568 6 111179850.880 6     -1798.307          36.000  
G18  24970193.650 6 131218523.010 6     -2556.740          36.000  
G21  22949197.694 5 120598846.217 5      3815.196          33.000  
G26  23189049.489 7 121859269.876 7     -2577.562          42.000  
G27  19886600.755 4               4     -1070.534          26.000  
R 7  23291585.895 3               3      -197.248          22.000  
R14  24142501.385 6 128692995.664 6     -3090.844          41.000  
R15  20308226.041 6 108520942.600 6     -1417.340          39.000  
R16  19945092.954 5 106543090.189 5      1735.136          31.000  
R17  20226990.034 4 108238644.016 4     -2147.792          29.000  
R18  19397437.949 6 103544788.503 6      1812.687          40.000  
R19  22001187.193 4               4      4269.179          25.000  
E 4  25734795.294 5 135237240.542 5     -2355.929          35.000  
E14  21514254.884 4 113058146.514 4      2763.831          28.000  
E21  26622794.994 6 139903727.856 6     -1815.400          36.000  
E26  24803820.122 4 130345043.826 4      1112.986          29.000  
J 2  38952925.947 3               3        27.350          21.000  
J 3  37187802.726 3 195423240.64223        15.738          22.000  
J 4  37463517.284 5 196872093.063 5      -278.306          32.000  
> 2024 11 29  9  5 18.3990000  0 22                     
G 4  22796827.558 5 119798111.238 5     -2782.852          34.000  
G 8  20073159.881 6 105485166.810 6      1197.154          41.000  
G 9  22703476.519 4               4     -1679.287          26.000  
G16  21156892.095 6 111180210.574 6     -1798.433          36.000  
G18  24970290.516 6 131219034.294 6     -2556.262          36.000  
G21  22949049.804 5 120598083.019 5      3815.882          33.000  
G26  23189147.576 7 121859785.420 7     -2577.975          43.000  
G27  19886641.902 4               4     -1075.582          26.000  
R 7  23291594.778 3               3      -191.074          22.000  
R14  24142617.429 6 128693613.750 6     -3090.881          40.000  
R15  20308279.160 6 108521226.056 6     -1417.538          39.000  
R16  19945026.521 5 106542742.996 5      1735.760          31.000  
R17  20227071.299 5 108239073.457 5     -2147.450          33.000  
R18  19397369.910 6 103544425.937 6      1812.588          40.000  
R19  22001027.558 4               4      4269.182          24.000  
E 4  25734884.883 6 135237711.632 6     -2355.859          36.000  
E14  21514151.299 4 113057593.735 4      2763.928          28.000  
E21  26622864.114 6 139904090.991 6     -1816.035          37.000  
E26  24803770.528 4 130344821.229 4      1112.741          29.000  
J 2  38952924.132 3               3        27.350          21.000  
J 3  37187800.615 3               3        13.838          22.000  
J 4  37463526.846 5 196872148.784 5      -278.507          32.000  
> 2024 11 29  9  5 18.5990000  0 22                     
G 4  22796933.341 5 119798667.649 5     -2782.064          33.000  
G 8  20073114.336 6 105484927.322 6      1197.615          41.000  
G 9  22703540.108 4               4     -1678.918          26.000  
G16  21156960.692 6 111180570.228 6     -1798.041          37.000  
G18  24970386.475 5 131219545.540 5     -2555.614          35.000  
G21  22948904.932 5 120597319.791 5      3816.293          33.000  
G26  23189245.577 7 121860300.903 7     -2577.325          42.000  
G27  19886682.928 4               4     -1075.058          26.000  
R 7  23291603.101 3               3      -196.158          22.000  
R14  24142733.263 6 128694231.750 6     -3089.597          38.000  
R15  20308332.261 6 108521509.452 6     -1416.542          40.000  
R16  19944963.456 5 106542395.780 5      1736.920          31.000  
R17  20227151.326 5 108239502.899 5     -2147.114          33.000  
R18  19397302.029 7 103544063.361 7      1813.054          42.000  
R19  22000869.739 4               4      4265.733          24.000  
E 4  25734974.438 5 135238182.648 5     -2354.669          35.000  
E14  21514044.678 4 113057040.932 4      2764.212          28.000  
E21  26622933.147 6 139904454.039 6     -1814.937          36.000  
E26  24803731.405 5 130344598.543 5      1112.970          30.000  
J 2  38952922.719 3               3        21.325          21.000  
J 3  37187799.324 3               3        16.970          22.000  
J 4  37463535.484 5 196872204.383 5      -278.060          32.000  
> 2024 11 29  9  5 18.7990000  0 22                     
G 4  22797039.142 5 119799223.999 5     -2781.981          33.000  
G 8  20073068.843 6 105484687.828 6      1197.561          41.000  
G 9  22703603.295 4               4     -1678.763          25.000  
G16  21157029.166 6 111180929.849 6     -1798.153          37.000  
G18  24970485.138 5 131220056.767 5     -2556.320          33.000  
G21  22948763.149 5 120596556.537 5      3816.752          34.000  
G26  23189343.612 7 121860816.310 7     -2577.082          42.000  
G27  19886724.041 4               4     -1075.104          27.000  
R 7  23291610.919 3               3      -188.315          22.000  
R14  24142849.063 6 128694849.724 6     -3090.095          38.000  
R15  20308385.379 7 108521792.832 7     -1416.976          42.000  
R16  19944902.275 5 106542048.553 5      1736.562          32.000  
R17  20227232.208 6 108239932.274 6     -2146.321          36.000  
R18  19397233.886 7 103543700.727 7      1813.141          42.000  
R19  22000710.453 4               4      4267.344          25.000  
E 4  25735063.975 5 135238653.622 5     -2355.094          35.000  
E14  21513938.581 4 113056488.006 4      2764.875          28.000  
E21  26623002.023 5 139904817.038 5     -1815.008          34.000  
E26  24803691.723 5 130344375.831 5      1113.854          31.000  
J 2  38952921.044 3               3        17.485          21.000  
J 3  37187799.551 3               3        18.131          22.000  
J 4  37463544.192 5 196872259.975 5      -277.771          32.000  
> 2024 11 29  9  5 18.9990000  0 22                     
G 4  22797145.082 5 119799780.294 5     -2781.088          33.000  
G 8  20073023.333 6 105484448.270 6      1198.346          41.000  
G 9  22703667.023 4               4     -1678.763          24.000  
G16  21157097.606 6 111181289.361 6     -1797.585          37.000  
G18  24970583.261 5 131220567.874 5     -2555.492          32.000  
G21  22948620.319 5 120595793.244 5      3816.742          34.000  
G26  23189441.682 7 121861331.655 7     -2576.438          42.000  
G27  19886765.083 4               4     -1074.408          27.000  
R 7  23291618.231 3               3      -197.330          22.000  
R14  24142964.985 6 128695467.600 6     -3088.934          37.000  
R15  20308438.219 7 108522076.128 7     -1416.413          42.000  
R16  19944838.792 5 106541701.245 5      1736.908          33.000  
R17  20227314.398 6 108240361.645 6     -2146.259          36.000  
R18  19397165.987 7 103543338.078 7      1813.620          42.000  
R19  22000550.853 4               4      4266.118          25.000  
E 4  25735153.477 5 135239124.547 5     -2354.112          35.000  
E14  21513830.180 4 113055935.082 4      2764.763          28.000  
E21  26623070.934 5 139905179.977 5     -1814.954          33.000  
E26  24803651.535 5 130344153.136 5      1114.042          31.000  
J 2  38952920.049 3               3        20.114          20.000  
J 3  37187798.626 3               3        14.918          22.000  
J 4  37463556.058 5 196872315.473 5      -277.336          32.000  
> 2024 11 29  9  5 19.1990000  0 22                     
G 4  22797250.866 5 119800336.603 5     -2781.399          33.000  
G 8  20072977.718 6 105484208.736 6      1197.943          41.000  
G 9  22703733.561 3               3     -1678.763          23.000  
G16  21157166.081 6 111181648.884 6     -1797.596          38.000  
G18  24970685.554 5 131221078.999 5     -2555.864          32.000  
G21  22948472.673 5 120595029.944 5      3816.281          35.000  
G26  23189539.770 7 121861846.979 7     -2576.532          42.000  
G27  19886806.737 4 104505869.86834     -1074.853          28.000  
R 7  23291625.595 3               3      -191.423          22.000  
R14  24143080.941 6 128696085.466 6     -3088.464          37.000  
R15  20308491.180 7 108522359.413 7     -1416.221          42.000  
R16  19944773.475 5 106541353.884 5      1737.018          33.000  
R17  20227394.774 6 108240790.999 6     -2146.580          36.000  
R18  19397098.106 7 103542975.433 7      1813.268          42.000  
R19  22000390.748 4               4      4268.203          25.000  
E 4  25735242.944 5 135239595.465 5     -2354.598          35.000  
E14  21513725.095 4 113055382.137 4      2764.829          29.000  
E21  26623139.863 5 139905542.835 5     -1813.930          33.000  
E26  24803610.981 5 130343930.412 5      1114.027          32.000  
J 2  38952918.304 4               4        21.110          28.000  
J 3  37187797.038 3               3        17.082          23.000  
J 4  37463567.174 5 196872370.990 5      -277.344          32.000  
> 2024 11 29  9  5 19.3990000  0 22                     
G 4  22797356.771 5 119800892.838 5     -2780.502          33.000  
G 8  20072932.156 6 105483969.147 6      1198.018          41.000  
G 9  22703797.900 3               3     -1680.239          23.000  
G16  21157234.625 6 111182008.338 6     -1797.141          38.000  
G18  24970785.823 5 131221590.078 5     -2555.448          32.000  
G21  22948326.614 6 120594266.572 6      3816.877          37.000  
G26  23189637.823 6 121862362.235 6     -2576.257          41.000  
G27  19886849.595 5 104506084.75725     -1074.202          32.000  
R 7  23291633.465 3               3      -201.069          23.000  
R14  24143196.881 6 128696703.307 6     -3088.745          37.000  
R15  20308544.019 7 108522642.635 7     -1415.884          42.000  
R16  19944709.538 5 106541006.495 5      1737.152          34.000  
R17  20227475.324 6 108241220.324 6     -2146.532          37.000  
R18  19397030.259 7 103542612.746 7      1813.402          42.000  
R19  22000231.322 4               4      4266.968          26.000  
E 4  25735332.760 6 135240066.344 6     -2354.563          36.000  
E14  21513615.665 5 113054829.197 5      2764.510          30.000  
E21  26623208.634 5 139905905.661 5     -1813.923          33.000  
E26  24803565.349 5 130343707.621 5      1114.325          32.000  
J 2  38952917.030 4               4        22.362          29.000  
J 3  37187797.265 5 195423221.06425        16.434          33.000  
J 4  37463578.220 5 196872426.458 5      -277.193          33.000  
> 2024 11 29  9  5 19.5990000  0 22                     
G 4  22797462.746 5 119801449.058 5     -2780.572          33.000  
G 8  20072886.576 6 105483729.531 6      1197.865          41.000  
G 9  22703864.245 3               3     -1674.955          23.000  
G16  21157303.082 6 111182367.753 6     -1796.980          38.000  
G18  24970880.106 5 131222101.167 5     -2555.618          32.000  
G21  22948181.114 6 120593503.147 6      3817.207          37.000  
G26  23189735.753 6 121862877.452 6     -2575.951          41.000  
G27  19886889.626 5 104506299.69825     -1074.365          32.000  
R 7  23291642.137 3               3      -186.994          23.000  
R14  24143312.715 6 128697321.092 6     -3088.966          37.000  
R15  20308596.893 7 108522925.861 7     -1415.872          42.000  
R16  19944641.098 5 106540659.047 5      1736.819          34.000  
R17  20227553.414 6 108241649.634 6     -2146.563          37.000  
R18  19396962.326 7 103542250.058 7      1813.426          42.000  
R19  22000072.107 4               4      4268.829          26.000  
E 4  25735422.332 6 135240537.119 6     -2353.906          36.000  
E14  21513518.258 5 113054276.180 5      2765.147          33.000  
E21  26623277.353 5 139906268.446 5     -1814.177          33.000  
E26  24803522.072 5 130343484.849 5      1113.717          32.000  
J 2  38952916.699 5               5        22.039          30.000  
J 3  37187798.294 5 195423217.68625        17.061          34.000  
J 4  37463589.423 5 196872481.822 5      -277.030          33.000  
> 2024 11 29  9  5 19.7990000  0 22                     
G 4  22797568.634 5 119802005.274 5     -2780.310          33.000  
G 8  20072840.908 6 105483489.909 6      1198.040          41.000  
G 9  22703934.238 3               3     -1671.206          23.000  
G16  21157371.505 6 111182727.155 6     -1796.851          38.000  
G18  24970976.589 5 131222612.193 5     -2555.228          32.000  
G21  22948036.435 6 120592739.696 6      3817.504          37.000  
G26  23189833.789 6 121863392.654 6     -2575.945          41.000  
G27  19886927.213 5 104506514.54625     -1074.250          33.000  
R 7  23291649.641 3               3      -194.159          23.000  
R14  24143428.515 6 128697938.866 6     -3088.529          36.000  
R15  20308649.802 7 108523209.063 7     -1416.096          42.000  
R16  19944578.679 5 106540311.590 5      1737.594          34.000  
R17  20227631.015 6 108242078.946 6     -2146.731          37.000  
R18  19396894.252 7 103541887.378 7      1813.307          42.000  
R19  21999911.826 4               4      4268.536          26.000  
E 4  25735511.922 6 135241007.974 6     -2354.334          36.000  
E14  21513407.798 5 113053723.189 5      2764.628          33.000  
E21  26623346.281 5 139906631.200 5     -1813.402          33.000  
E26  24803477.749 5 130343262.047 5      1113.920          32.000  
J 2  38952916.751 5 204698951.30835        22.722          30.000  
J 3  37187798.713 5 195423214.22525        17.373          34.000  
J 4  37463598.846 5 196872537.162 5      -275.950          34.000  
> 2024 11 29  9  5 19.9990000  0 23                     
G 4  22797674.504 5 119802561.508 5     -2781.250          33.000  
G 7  22818642.861 2               2      2908.961          17.000  
G 8  20072795.293 6 105483250.326 6      1197.876          41.000  
G 9  22704000.375 3               3     -1678.623          23.000  
G16  21157439.979 6 111183086.578 6     -1796.750          38.000  
G18  24971072.251 5 131223123.318 5     -2555.913          32.000  
G21  22947891.545 6 120591976.270 6      3816.872          37.000  
G26  23189931.807 6 121863907.879 6     -2576.284          41.000  
G27  19886967.366 5 104506729.47325     -1074.164          33.000  
R 7  23291657.197 3               3      -195.982          23.000  
R14  24143544.367 6 128698556.716 6     -3089.210          36.000  
R15  20308702.851 7 108523492.293 7     -1416.218          42.000  
R16  19944513.467 5 106539964.154 5      1736.993          35.000  
R17  20227707.063 6 108242508.280 6     -2146.928          37.000  
R18  19396826.406 7 103541524.736 7      1813.047          42.000  
R19  21999752.366 4 117683814.61034      4267.951          27.000  
E 4  25735601.546 6 135241478.777 6     -2354.059          36.000  
E14  21513304.650 5 113053170.173 5      2764.699          33.000  
E21  26623415.070 5 139906993.967 5     -1813.706          33.000  
E26  24803439.899 5 130343039.228 5      1114.090          32.000  
J 2  38952918.391 5 204698946.90625        22.997          30.000  
J 3  37187796.183 5 195423210.85625        16.665          34.000  
J 4  37463607.379 5 196872592.537 5      -276.866          34.000  
> 2024 11 29  9  5 20.1990000  0 23                     
G 4  22797780.357 5 119803117.706 5     -2780.695          34.000  
G 7  22818534.442 2               2      2908.961          17.000  
G 8  20072749.714 6 105483010.747 6      1197.693          41.000  
G 9  22704064.434 3               3     -1685.906          22.000  
G16  21157508.349 6 111183446.025 6     -1797.090          38.000  
G18  24971167.808 5 131223634.422 5     -2556.131          32.000  
G21  22947743.306 6 120591212.860 6      3817.164          37.000  
G26  23190029.667 6 121864423.089 6     -2575.970          41.000  
G27  19887007.781 5 104506944.45225     -1075.015          33.000  
R 7  23291665.329 4               4      -192.301          24.000  
R14  24143660.254 6 128699174.482 6     -3089.349          36.000  
R15  20308755.813 7 108523775.539 7     -1416.533          42.000  
R16  19944444.504 5 106539616.723 5      1737.457          35.000  
R17  20227787.910 6 108242937.663 6     -2146.900          37.000  
R18  19396758.490 7 103541162.128 7      1812.917          43.000  
R19  21999592.575 4 117682960.94724      4268.352          27.000  
E 4  25735690.891 6 135241949.623 6     -2354.065          36.000  
E14  21513198.971 5 113052617.210 5      2764.733          33.000  
E21  26623483.806 5 139907356.762 5     -1813.660          32.000  
E26  24803396.134 5 130342816.492 5      1114.272          32.000  
J 2  38952917.152 5 204698942.52725        22.619          30.000  
J 3  37187797.177 5 195423207.44725        16.508          34.000  
J 4  37463618.861 5 196872647.921 5      -276.883          34.000  
> 2024 11 29  9  5 20.3990000  0 23                     
G 4  22797886.350 5 119803674.046 5     -2781.415          33.000  
G 7  22818426.967 2               2      2908.961          16.000  
G 8  20072704.221 6 105482771.267 6      1197.098          41.000  
G 9  22704128.477 3               3     -1681.684          22.000  
G16  21157576.876 6 111183805.570 6     -1797.736          38.000  
G18  24971263.383 5 131224145.585 5     -2556.975          32.000  
G21  22947601.348 6 120590449.539 6      3816.333          37.000  
G26  23190127.668 6 121864938.386 6     -2576.483          41.000  
G27  19887052.244 5 104507159.46825     -1075.257          33.000  
R 7  23291672.902 4               4      -195.023          24.000  
R14  24143776.158 6 128699792.348 6     -3089.668          36.000  
R15  20308808.687 7 108524058.867 7     -1416.885          42.000  
R16  19944378.437 5 106539269.406 5      1736.431          35.000  
R17  20227868.216 6 108243367.146 6     -2147.684          37.000  
R18  19396690.486 7 103540799.638 7      1812.068          43.000  
R19  21999433.272 4 117682107.50424      4267.002          27.000  
E 4  25735780.725 6 135242420.539 6     -2355.134          36.000  
E14  21513092.717 5 113052064.310 5      2764.416          33.000  
E21  26623552.752 5 139907719.610 5     -1814.371          33.000  
E26  24803348.251 5 130342593.806 5      1113.101          32.000  
J 2  38952915.634 5 204698938.26025        21.251          31.000  
J 3  37187797.020 5 195423204.11425        16.294          35.000  
J 4  37463629.803 5 196872703.382 5      -277.647          34.000  
> 2024 11 29  9  5 20.5990000  0 23                     
G 4  22797992.308 5 119804230.372 5     -2781.542          33.000  
G 7  22818316.716 2               2      2908.961          16.000  
G 8  20072658.641 6 105482531.831 6      1196.991          41.000  
G 9  22704193.409 3               3     -1674.325          22.000  
G16  21157645.316 6 111184165.103 6     -1797.976          39.000  
G18  24971359.691 5 131224656.782 5     -2555.923          32.000  
G21  22947452.480 6 120589686.206 6      3816.548          37.000  
G26  23190225.616 6 121865453.705 6     -2576.656          41.000  
G27  19887094.037 5 104507374.54625     -1075.154          33.000  
R 7  23291680.231 4               4      -194.311          24.000  
R14  24143892.010 6 128700410.266 6     -3089.930          36.000  
R15  20308861.543 7 108524342.222 7     -1416.761          42.000  
R16  19944310.818 5 106538922.101 5      1735.921          35.000  
R17  20227950.581 6 108243796.663 6     -2147.972          37.000  
R18  19396622.587 7 103540437.177 7      1812.165          43.000  
R19  21999273.620 4 117681253.98624      4267.449          27.000  
E 4  25735870.210 6 135242891.477 6     -2354.580          36.000  
E14  21512989.202 5 113051511.468 5      2764.388          33.000  
E21  26623621.733 5 139908082.504 5     -1814.851          32.000  
E26  24803308.883 5 130342371.186 5      1113.413          32.000  
J 2  38952915.337 5 204698933.90725        22.120          31.000  
J 3  37187796.811 6 195423200.79126        16.650          37.000  
J 4  37463641.198 5 196872758.812 5      -277.321          35.000  
> 2024 11 29  9  5 20.7990000  0 23                     
G 4  22798098.213 5 119804786.811 5     -2782.117          33.000  
G 7  22818205.419 2               2      2908.961          15.000  
G 8  20072612.991 6 105482292.479 6      1196.738          40.000  
G 9  22704259.109 3               3     -1678.942          21.000  
G16  21157713.895 6 111184524.773 6     -1798.926          39.000  
G18  24971456.993 5 131225168.079 5     -2556.382          33.000  
G21  22947307.574 6 120588922.964 6      3816.235          37.000  
G26  23190323.704 6 121865969.127 6     -2577.156          41.000  
G27  19887131.433 5 104507589.73925     -1076.241          33.000  
R 7  23291687.316 4               4      -196.227          24.000  
R14  24144007.897 6 128701028.234 6     -3089.681          36.000  
R15  20308914.575 7 108524625.728 7     -1417.697          42.000  
R16  19944251.225 5 106538574.900 5      1735.954          35.000  
R17  20228028.758 6 108244226.321 6     -2148.464          37.000  
R18  19396554.758 7 103540074.854 7      1811.540          43.000  
R19  21999113.863 4 117680400.56924      4266.998          27.000  
E 4  25735959.572 6 135243362.527 6     -2355.831          36.000  
E14  21512887.415 5 113050958.742 5      2762.644          33.000  
E21  26623690.469 5 139908445.477 5     -1815.411          32.000  
E26  24803265.729 5 130342148.705 5      1112.378          33.000  
J 2  38952912.354 5 204698929.70025        21.656          32.000  
J 3  37187796.375 6 195423197.58226        15.839          36.000  
J 4  37463651.668 5 196872814.331 5      -277.358          35.000  
> 2024 11 29  9  5 20.9990000  0 23                     
G 4  22798204.136 5 119805343.251 5     -2782.564          33.000  
G 7  22818095.517 2               2      2908.961          14.000  
G 8  20072567.516 6 105482053.172 6      1196.367          39.000  
G 9  22704327.043 3               3     -1682.532          21.000  
G16  21157782.300 6 111184884.392 6     -1798.641          39.000  
G18  24971552.306 5 131225679.427 5     -2556.490          33.000  
G21  22947163.295 6 120588159.756 6      3815.808          37.000  
G26  23190421.774 6 121866484.532 6     -2577.341          41.000  
G27  19887174.326 5 104507804.91425     -1076.086          34.000  
R 7  23291695.692 4               4      -201.360          25.000  
R14  24144123.854 6 128701646.255 6     -3090.177          36.000  
R15  20308967.641 6 108524909.206 6     -1417.574          41.000  
R16  19944185.316 5 106538227.709 5      1735.731          35.000  
R17  20228108.488 6 108244655.998 6     -2148.890          37.000  
R18  19396486.807 7 103539712.547 7      1811.274          43.000  
R19  21998954.560 4 117679547.16024      4267.094          28.000  
E 4  25736049.266 6 135243833.547 6     -2355.302          36.000  
E14  21512778.229 5 113050405.924 5      2763.722          33.000  
E21  26623759.188 5 139908808.349 5     -1814.056          32.000  
E26  24803228.298 5 130341926.216 5      1112.271          33.000  
J 2  38952908.619 5 204698925.49525        20.298          32.000  
J 3  37187793.949 6 195423194.37526        15.873          36.000  
J 4  37463661.405 5 196872869.882 5      -278.409          34.000  
> 2024 11 29  9  5 21.1990000  0 22                     
G 4  22798309.937 5 119805899.755 5     -2782.807          33.000  
G 8  20072521.953 6 105481813.908 6      1195.918          39.000  
G 9  22704391.835 3               3     -1680.564          21.000  
G16  21157850.897 6 111185244.057 6     -1798.352          39.000  
G18  24971650.917 5 131226190.812 5     -2557.109          33.000  
G21  22947018.616 6 120587396.565 6      3815.948          36.000  
G26  23190519.792 6 121866999.976 6     -2577.389          41.000  
G27  19887214.584 5 104508020.17525     -1076.423          34.000  
R 7  23291703.998 4               4      -190.145          25.000  
R14  24144239.671 6 128702264.292 6     -3090.642          36.000  
R15  20309020.742 6 108525192.763 6     -1418.150          41.000  
R16  19944121.884 5 106537880.561 5      1735.460          35.000  
R17  20228189.021 6 108245085.714 6     -2149.006          37.000  
R18  19396418.978 7 103539350.310 7      1811.020          43.000  
R19  21998795.676 4 117678693.83024      4266.493          28.000  
E 4  25736138.943 6 135244304.613 6     -2355.629          36.000  
E14  21512675.674 5 113049853.231 5      2763.802          33.000  
E21  26623828.012 5 139909171.374 5     -1814.223          32.000  
E26  24803186.522 5 130341703.742 5      1112.322          33.000  
J 2  38952907.991 5 204698921.29125        20.166          32.000  
J 3  37187793.024 6 195423191.20026        15.502          36.000  
J 4  37463673.864 5 196872925.444 5      -278.175          34.000  
> 2024 11 29  9  5 21.3990000  0 22                     
G 4  22798415.825 5 119806456.315 5     -2782.945          33.000  
G 8  20072476.426 6 105481574.747 6      1195.629          37.000  
G 9  22704456.907 3               3     -1680.564          21.000  
G16  21157919.424 6 111185603.844 6     -1798.729          37.000  
G18  24971746.544 5 131226702.279 5     -2557.499          33.000  
G21  22946873.727 5 120586633.455 5      3815.439          34.000  
G26  23190617.810 6 121867515.501 6     -2577.564          39.000  
G27  19887255.888 5 104508235.52225     -1076.947          34.000  
R 7  23291711.310 4               4      -201.385          25.000  
R14  24144355.627 6 128702882.413 6     -3090.151          36.000  
R15  20309073.703 6 108525476.371 6     -1418.321          41.000  
R16  19944058.400 5 106537533.489 5      1735.025          35.000  
R17  20228269.326 6 108245515.558 6     -2149.274          37.000  
R18  19396351.044 7 103538988.199 7      1810.469          43.000  
R19  21998636.564 4 117677840.60424      4266.044          28.000  
E 4  25736228.410 5 135244775.794 5     -2355.541          33.000  
E14  21512567.709 5 113049300.660 5      2762.539          33.000  
E21  26623896.783 5 139909534.503 5     -1815.483          31.000  
E26  24803145.636 5 130341481.429 5      1111.104          33.000  
J 2  38952909.771 5 204698917.13425        20.534          32.000  
J 3  37187793.478 5 195423188.08925        15.219          33.000  
J 4  37463684.125 5 196872981.054 5      -278.145          34.000  
> 2024 11 29  9  5 21.5990000  0 22                     
G 4  22798521.747 5 119807012.920 5     -2783.704          33.000  
G 8  20072430.968 6 105481335.608 6      1195.574          38.000  
G 9  22704521.735 3               3     -1680.564          21.000  
G16  21157987.951 6 111185963.596 6     -1798.917          38.000  
G18  24971843.533 5 131227213.751 5     -2557.240          33.000  
G21  22946729.029 5 120585870.307 5      3815.867          34.000  
G26  23190715.915 6 121868031.030 6     -2577.667          41.000  
G27  19887294.331 5 104508450.84725     -1076.705          34.000  
R 7  23291718.098 4               4      -194.544          25.000  
R14  24144471.514 6 128703500.555 6     -3090.784          37.000  
R15  20309126.699 6 108525759.992 6     -1418.110          41.000  
R16  19943992.648 5 106537186.400 5      1735.279          35.000  
R17  20228347.992 6 108245945.418 6     -2149.867          37.000  
R18  19396283.058 7 103538626.100 7      1810.213          43.000  
R19  21998476.651 4 117676987.33624      4265.889          28.000  
E 4  25736318.139 5 135245246.948 5     -2355.649          34.000  
E14  21512459.728 5 113048747.992 5      2763.227          33.000  
E21  26623963.548 5 139909897.537 5     -1815.260          31.000  
E26  24803104.890 5 130341259.012 5      1111.978          34.000  
J 2  38952910.870 5 204698912.96125        20.843          32.000  
J 3  37187794.001 5 195423184.95925        15.392          34.000  
J 4  37463695.154 5 196873036.682 5      -278.088          34.000  
> 2024 11 29  9  5 21.7990000  0 22                     
G 4  22798627.705 5 119807569.474 5     -2783.209          33.000  
G 8  20072385.475 6 105481096.471 6      1196.007          38.000  
G 9  22704584.678 3               3     -1684.946          21.000  
G16  21158056.408 6 111186323.369 6     -1798.733          38.000  
G18  24971941.987 5 131227725.260 5     -2557.407          33.000  
G21  22946583.320 5 120585107.202 5      3815.510          34.000  
G26  23190814.020 6 121868546.560 6     -2577.625          41.000  
G27  19887336.404 5 104508666.23525     -1076.899          34.000  
R 7  23291724.537 4               4      -198.651          24.000  
R14  24144587.506 6 128704118.686 6     -3090.281          37.000  
R15  20309179.696 6 108526043.639 6     -1417.971          41.000  
R16  19943928.518 6 106536839.335 6      1735.081          36.000  
R17  20228428.804 6 108246375.282 6     -2149.457          37.000  
R18  19396215.177 7 103538264.037 7      1810.207          42.000  
R19  21998318.011 4 117676134.08124      4266.001          28.000  
E 4  25736407.903 5 135245718.142 5     -2355.737          34.000  
E14  21512355.410 5 113048195.397 5      2763.029          33.000  
E21  26624027.573 5 139910260.639 5     -1815.722          31.000  
E26  24803061.526 5 130341036.694 5      1111.702          33.000  
J 2  38952909.666 5 204698908.77825        21.029          31.000  
J 3  37187793.111 5 195423181.86625        15.309          33.000  
J 4  37463705.502 5 196873092.289 5      -277.831          33.000  
> 2024 11 29  9  5 21.9990000  0 22                     
G 4  22798733.680 5 119808126.085 5     -2782.913          33.000  
G 8  20072339.878 6 105480857.410 6      1195.367          38.000  
G 9  22704647.115 3               3     -1684.946          21.000  
G16  21158124.865 6 111186683.181 6     -1799.169          38.000  
G18  24972038.347 5 131228236.812 5     -2557.881          33.000  
G21  22946438.762 5 120584344.156 5      3814.795          33.000  
G26  23190912.160 6 121869062.129 6     -2577.696          41.000  
G27  19887379.192 5 104508881.65825     -1077.101          34.000  
R 7  23291731.727 4               4      -203.749          24.000  
R14  24144703.567 6 128704736.844 6     -3091.028          37.000  
R15  20309232.849 6 108526327.335 6     -1418.241          41.000  
R16  19943862.469 6 106536492.302 6      1735.261          36.000  
R17  20228510.541 6 108246805.210 6     -2149.745          37.000  
R18  19396147.313 7 103537902.046 7      1809.796          42.000  
R19  21998158.551 4 117675280.86924      4266.241          28.000  
E 4  25736497.615 5 135246189.371 5     -2356.426          34.000  
E14  21512249.034 5 113047642.850 5      2762.707          33.000  
E21  26624094.651 5 139910623.704 5     -1815.287          31.000  
E26  24803018.407 5 130340814.404 5      1111.424          33.000  
J 2  38952908.078 5 204698904.66725        20.972          31.000  
J 3  37187792.518 5 195423178.79625        14.733          32.000  
J 4  37463715.710 5 196873147.942 5      -278.379          33.000  
> 2024 11 29  9  5 22.1990000  0 22                     
G 4  22798839.586 5 119808682.776 5     -2783.036          33.000  
G 8  20072294.472 6 105480618.408 6      1194.899          38.000  
G 9  22704709.499 3               3     -1678.659          21.000  
G16  21158193.323 6 111187043.079 6     -1800.074          38.000  
G18  24972135.039 5 131228748.435 5     -2558.521          33.000  
G21  22946293.629 5 120583581.191 5      3814.143          33.000  
G26  23191010.457 6 121869577.753 6     -2578.416          41.000  
G27  19887419.118 5 104509097.14825     -1077.355          34.000  
R 7  23291739.388 4               4      -193.697          24.000  
R14  24144819.489 6 128705355.068 6     -3091.224          37.000  
R15  20309285.880 6 108526611.104 6     -1418.910          41.000  
R16  19943797.397 6 106536145.350 6      1734.728          36.000  
R17  20228591.126 6 108247235.250 6     -2150.479          36.000  
R18  19396079.449 6 103537540.126 6      1809.485          41.000  
R19  21997999.771 4 117674427.81224      4264.580          28.000  
E 4  25736587.222 5 135246660.626 5     -2356.461          34.000  
E14  21512145.170 5 113047090.319 5      2762.180          33.000  
E21  26624164.312 5 139910986.857 5     -1815.635          31.000  
E26  24802978.271 5 130340592.157 5      1111.435          33.000  
J 2  38952905.234 5 204698900.56525        20.572          31.000  
J 3  37187789.813 5 195423175.75925        14.875          31.000  
J 4  37463726.372 5 196873203.669 5      -279.238          33.000  
> 2024 11 29  9  5 22.3990000  0 22                     
G 4  22798945.509 5 119809239.530 5     -2783.824          33.000  
G 8  20072249.032 6 105480379.455 6      1194.652          38.000  
G 9  22704773.716 3               3     -1678.659          20.000  
G16  21158261.815 6 111187402.962 6     -1799.788          38.000  
G18  24972232.760 5 131229260.115 5     -2559.360          33.000  
G21  22946148.792 5 120582818.189 5      3814.562          33.000  
G26  23191108.684 6 121870093.403 6     -2578.315          41.000  
G27  19887461.626 5 104509312.70825     -1077.282          34.000  
R 7  23291746.088 4               4      -193.697          24.000  
R14  24144935.533 6 128705973.331 6     -3091.586          37.000  
R15  20309338.946 6 108526894.904 6     -1419.123          41.000  
R16  19943730.511 6 106535798.444 6      1734.109          36.000  
R17  20228671.100 6 108247665.327 6     -2151.014          36.000  
R18  19396011.795 6 103537178.285 6      1809.186          41.000  
R19  21997840.294 4 117673574.71824      4264.419          27.000  
E 4  25736676.828 5 135247131.929 5     -2356.780          34.000  
E14  21512040.783 5 113046537.892 5      2761.943          32.000  
E21  26624228.808 5 139911350.017 5     -1816.296          31.000  
E26  24802936.146 5 130340369.975 5      1111.044          33.000  
J 2  38952903.925 5 204698896.55825        19.959          31.000  
J 3  37187788.522 5 195423172.77025        14.355          31.000  
J 4  37463737.104 5 196873259.373 5      -279.037          33.000  
> 2024 11 29  9  5 22.5990000  0 22                     
G 4  22799051.344 5 119809796.235 5     -2784.134          32.000  
G 8  20072203.557 6 105480140.486 6      1194.260          38.000  
G 9  22704839.817 3               3     -1678.659          20.000  
G16  21158330.394 6 111187762.853 6     -1799.507          37.000  
G18  24972330.254 5 131229771.737 5     -2558.578          33.000  
G21  22946002.612 5 120582055.164 5      3815.219          33.000  
G26  23191206.789 6 121870609.033 6     -2578.194          41.000  
G27  19887501.029 5 104509528.26625     -1077.733          34.000  
R 7  23291752.702 3               3      -200.550          23.000  
R14  24145051.402 6 128706591.544 6     -3091.476          37.000  
R15  20309392.048 6 108527178.704 6     -1418.933          41.000  
R16  19943666.119 5 106535451.500 5      1734.365          35.000  
R17  20228751.267 6 108248095.403 6     -2150.798          36.000  
R18  19395944.053 6 103536816.433 6      1809.076          41.000  
R19  21997680.868 4 117672721.53124      4265.633          27.000  
E 4  25736766.453 5 135247603.212 5     -2356.193          34.000  
E14  21511938.298 5 113045985.384 5      2762.916          32.000  
E21  26624304.839 5 139911713.156 5     -1815.170          31.000  
E26  24802891.369 5 130340147.811 5      1110.930          33.000  
J 2  38952903.210 5 204698892.43425        20.563          31.000  
J 3  37187786.253 5 195423169.77025        14.412          31.000  
J 4  37463749.214 5 196873315.077 5      -279.380          32.000  
> 2024 11 29  9  5 22.7990000  0 22                     
G 4  22799157.284 5 119810352.967 5     -2783.454          32.000  
G 8  20072158.012 6 105479901.562 6      1194.860          38.000  
G 9  22704904.627 3               3     -1678.659          20.000  
G16  21158398.904 6 111188122.802 6     -1799.891          37.000  
G18  24972427.871 5 131230283.401 5     -2557.849          33.000  
G21  22945858.246 5 120581292.202 5      3815.009          33.000  
G26  23191304.999 6 121871124.694 6     -2578.117          41.000  
G27  19887542.089 5 104509743.85025     -1077.640          34.000  
R 7  23291760.502 3               3      -199.718          23.000  
R14  24145167.429 6 128707209.798 6     -3091.007          37.000  
R15  20309444.957 6 108527462.551 6     -1419.270          39.000  
R16  19943603.246 5 106535104.639 5      1734.240          35.000  
R17  20228832.044 6 108248525.540 6     -2150.356          36.000  
R18  19395876.329 6 103536454.645 6      1809.016          41.000  
R19  21997521.408 4 117671868.45024      4265.340          27.000  
E 4  25736856.164 5 135248074.573 5     -2356.573          34.000  
E14  21511834.364 5 113045432.945 5      2762.386          32.000  
E21  26624374.622 5 139912076.379 5     -1815.800          31.000  
E26  24802850.256 5 130339925.661 5      1110.784          33.000  
J 2  38952903.977 5 204698888.41625        19.945          31.000  
J 3  37187785.835 5 195423166.73925        15.222          31.000  
J 4  37463759.109 5 196873370.777 5      -278.248          32.000  
> 2024 11 29  9  5 22.9990000  0 23                     
G 4  22799263.399 5 119810909.698 5     -2783.438          32.000  
G 7  22816999.190 2               2      2908.961          12.000  
G 8  20072112.536 6 105479662.663 6      1194.301          38.000  
G 9  22704967.780 3               3     -1678.659          19.000  
G16  21158467.413 6 111188482.696 6     -1799.885          37.000  
G18  24972524.824 5 131230795.144 5     -2559.056          33.000  
G21  22945712.956 5 120580529.260 5      3813.969          32.000  
G26  23191403.157 6 121871640.354 6     -2578.698          41.000  
G27  19887583.900 5 104509959.46425     -1078.031          34.000  
R 7  23291767.325 3               3      -209.984          23.000  
R14  24145283.368 6 128707828.083 6     -3091.596          37.000  
R15  20309497.813 6 108527746.394 6     -1419.597          39.000  
R16  19943537.860 5 106534757.729 5      1734.252          35.000  
R17  20228911.058 6 108248955.714 6     -2150.577          36.000  
R18  19395808.517 6 103536092.886 6      1808.543          41.000  
R19  21997362.891 4 117671015.35524      4266.000          27.000  
E 4  25736945.754 5 135248545.921 5     -2357.013          34.000  
E14  21511728.755 5 113044880.490 5      2762.033          32.000  
E21  26624440.706 5 139912439.532 5     -1815.832          31.000  
E26  24802810.173 5 130339703.530 5      1110.814          33.000  
J 2  38952902.651 5 204698884.34925        19.336          30.000  
J 3  37187786.306 5 195423163.74925        14.916          30.000  
J 4  37463767.799 5 196873426.496 5      -279.294          31.000  
> 2024 11 29  9  5 23.1990000  0 23                     
G 4  22799369.339 5 119811466.495 5     -2784.262          32.000  
G 7  22816889.410 2               2      2908.961          12.000  
G 8  20072067.044 6 105479423.758 6      1194.987          38.000  
G 9  22705030.845 3               3     -1677.524          19.000  
G16  21158535.818 6 111188842.624 6     -1799.582          37.000  
G18  24972622.668 5 131231306.833 5     -2558.772          33.000  
G21  22945566.845 5 120579766.268 5      3814.898          31.000  
G26  23191501.209 6 121872156.002 6     -2578.682          41.000  
G27  19887624.262 5 104510175.08425     -1078.254          34.000  
R 7  23291774.218 3               3      -209.984          22.000  
R14  24145399.325 6 128708446.367 6     -3091.860          38.000  
R15  20309550.740 6 108528030.246 6     -1419.720          39.000  
R16  19943471.375 5 106534410.849 5      1734.122          35.000  
R17  20228991.102 5 108249385.939 5     -2151.462          35.000  
R18  19395740.723 6 103535731.159 6      1808.288          41.000  
R19  21997203.116 4 117670162.38624      4264.688          26.000  
E 4  25737035.553 5 135249017.236 5     -2356.608          33.000  
E14  21511621.908 5 113044328.055 5      2762.428          31.000  
E21  26624510.333 5 139912802.740 5     -1816.152          31.000  
E26  24802767.839 5 130339481.395 5      1110.717          33.000  
J 2  38952901.936 5 204698880.24025        20.858          30.000  
J 3  37187785.800 4 195423160.79924        15.019          29.000  
J 4  37463778.095 5 196873482.192 5      -278.262          31.000  
> 2024 11 29  9  5 23.3990000  0 22                     
G 4  22799475.332 5 119812023.263 5     -2783.685          32.000  
G 8  20072021.551 6 105479184.947 6      1194.542          38.000  
G 9  22705095.096 3               3     -1677.524          18.000  
G16  21158604.415 6 111189202.646 6     -1800.107          37.000  
G18  24972719.883 5 131231818.634 5     -2559.391          33.000  
G21  22945422.200 5 120579003.377 5      3814.484          31.000  
G26  23191599.454 6 121872671.719 6     -2578.392          41.000  
G27  19887664.171 5 104510390.76425     -1077.476          34.000  
R 7  23291782.106 3               3      -209.984          21.000  
R14  24145515.264 6 128709064.677 6     -3091.325          38.000  
R15  20309603.893 6 108528314.164 6     -1419.382          39.000  
R16  19943405.919 5 106534064.007 5      1734.603          35.000  
R17  20229071.600 5 108249816.190 5     -2151.475          35.000  
R18  19395672.946 6 103535369.509 6      1808.357          41.000  
R19  21997042.766 4 117669309.23424      4266.377          26.000  
E 4  25737125.177 5 135249488.633 5     -2356.610          33.000  
E14  21511518.288 5 113043775.715 5      2761.717          31.000  
E21  26624576.958 5 139913165.922 5     -1815.657          31.000  
E26  24802724.999 5 130339259.352 5      1110.676          33.000  
J 2  38952901.028 5 204698876.23025        19.814          30.000  
J 3  37187785.311 4 195423157.81624        15.021          29.000  
J 4  37463785.214 5 196873537.956 5      -278.782          31.000  
> 2024 11 29  9  5 23.5990000  0 22                     
G 4  22799581.290 5 119812580.114 5     -2784.219          32.000  
G 8  20071976.145 6 105478946.146 6      1194.126          38.000  
G 9  22705159.017 2               2     -1677.524          17.000  
G16  21158672.959 6 111189562.612 6     -1799.990          37.000  
G18  24972816.627 5 131232330.391 5     -2559.017          33.000  
G21  22945276.718 5 120578240.519 5      3814.311          31.000  
G26  23191697.577 6 121873187.433 6     -2578.774          41.000  
G27  19887705.633 5 104510606.49325     -1078.344          34.000  
R 7  23291788.999 3               3      -194.193          21.000  
R14  24145631.203 6 128709683.040 6     -3092.019          38.000  
R15  20309657.029 6 108528598.109 6     -1420.029          39.000  
R16  19943340.760 5 106533717.196 5      1734.069          35.000  
R17  20229151.784 5 108250246.482 5     -2151.404          35.000  
R18  19395605.222 6 103535007.890 6      1807.852          41.000  
R19  21996883.673 4 117668456.39224      4264.379          26.000  
E 4  25737214.906 5 135249960.022 5     -2357.137          33.000  
E14  21511412.680 5 113043223.363 5      2761.249          31.000  
E21  26624647.439 5 139913529.131 5     -1816.079          31.000  
E26  24802682.176 5 130339037.286 5      1110.291          32.000  
J 2  38952898.306 5 204698872.20025        19.865          30.000  
J 3  37187783.339 4 195423154.81224        14.725          29.000  
J 4  37463794.358 5 196873593.713 5      -278.669          30.000  
> 2024 11 29  9  5 23.7990000  0 22                     
G 4  22799687.370 5 119813136.896 5     -2784.052          32.000  
G 8  20071930.845 6 105478707.347 6      1194.176          38.000  
G 9  22705222.972 2               2     -1677.524          17.000  
G16  21158741.451 6 111189922.588 6     -1800.035          37.000  
G18  24972913.912 5 131232842.181 5     -2559.008          34.000  
G21  22945130.746 5 120577477.584 5      3814.894          31.000  
G26  23191795.821 6 121873703.125 6     -2578.387          41.000  
G27  19887746.745 5 104510822.22025     -1078.256          34.000  
R 7  23291795.717 3               3      -194.193          21.000  
R14  24145747.212 6 128710301.348 6     -3091.993          38.000  
R15  20309709.938 6 108528882.018 6     -1419.353          40.000  
R16  19943275.252 5 106533370.347 5      1734.133          35.000  
R17  20229232.352 5 108250676.789 5     -2151.440          35.000  
R18  19395537.445 6 103534646.286 6      1808.042          41.000  
R19  21996724.282 4 117667603.29524      4265.686          26.000  
E 4  25737304.513 5 135250431.388 5     -2356.859          34.000  
E14  21511307.926 5 113042670.953 5      2762.098          31.000  
E21  26624715.111 5 139913892.316 5     -1815.903          31.000  
E26  24802639.615 5 130338815.224 5      1110.748          32.000  
J 2  38952894.746 5 204698868.10625        20.520          30.000  
J 3  37187788.871 4 195423151.87824        15.040          29.000  
J 4  37463805.334 5 196873649.430 5      -278.249          31.000  
> 2024 11 29  9  5 23.9990000  0 22                     
G 4  22799793.345 5 119813693.737 5     -2784.214          32.000  
G 8  20071885.352 6 105478468.578 6      1193.661          38.000  
G 9  22705286.089 2               2     -1677.524          17.000  
G16  21158809.996 6 111190282.579 6     -1799.897          37.000  
G18  24973010.865 5 131233354.007 5     -2559.319          34.000  
G21  22944985.421 5 120576714.677 5      3814.798          32.000  
G26  23191893.874 6 121874218.828 6     -2578.467          41.000  
G27  19887788.417 5 104511037.94625     -1078.681          34.000  
R 7  23291802.435 3               3      -199.458          21.000  
R14  24145863.344 6 128710919.670 6     -3091.789          38.000  
R15  20309763.004 6 108529165.993 6     -1420.109          40.000  
R16  19943211.559 5 106533023.561 5      1733.434          35.000  
R17  20229312.675 5 108251107.146 5     -2152.320          35.000  
R18  19395469.808 6 103534284.724 6      1807.658          41.000  
R19  21996563.985 4 117666750.40824      4264.310          26.000  
E 4  25737394.224 5 135250902.799 5     -2356.847          34.000  
E14  21511202.282 5 113042118.604 5      2761.587          31.000  
E21  26624789.781 5 139914255.540 5     -1816.183          31.000  
E26  24802596.233 5 130338593.206 5      1110.561          32.000  
J 2  38952893.682 5 204698864.06225        19.991          30.000  
J 3  37187784.439 4 195423148.90124        14.703          29.000  
J 4  37463816.014 5 196873705.186 5      -278.352          31.000  
> 2024 11 29  9  5 24.1990000  0 22                     
G 4  22799899.390 5 119814250.607 5     -2784.498          33.000  
G 8  20071839.894 6 105478229.833 6      1193.688          39.000  
G 9  22705348.962 2               2     -1677.524          17.000  
G16  21158878.593 6 111190642.607 6     -1799.926          37.000  
G18  24973108.272 5 131233865.853 5     -2559.681          34.000  
G21  22944839.921 5 120575951.816 5      3815.211          32.000  
G26  23191992.049 6 121874734.564 6     -2578.211          41.000  
G27  19887829.355 5 104511253.72425     -1079.007          34.000  
R 7  23291809.764 3               3      -199.458          20.000  
R14  24145979.335 6 128711538.012 6     -3091.468          38.000  
R15  20309815.931 6 108529449.973 6     -1419.688          40.000  
R16  19943145.579 5 106532676.750 5      1734.226          35.000  
R17  20229392.440 5 108251537.558 5     -2151.964          35.000  
R18  19395402.032 6 103533923.191 6      1808.017          41.000  
R19  21996403.635 4 117665900.48934      4264.277          26.000  
E 4  25737483.849 5 135251374.230 5     -2356.975          34.000  
E14  21511097.319 5 113041566.270 5      2762.181          31.000  
E21  26624856.039 5 139914618.750 5     -1816.274          31.000  
E26  24802553.690 5 130338371.261 5      1109.834          31.000  
J 2  38952894.868 5 204698859.98425        20.904          30.000  
J 3  37187783.078 5 195423146.000 5        14.653          30.000  
J 4  37463827.810 5 196873760.950 5      -278.221          31.000  
> 2024 11 29  9  5 24.3990000  0 22                     
G 4  22800005.417 5 119814807.437 5     -2784.310          33.000  
G 8  20071794.489 6 105477991.125 6      1193.574          39.000  
G 9  22705413.563 2               2     -1677.524          17.000  
G16  21158947.015 6 111191002.667 6     -1800.701          37.000  
G18  24973205.470 5 131234377.700 5     -2559.245          34.000  
G21  22944694.683 5 120575188.992 5      3813.678          32.000  
G26  23192090.189 6 121875250.304 6     -2578.878          41.000  
G27  19887870.241 5 104511469.52625     -1078.936          34.000  
R 7  23291816.291 3               3      -199.458          20.000  
R14  24146095.432 6 128712156.398 6     -3091.747          38.000  
R15  20309868.997 6 108529733.990 6     -1419.951          40.000  
R16  19943081.328 6 106532330.009 6      1733.258          36.000  
R17  20229472.414 5 108251967.991 5     -2152.370          35.000  
R18  19395334.307 6 103533561.736 6      1807.218          41.000  
R19  21996243.215 4 117665047.45624      4265.052          26.000  
E 4  25737573.682 5 135251845.665 5     -2357.175          34.000  
E14  21510993.037 5 113041013.958 5      2761.372          31.000  
E21  26624919.907 5 139914982.003 5     -1816.906          31.000  
E26  24802511.408 5 130338149.312 5      1109.304          31.000  
J 2  38952893.437 5 204698855.97625        19.584          30.000  
J 3  37187785.765 5 195423143.065 5        14.237          30.000  
J 4  37463840.270 5 196873816.711 5      -278.991          31.000  
> 2024 11 29  9  5 24.5990000  0 22                     
G 4  22800111.235 5 119815364.319 5     -2783.399          33.000  
G 8  20071749.013 6 105477752.435 6      1193.744          38.000  
G 9  22705478.548 2               2     -1685.582          17.000  
G16  21159015.525 6 111191362.670 6     -1799.916          37.000  
G18  24973302.737 5 131234889.566 5     -2559.312          34.000  
G21  22944549.846 5 120574426.051 5      3814.017          31.000  
G26  23192188.329 6 121875766.038 6     -2578.464          41.000  
G27  19887911.755 5 104511685.35425     -1079.365          34.000  
R 7  23291823.864 3               3      -199.458          20.000  
R14  24146211.423 6 128712774.797 6     -3092.187          38.000  
R15  20309921.923 6 108530018.028 6     -1420.148          39.000  
R16  19943016.727 5 106531983.214 5      1734.103          35.000  
R17  20229553.191 5 108252398.430 5     -2151.708          35.000  
R18  19395266.827 6 103533200.303 6      1806.858          41.000  
R19  21996084.086 4 117664194.60424      4264.158          26.000  
E 4  25737663.429 5 135252317.140 5     -2357.326          34.000  
E14  21510887.637 5 113040461.642 5      2761.779          31.000  
E21  26624989.952 5 139915345.180 5     -1815.636          31.000  
E26  24802469.144 5 130337927.370 5      1109.579          31.000  
J 2  38952893.246 4 204698851.87324        20.790          29.000  
J 3  37187784.526 4 195423140.153 4        14.701          29.000  
J 4  37463849.728 5 196873872.412 5      -278.126          31.000  
> 2024 11 29  9  5 24.7990000  0 22                     
G 4  22800217.368 5 119815921.269 5     -2785.247          33.000  
G 8  20071703.625 6 105477513.826 6      1193.254          39.000  
G 9  22705543.375 2               2     -1685.582          16.000  
G16  21159083.842 6 111191722.747 6     -1800.343          37.000  
G18  24973400.022 5 131235401.502 5     -2559.909          34.000  
G21  22944404.242 5 120573663.155 5      3814.946          30.000  
G26  23192286.452 6 121876281.811 6     -2578.747          41.000  
G27  19887953.391 5 104511901.21825     -1080.104          34.000  
R 7  23291830.827 3               3      -199.458          19.000  
R14  24146327.537 6 128713393.185 6     -3091.836          38.000  
R15  20309975.094 6 108530302.088 6     -1420.312          39.000  
R16  19942952.004 5 106531636.522 5      1733.604          35.000  
R17  20229633.881 5 108252828.977 5     -2152.556          35.000  
R18  19395199.208 6 103532838.885 6      1807.046          41.000  
R19  21995924.172 4 117663341.69124      4263.802          25.000  
E 4  25737753.053 5 135252788.650 5     -2357.910          34.000  
E14  21510783.093 5 113039909.370 5      2761.404          31.000  
E21  26625062.021 5 139915708.507 5     -1816.075          31.000  
E26  24802427.525 5 130337705.457 5      1109.581          31.000  
J 2  38952892.199 4 204698847.83324        20.548          29.000  
J 3  37187784.474 3 195423137.268 3        14.539          22.000  
J 4  37463859.343 5 196873928.214 5      -278.422          30.000  
> 2024 11 29  9  5 24.9990000  0 22                     
G 4  22800323.273 5 119816478.181 5     -2784.807          33.000  
G 8  20071658.185 6 105477275.185 6      1192.862          39.000  
G 9  22705607.470 2               2     -1685.582          16.000  
G16  21159152.317 6 111192082.808 6     -1800.386          37.000  
G18  24973497.290 5 131235913.414 5     -2559.978          35.000  
G21  22944258.602 4 120572900.396 4      3813.636          25.000  
G26  23192384.504 7 121876797.582 7     -2578.927          42.000  
G27  19887995.132 5 104512117.03525     -1079.174          35.000  
R 7  23291839.395 2               2      -199.458          17.000  
R14  24146443.546 6 128714011.592 6     -3091.841          39.000  
R15  20310028.090 6 108530586.176 6     -1420.664          39.000  
R16  19942887.543 5 106531289.753 5      1733.802          35.000  
R17  20229714.466 5 108253259.553 5     -2153.171          35.000  
R18  19395131.658 6 103532477.528 6      1806.628          39.000  
R19  21995764.747 4 117662488.80824      4264.404          25.000  
E 4  25737842.765 5 135253260.105 5     -2357.426          35.000  
E14  21510678.025 5 113039357.105 5      2761.107          30.000  
E21  26625134.841 5 139916071.744 5     -1816.543          32.000  
E26  24802386.342 5 130337483.570 5      1109.057          31.000  
J 2  38952890.157 4 204698843.76824        20.265          29.000  
J 3  37187785.032 3 195423134.496 3        13.622          22.000  
J 4  37463870.197 4 196873983.910 4      -278.115          29.000  
> 2024 11 29  9  5 25.1990000  0 22                     
G 4  22800429.213 5 119817035.089 5     -2783.781          33.000  
G 8  20071612.762 6 105477036.573 6      1192.707          39.000  
G 9  22705672.036 2               2     -1685.582          15.000  
G16  21159220.914 6 111192442.939 6     -1800.530          38.000  
G18  24973594.557 5 131236425.370 5     -2559.863          35.000  
G21  22944112.736 4 120572137.501 4      3814.660          25.000  
G26  23192482.662 7 121877313.378 7     -2579.085          42.000  
G27  19888037.449 5 104512332.98225     -1079.866          35.000  
R 7  23291845.973 2               2      -199.458          17.000  
R14  24146559.607 6 128714630.024 6     -3092.403          39.000  
R15  20310081.069 6 108530870.306 6     -1420.820          39.000  
R16  19942822.942 5 106530943.071 5      1733.322          35.000  
R17  20229794.633 5 108253690.141 5     -2153.529          34.000  
R18  19395063.794 6 103532116.211 6      1806.406          39.000  
R19  21995605.305 4               4      4264.090          25.000  
E 4  25737932.267 5 135253731.595 5     -2357.375          34.000  
E14  21510574.825 5 113038804.884 5      2761.192          31.000  
E21  26625207.452 5 139916435.061 5     -1816.651          32.000  
E26  24802344.340 5 130337261.751 5      1108.873          32.000  
J 2  38952888.656 4 204698839.75424        20.040          29.000  
J 3  37187786.323 3 195423131.600 3        14.348          23.000  
J 4  37463877.945 4 196874039.717 4      -279.088          25.000  
> 2024 11 29  9  5 25.3990000  0 22                     
G 4  22800535.293 5 119817592.064 5     -2785.056          33.000  
G 8  20071567.409 6 105476797.977 6      1192.513          39.000  
G 9  22705735.886 2               2     -1685.582          15.000  
G16  21159289.406 6 111192803.041 6     -1800.620          38.000  
G18  24973692.052 5 131236937.321 5     -2559.743          35.000  
G21  22943967.602 4 120571374.750 4      3813.604          26.000  
G26  23192580.819 7 121877829.164 7     -2578.968          43.000  
G27  19888078.980 5 104512548.90825     -1079.654          35.000  
R 7  23291853.529 2               2      -199.458          16.000  
R14  24146675.634 6 128715248.424 6     -3092.021          39.000  
R15  20310134.205 6 108531154.411 6     -1420.625          39.000  
R16  19942758.412 5 106530596.384 5      1733.355          35.000  
R17  20229875.322 5 108254120.755 5     -2153.041          34.000  
R18  19394995.965 6 103531754.930 6      1806.372          40.000  
R19  21995446.036 4               4      4265.669          24.000  
E 4  25738021.944 5 135254203.088 5     -2357.621          34.000  
E14  21510468.710 5 113038252.690 5      2761.142          31.000  
E21  26625278.334 5 139916798.313 5     -1816.495          32.000  
E26  24802301.639 5 130337039.872 5      1109.513          33.000  
J 2  38952888.656 4 204698835.72324        19.946          29.000  
J 3  37187785.224 3 195423128.489 3        15.445          23.000  
J 4  37463886.303 4 196874095.484 4      -278.479          25.000  
> 2024 11 29  9  5 25.5990000  0 22                     
G 4  22800641.303 5 119818148.981 5     -2784.641          33.000  
G 8  20071521.864 6 105476559.394 6      1192.926          39.000  
G 9  22705800.836 2               2     -1685.582          15.000  
G16  21159357.985 6 111193163.113 6     -1800.031          38.000  
G18  24973789.232 5 131237449.313 5     -2559.896          35.000  
G21  22943821.247 4 120570611.987 4      3813.844          26.000  
G26  23192678.837 7 121878344.946 7     -2578.752          43.000  
G27  19888119.971 6 104512764.84526     -1079.565          36.000  
R 7  23291860.719 2               2      -199.458          16.000  
R14  24146791.713 6 128715866.870 6     -3092.120          39.000  
R15  20310187.376 6 108531438.528 6     -1420.243          39.000  
R16  19942693.741 6 106530249.673 6      1733.927          36.000  
R17  20229955.576 5 108254551.404 5     -2153.223          34.000  
R18  19394928.223 6 103531393.684 6      1806.074          40.000  
R19  21995287.187 4               4      4263.386          24.000  
E 4  25738111.777 5 135254674.631 5     -2357.783          34.000  
E14  21510360.519 5 113037700.535 5      2760.485          31.000  
E21  26625346.914 5 139917161.566 5     -1816.145          33.000  
E26  24802259.758 5 130336818.048 5      1109.189          35.000  
J 2  38952887.330 4 204698831.69724        20.238          29.000  
J 3  37187785.224 3 195423125.718 3        13.908          23.000  
J 4  37463893.144 4 196874151.267 4      -278.902          26.000  
> 2024 11 29  9  5 25.7990000  0 22                     
G 4  22800747.331 5 119818705.971 5     -2785.000          33.000  
G 8  20071476.423 6 105476320.833 6      1193.029          39.000  
G 9  22705864.511 2               2     -1685.582          15.000  
G16  21159426.460 6 111193523.229 6     -1800.500          38.000  
G18  24973886.534 5 131237961.269 5     -2559.715          35.000  
G21  22943675.765 4 120569849.152 4      3813.876          26.000  
G26  23192776.942 7 121878860.731 7     -2578.969          43.000  
G27  19888159.548 6 104512980.79426     -1079.687          36.000  
R 7  23291869.008 2               2      -199.458          15.000  
R14  24146907.792 6 128716485.278 6     -3091.890          39.000  
R15  20310240.425 6 108531722.669 6     -1420.729          39.000  
R16  19942629.420 5 106529903.001 5      1733.561          35.000  
R17  20230036.213 5 108254982.056 5     -2153.611          35.000  
R18  19394860.394 6 103531032.435 6      1806.383          40.000  
R19  21995128.268 4               4      4264.724          24.000  
E 4  25738201.384 5 135255146.129 5     -2357.427          34.000  
E14  21510260.442 5 113037148.267 5      2761.408          31.000  
E21  26625414.324 5 139917524.804 5     -1816.094          32.000  
E26  24802217.791 5 130336596.212 5      1109.060          35.000  
J 2  38952886.789 4 204698827.58324        20.580          29.000  
J 3  37187783.566 4 195423122.773 4        14.870          24.000  
J 4  37463903.614 4 196874206.995 4      -278.509          26.000  
> 2024 11 29  9  5 25.9990000  0 22                     
G 4  22800853.323 5 119819262.812 5     -2783.520          33.000  
G 8  20071431.001 6 105476082.249 6      1192.606          38.000  
G 9  22705929.112 2               2     -1685.582          14.000  
G16  21159495.004 6 111193883.318 6     -1800.807          38.000  
G18  24973983.680 6 131238473.252 6     -2560.190          36.000  
G21  22943529.270 4 120569086.337 4      3814.001          27.000  
G26  23192875.048 7 121879376.490 7     -2579.125          43.000  
G27  19888200.556 6 104513196.75726     -1080.152          36.000  
R 7  23291876.145 2               2      -199.458          15.000  
R14  24147023.940 6 128717103.710 6     -3092.426          38.000  
R15  20310293.508 6 108532006.816 6     -1421.209          39.000  
R16  19942564.487 5 106529556.309 5      1732.550          35.000  
R17  20230116.641 5 108255412.724 5     -2153.801          34.000  
R18  19394792.775 6 103530671.234 6      1805.566          40.000  
R19  21994969.628 4               4      4265.312          24.000  
E 4  25738291.218 5 135255617.591 5     -2357.588          34.000  
E14  21510156.369 5 113036596.122 5      2760.520          31.000  
E21  26625481.699 5 139917888.043 5     -1816.857          33.000  
E26  24802175.770 5 130336374.371 5      1109.118          34.000  
J 2  38952883.177 4 204698823.52324        20.379          29.000  
J 3  37187783.392 4 195423119.838 4        14.624          24.000  
J 4  37463914.869 4 196874262.773 4      -278.793          27.000  
> 2024 11 29  9  5 26.1990000  0 22                     
G 4  22800959.578 5 119819819.855 5     -2784.406          33.000  
G 8  20071385.700 6 105475843.739 6      1192.216          38.000  
G 9  22705993.102 2               2     -1685.582          14.000  
G16  21159563.636 6 111194243.441 6     -1800.455          38.000  
G18  24974080.930 6 131238985.276 6     -2560.323          36.000  
G21  22943382.758 4 120568323.556 4      3814.013          27.000  
G26  23192973.257 7 121879892.287 7     -2578.689          43.000  
G27  19888241.058 6 104513412.74926     -1079.721          36.000  
R 7  23291883.038 2               2      -199.458          14.000  
R14  24147140.037 6 128717722.149 6     -3092.751          38.000  
R15  20310346.609 6 108532290.979 6     -1420.863          39.000  
R16  19942499.695 5 106529209.641 5      1733.263          35.000  
R17  20230197.209 5 108255843.430 5     -2153.621          34.000  
R18  19394725.208 6 103530310.065 6      1805.711          40.000  
R19  21994808.353 3               3      4263.770          23.000  
E 4  25738380.947 5 135256089.109 5     -2357.247          34.000  
E14  21510048.997 5 113036043.926 5      2760.863          31.000  
E21  26625549.109 5 139918251.265 5     -1815.875          33.000  
E26  24802133.349 5 130336152.546 5      1109.582          34.000  
J 2  38952882.322 4 204698819.49724        20.209          29.000  
J 3  37187782.624 4 195423116.974 4        14.440          25.000  
J 4  37463929.021 4 196874318.517 4      -278.745          27.000  
> 2024 11 29  9  5 26.3990000  0 22                     
G 4  22801065.588 5 119820376.878 5     -2785.721          33.000  
G 8  20071340.225 6 105475605.284 6      1192.300          40.000  
G 9  22706057.895 2               2     -1685.582          15.000  
G16  21159632.250 6 111194603.609 6     -1801.172          38.000  
G18  24974178.163 6 131239497.332 6     -2560.635          36.000  
G21  22943238.986 5 120567560.746 5      3814.057          32.000  
G26  23193071.362 7 121880408.120 7     -2579.124          43.000  
G27  19888281.979 6 104513628.82026     -1080.212          36.000  
R 7  23291890.018 2               2      -199.458          13.000  
R14  24147256.063 6 128718340.627 6     -3092.833          38.000  
R15  20310399.780 6 108532575.196 6     -1421.310          39.000  
R16  19942434.867 5 106528862.996 5      1732.931          35.000  
R17  20230277.759 5 108256274.184 5     -2153.847          35.000  
R18  19394657.588 6 103529948.990 6      1805.148          41.000  
R19  21994648.370 4               4      4262.357          24.000  
E 4  25738470.571 5 135256560.686 5     -2357.645          35.000  
E14  21509945.238 5 113035491.805 5      2759.935          31.000  
E21  26625620.812 5 139918614.559 5     -1816.758          33.000  
E26  24802091.067 5 130335930.850 5      1108.349          34.000  
J 2  38952883.386 4 204698815.41624        20.538          29.000  
J 3  37187780.984 4 195423114.070 4        14.280          27.000  
J 4  37463943.802 4 196874374.252 4      -278.818          28.000  
> 2024 11 29  9  5 26.5990000  0 20                     
G 4  22801171.493 5 119820933.874 5     -2785.227          34.000  
G 8  20071294.802 6 105475366.845 6      1191.818          40.000  
G16  21159700.777 6 111194963.737 6     -1800.719          38.000  
G18  24974275.500 6 131240009.402 6     -2560.173          36.000  
G21  22943094.236 5 120566797.992 5      3814.297          32.000  
G26  23193169.363 7 121880923.931 7     -2579.022          43.000  
G27  19888323.021 6 104513844.86026     -1080.494          36.000  
R14  24147372.072 6 128718959.097 6     -3092.512          38.000  
R15  20310452.951 6 108532859.387 6     -1420.922          39.000  
R16  19942370.057 5 106528516.343 5      1732.944          35.000  
R17  20230358.152 5 108256704.939 5     -2153.798          35.000  
R18  19394589.934 6 103529587.903 6      1805.364          41.000  
R19  21994488.368 4               4      4263.590          24.000  
E 4  25738560.353 5 135257032.254 5     -2357.751          35.000  
E14  21509837.012 5 113034939.669 5      2760.280          32.000  
E21  26625689.392 5 139918977.775 5     -1815.905          33.000  
E26  24802048.628 5 130335709.043 5      1109.290          33.000  
J 2  38952882.758 4 204698811.36224        20.369          29.000  
J 3  37187783.235 4 195423111.170 4        14.476          28.000  
J 4  37463954.220 5 196874430.029 5      -278.096          32.000  
> 2024 11 29  9  5 26.7990000  0 20                     
G 4  22801277.643 6 119821490.873 6     -2784.573          36.000  
G 8  20071249.588 7 105475128.357 7      1192.494          43.000  
G16  21159769.252 6 111195323.890 6     -1800.883          38.000  
G18  24974372.802 6 131240521.455 6     -2560.532          37.000  
G21  22942948.021 5 120566035.256 5      3813.764          35.000  
G26  23193267.485 7 121881439.729 7     -2579.004          43.000  
G27  19888364.291 6 104514060.94826     -1080.315          36.000  
R14  24147488.099 6 128719577.532 6     -3092.354          37.000  
R15  20310506.000 6 108533143.590 6     -1421.021          39.000  
R16  19942305.055 6 106528169.656 6      1733.799          36.000  
R17  20230438.685 5 108257135.718 5     -2153.832          35.000  
R18  19394522.279 6 103529226.854 6      1805.077          41.000  
R19  21994328.245 4               4      4264.630          24.000  
E 4  25738650.064 6 135257503.783 6     -2357.642          37.000  
E14  21509734.475 5 113034387.549 5      2760.590          32.000  
E21  26625761.025 5 139919341.015 5     -1816.144          33.000  
E26  24802006.224 5 130335487.247 5      1108.815          30.000  
J 2  38952883.351 5 204698807.31225        20.433          30.000  
J 3  37187783.304 5 195423108.264 5        14.950          32.000  
J 4  37463967.726 5 196874485.814 5      -278.975          33.000  
> 2024 11 29  9  5 26.9990000  0 21                     
G 4  22801383.653 6 119822047.887 6     -2785.028          36.000  
G 8  20071204.183 7 105474889.910 7      1192.537          44.000  
G 9  22706250.475 2               2     -1685.000          17.000  
G16  21159837.761 6 111195684.028 6     -1800.562          39.000  
G18  24974470.209 6 131241033.533 6     -2560.266          37.000  
G21  22942806.238 6 120565272.543 6      3813.595          39.000  
G26  23193365.678 7 121881955.544 7     -2578.905          43.000  
G27  19888405.596 6 104514277.10426     -1080.716          36.000  
R14  24147604.160 5 128720195.964 5     -3092.468          35.000  
R15  20310559.188 6 108533427.786 6     -1420.897          40.000  
R16  19942240.123 6 106527822.998 6      1733.516          36.000  
R17  20230519.270 5 108257566.556 5     -2154.323          35.000  
R18  19394454.555 7 103528865.824 7      1805.181          42.000  
R19  21994169.291 4               4      4264.085          25.000  
E 4  25738739.950 6 135257975.370 6     -2357.755          39.000  
E14  21509622.549 5 113033835.486 5      2760.205          35.000  
E21  26625831.873 6 139919704.265 6     -1816.404          36.000  
E26  24801963.838 5 130335265.450 5      1108.448          30.000  
J 2  38952887.644 5 204698803.25725        21.029          34.000  
J 3  37187780.879 6 195423105.404 6        14.716          39.000  
J 4  37463980.953 6 196874541.618 6      -279.120          37.000  
> 2024 11 29  9  5 27.1990000  0 21                     
G 4  22801489.663 6 119822604.900 6     -2785.170          37.000  
G 8  20071158.812 7 105474651.522 7      1191.850          47.000  
G 9  22706315.722 4               4     -1686.194          27.000  
G16  21159906.079 7 111196044.218 7     -1800.975          42.000  
G18  24974567.529 6 131241545.643 6     -2560.433          39.000  
G21  22942665.205 7 120564509.847 7      3813.777          43.000  
G26  23193463.923 7 121882471.362 7     -2578.973          43.000  
G27  19888446.831 6 104514493.27626     -1081.371          36.000  
R14  24147720.117 5 128720814.298 5     -3091.368          35.000  
R15  20310612.376 6 108533712.021 6     -1421.278          41.000  
R16  19942175.225 6 106527476.343 6      1733.480          38.000  
R17  20230599.838 6 108257997.411 6     -2154.272          38.000  
R18  19394386.883 7 103528504.843 7      1804.684          43.000  
R19  21994011.367 5 117653095.40735      4263.567          31.000  
E 4  25738829.732 7 135258446.956 7     -2358.020          42.000  
E14  21509516.975 6 113033283.382 6      2760.737          37.000  
E21  26625901.063 6 139920067.510 6     -1816.347          38.000  
E26  24801921.695 6 130335043.741 6      1108.695          37.000  
J 2  38952894.886 6 204698799.23226        20.553          37.000  
J 3  37187777.685 7 195423102.597 7        14.042          44.000  
J 4  37463994.355 6 196874597.424 6      -278.992          39.000  
> 2024 11 29  9  5 27.3990000  0 21                     
G 4  22801595.691 6 119823161.957 6     -2785.439          37.000  
G 8  20071113.424 7 105474413.117 7      1192.322          45.000  
G 9  22706379.973 4               4     -1685.197          29.000  
G16  21159974.676 7 111196404.402 7     -1800.699          43.000  
G18  24974664.867 6 131242057.795 6     -2560.548          39.000  
G21  22942517.786 7 120563747.154 7      3813.609          42.000  
G26  23193561.871 6 121882987.108 6     -2578.304          39.000  
G27  19888488.083 6 104514709.34026     -1079.577          36.000  
R14  24147836.126 6 128721432.815 6     -3092.605          41.000  
R15  20310665.582 7 108533996.284 7     -1421.258          44.000  
R16  19942110.171 6 106527129.765 6      1732.769          40.000  
R17  20230680.510 6 108258428.326 6     -2154.330          37.000  
R18  19394319.455 7 103528143.901 7      1804.735          44.000  
R19  21993851.017 5 117652242.72525      4262.958          32.000  
E 4  25738919.653 7 135258918.553 7     -2358.173          42.000  
E14  21509412.082 6 113032731.350 6      2759.861          37.000  
E21  26625969.101 6 139920430.812 6     -1816.350          39.000  
E26  24801879.850 6 130334822.127 6      1108.127          40.000  
J 2  38952893.856 6 204698795.21626        20.241          37.000  
J 3  37187777.808 7 195423099.766 7        14.529          44.000  
J 4  37464003.412 6 196874653.205 6      -278.776          39.000  
> 2024 11 29  9  5 27.5990000  0 21                     
G 4  22801701.631 6 119823718.965 6     -2785.057          39.000  
G 8  20071068.053 7 105474174.703 7      1191.408          47.000  
G 9  22706444.051 4               4     -1684.982          29.000  
G16  21160043.203 7 111196764.513 7     -1800.541          43.000  
G18  24974762.169 6 131242569.899 6     -2561.067          38.000  
G21  22942374.170 6 120562984.416 6      3813.953          39.000  
G26  23193659.923 7 121883502.883 7     -2579.221          42.000  
G27  19888529.300 6 104514925.54926     -1081.485          40.000  
R14  24147952.135 7 128722051.313 7     -3092.559          43.000  
R15  20310718.805 7 108534280.513 7     -1421.211          44.000  
R16  19942045.239 6 106526782.973 6      1734.726          39.000  
R17  20230761.060 6 108258859.226 6     -2154.728          38.000  
R18  19394251.870 7 103527782.955 7      1804.635          45.000  
R19  21993690.667 5 117651389.99725      4264.286          33.000  
E 4  25739009.504 7 135259390.113 7     -2357.817          42.000  
E14  21509309.021 6 113032179.241 6      2760.315          40.000  
E21  26626040.577 6 139920794.038 6     -1816.115          39.000  
E26  24801837.795 7 130334600.411 7      1108.521          42.000  
J 2  38952892.129 6 204698791.13326        20.233          37.000  
J 3  37187774.649 7 195423096.870 7        14.333          45.000  
J 4  37464014.266 5 196874709.009 5      -278.665          34.000  
> 2024 11 29  9  5 27.7990000  0 21                     
G 4  22801807.606 6 119824276.023 6     -2784.669          38.000  
G 8  20071022.770 7 105473936.325 7      1191.904          47.000  
G 9  22706501.165 5               5     -1686.622          33.000  
G16  21160111.852 7 111197124.737 7     -1801.184          44.000  
G18  24974859.733 5 131243082.015 5     -2559.967          33.000  
G21  22942229.665 5 120562221.638 5      3814.172          35.000  
G26  23193758.186 6 121884018.780 6     -2579.127          41.000  
G27  19888570.343 6 104515141.69626     -1080.799          39.000  
R14  24148068.161 7 128722669.884 7     -3092.846          43.000  
R15  20310771.958 7 108534564.844 7     -1421.475          45.000  
R16  19941980.481 7 106526436.419 7      1733.943          44.000  
R17  20230841.611 6 108259290.272 6     -2154.760          38.000  
R18  19394184.356 7 103527422.068 7      1804.235          46.000  
R19  21993530.543 5 117650537.35325      4262.383          32.000  
E 4  25739099.303 7 135259861.758 7     -2357.988          42.000  
E14  21509201.109 6 113031627.184 6      2760.441          40.000  
E21  26626107.516 6 139921157.202 6     -1815.201          36.000  
E26  24801795.827 7 130334378.811 7      1107.896          42.000  
J 2  38952887.173 6 204698787.04226        20.024          39.000  
J 3  37187776.289 7 195423094.068 7        14.163          45.000  
J 4  37464026.708 5 196874764.567 5      -279.903          31.000  
> 2024 11 29  9  5 27.9990000  0 22                     
G 4  22801913.738 6 119824833.137 6     -2786.349          40.000  
G 8  20070977.592 7 105473698.080 7      1191.008          47.000  
G 9  22706560.060 4 119323842.28334     -1685.148          28.000  
G16  21160180.414 7 111197484.954 7     -1801.459          43.000  
G18  24974957.297 6 131243594.213 6     -2561.805          36.000  
G21  22942086.032 6 120561458.991 6      3811.134          38.000  
G26  23193856.308 7 121884534.664 7     -2580.966          44.000  
G27  19888611.369 6 104515357.91826     -1081.339          41.000  
G31  24225186.146 5               5     -3557.215          34.000  
R14  24148184.240 7 128723288.377 7     -3094.039          43.000  
R15  20310825.251 7 108534849.176 7     -1421.940          46.000  
R16  19941915.444 8 106526089.902 8      1732.281          48.000  
R17  20230922.161 6 108259721.276 6     -2155.062          40.000  
R18  19394116.806 7 103527061.249 7      1804.068          47.000  
R19  21993369.129 5 117649684.59925      4262.432          32.000  
E 4  25739188.962 6 135260333.364 6     -2358.341          41.000  
E14  21509100.351 7 113031075.132 7      2759.856          42.000  
E21  26626176.951 6 139921520.649 6     -1817.455          41.000  
E26  24801754.103 7 130334157.202 7      1107.979          42.000  
J 2  38952887.086 6 204698782.95426        20.036          40.000  
J 3  37187772.974 7 195423091.252 7        13.926          44.000  
J 4  37464037.527 6 196874820.460 6      -278.961          37.000  
> 2024 11 29  9  5 28.1990000  0 22                     
G 4  22802019.783 5 119825390.252 5     -2785.487          34.000  
G 8  20070932.308 7 105473459.809 7      1191.601          45.000  
G 9  22706623.230 4               4     -1684.749          25.000  
G16  21160248.993 6 111197845.174 6     -1800.883          41.000  
G18  24975054.792 5 131244106.459 5     -2560.253          33.000  
G21  22941941.806 5 120560696.107 5      3813.525          32.000  
G26  23193954.483 6 121885050.539 6     -2578.907          39.000  
G27  19888652.551 6 104515574.15826     -1081.558          40.000  
G31  24225322.939 5               5     -3559.668          33.000  
R14  24148300.267 6 128723906.885 6     -3091.172          40.000  
R15  20310878.475 7 108535133.548 7     -1422.069          42.000  
R16  19941850.424 7 106525743.404 7      1732.512          45.000  
R17  20231002.729 5 108260152.366 5     -2156.028          35.000  
R18  19394049.204 7 103526700.496 7      1804.021          43.000  
R19  21993208.098 4 117648831.98224      4262.767          28.000  
E 4  25739278.743 6 135260805.062 6     -2358.423          38.000  
E14  21508992.491 6 113030523.114 6      2760.508          40.000  
E21  26626246.280 5 139921883.961 5     -1815.688          35.000  
E26  24801712.048 6 130333935.589 6      1107.805          41.000  
J 2  38952887.749 6 204698778.87526        20.989          39.000  
J 3  37187772.206 6 195423088.387 6        14.554          40.000  
J 4  37464048.660 5 196874876.241 5      -279.271          33.000  
> 2024 11 29  9  5 28.3990000  0 23                     
G 4  22802125.863 5 119825947.338 5     -2785.680          34.000  
G 8  20070887.042 7 105473221.541 7      1191.314          45.000  
G 9  22706687.429 4               4     -1687.309          26.000  
G16  21160317.555 6 111198205.372 6     -1801.365          41.000  
G18  24975152.373 5 131244618.613 5     -2562.063          34.000  
G21  22941796.900 5 120559933.491 5      3813.942          34.000  
G26  23194052.641 6 121885566.363 6     -2579.194          39.000  
G27  19888693.490 7 104515790.33527     -1081.145          42.000  
G31  24225458.126 4               4     -3554.803          29.000  
R 7  23291965.507 2               2      -204.655          17.000  
R14  24148416.363 6 128724525.484 6     -3093.038          40.000  
R15  20310931.663 7 108535417.887 7     -1422.217          43.000  
R16  19941785.405 7 106525396.871 7      1732.634          46.000  
R17  20231083.366 5 108260583.409 5     -2155.360          35.000  
R18  19393981.549 7 103526339.688 7      1803.901          44.000  
R19  21993050.034 4 117647979.25324      4263.108          28.000  
E 4  25739368.542 6 135261276.684 6     -2358.134          38.000  
E14  21508891.856 6 113029971.083 6      2759.953          41.000  
E21  26626314.982 5 139922247.197 5     -1816.149          35.000  
E26  24801670.011 6 130333714.014 6      1107.937          41.000  
J 2  38952886.597 6 204698774.76726        20.910          40.000  
J 3  37187771.717 6 195423085.505 6        14.258          40.000  
J 4  37464058.467 5 196874931.861 5      -279.388          34.000  
> 2024 11 29  9  5 28.5990000  0 23                     
G 4  22802231.838 6 119826504.482 6     -2786.250          37.000  
G 8  20070841.811 7 105472983.290 7      1191.172          46.000  
G 9  22706748.068 4               4     -1686.039          25.000  
G16  21160386.152 7 111198565.577 7     -1801.284          42.000  
G18  24975249.676 6 131245130.836 6     -2561.576          36.000  
G21  22941652.098 5 120559170.771 5      3813.530          35.000  
G26  23194150.781 6 121886082.230 6     -2579.519          41.000  
G27  19888734.445 7 104516006.57927     -1081.358          45.000  
G31  24225596.261 5               5     -3557.037          33.000  
R 7  23291973.814 3               3      -204.655          18.000  
R14  24148532.459 6 128725143.997 6     -3093.069          40.000  
R15  20310984.834 7 108535702.236 7     -1421.724          43.000  
R16  19941720.438 7 106525050.354 7      1732.536          47.000  
R17  20231163.934 5 108261014.531 5     -2156.002          35.000  
R18  19393913.842 7 103525978.947 7      1803.672          45.000  
R19  21992891.412 4 117647126.61124      4263.036          28.000  
E 4  25739458.254 6 135261748.302 6     -2358.105          38.000  
E14  21508785.671 7 113029419.067 7      2760.106          44.000  
E21  26626383.858 5 139922610.535 5     -1816.569          35.000  
E26  24801627.834 7 130333492.460 7      1107.655          42.000  
J 2  38952885.445 7 204698770.68627        20.228          44.000  
J 3  37187773.672 7 195423082.694 7        14.036          44.000  
J 4  37464069.566 5 196874987.645 5      -278.600          33.000  
> 2024 11 29  9  5 28.7990000  0 23                     
G 4  22802337.848 6 119827061.656 6     -2786.147          37.000  
G 8  20070796.476 7 105472745.083 7      1190.645          46.000  
G 9  22706810.924 4 119325191.29224     -1687.660          26.000  
G16  21160454.696 6 111198925.847 6     -1801.730          41.000  
G18  24975347.083 5 131245643.098 5     -2561.827          33.000  
G21  22941504.923 6 120558408.104 6      3812.611          37.000  
G26  23194248.868 7 121886598.100 7     -2579.643          42.000  
G27  19888775.575 7 104516222.87927     -1081.883          46.000  
G31  24225729.878 6 127307078.66436     -3557.457          36.000  
R 7  23291982.487 3               3      -208.832          18.000  
R14  24148648.451 6 128725762.555 6     -3093.048          40.000  
R15  20311038.109 7 108535986.665 7     -1422.434          44.000  
R16  19941655.680 8 106524703.897 8      1731.837          48.000  
R17  20231244.449 6 108261445.686 6     -2156.040          37.000  
R18  19393846.310 7 103525618.266 7      1802.969          45.000  
R19  21992732.946 4 117646273.94924      4263.261          28.000  
E 4  25739548.000 6 135262220.009 6     -2358.759          38.000  
E14  21508682.331 7 113028867.108 7      2759.525          45.000  
E21  26626452.943 5 139922973.815 5     -1816.702          35.000  
E26  24801585.814 7 130333270.960 7      1107.041          42.000  
J 2  38952884.328 7 204698766.60127        20.028          44.000  
J 3  37187771.717 7 195423079.855 7        14.177          43.000  
J 4  37464080.367 5 196875043.478 5      -280.395          33.000  
> 2024 11 29  9  5 28.9990000  0 23                     
G 4  22802443.928 6 119827618.791 6     -2785.839          37.000  
G 8  20070751.280 7 105472506.912 7      1190.500          46.000  
G 9  22706874.111 5 119325428.48935     -1685.112          31.000  
G16  21160523.328 5 111199286.326 5     -1804.315          35.000  
G18  24975444.560 5 131246155.359 5     -2562.108          30.000  
G21  22941361.918 6 120557645.516 6      3812.883          39.000  
G26  23194347.061 7 121887113.940 7     -2579.280          42.000  
G27  19888816.531 7 104516439.22627     -1081.877          46.000  
G31  24225869.881 6 127307790.04326     -3557.019          36.000  
R 7  23291991.142 3               3      -195.296          19.000  
R14  24148764.512 6 128726381.174 6     -3093.154          40.000  
R15  20311091.175 7 108536271.118 7     -1422.569          42.000  
R16  19941590.765 8 106524357.475 8      1731.953          48.000  
R17  20231325.086 6 108261876.898 6     -2156.006          39.000  
R18  19393778.673 7 103525257.645 7      1802.651          45.000  
R19  21992574.062 4 117645421.42824      4262.445          28.000  
E 4  25739637.799 6 135262691.747 6     -2358.975          38.000  
E14  21508577.613 7 113028315.170 7      2759.671          45.000  
E21  26626522.413 5 139923337.040 5     -1815.779          35.000  
E26  24801543.706 7 130333049.481 7      1107.553          42.000  
J 2  38952883.665 7 204698762.54927        20.263          44.000  
J 3  37187773.096 7 195423077.085 7        13.763          43.000  
J 4  37464089.267 5 196875099.274 5      -279.046          33.000  
> 2024 11 29  9  5 29.1990000  0 23                     
G 4  22802550.060 6 119828176.004 6     -2785.917          37.000  
G 8  20070705.996 7 105472268.801 7      1190.845          47.000  
G 9  22706936.042 5 119325765.77525     -1685.302          30.000  
G16  21160591.698 6 111199646.665 6     -1800.732          36.000  
G18  24975541.914 6 131246667.663 6     -2561.369          37.000  
G21  22941215.319 5 120556882.776 5      3814.255          35.000  
G26  23194445.288 7 121887629.900 7     -2579.822          42.000  
G27  19888857.574 7 104516655.58227     -1081.671          47.000  
G31  24226005.434 5 127308501.45825     -3556.301          33.000  
R 7  23291998.052 3               3      -211.505          20.000  
R14  24148880.608 6 128726999.791 6     -3092.996          40.000  
R15  20311144.346 7 108536555.603 7     -1422.097          42.000  
R16  19941525.972 8 106524011.059 8      1732.236          48.000  
R17  20231405.514 6 108262308.081 6     -2155.682          39.000  
R18  19393710.984 7 103524897.049 7      1802.997          45.000  
R19  21992414.637 4 117644568.87224      4262.847          28.000  
E 4  25739727.580 6 135263163.456 6     -2358.435          38.000  
E14  21508474.517 7 113027763.220 7      2759.927          45.000  
E21  26626590.678 4 139923700.557 4     -1818.794          27.000  
E26  24801501.546 7 130332828.027 7      1107.143          42.000  
J 2  38952881.205 7 204698758.49127        20.661          44.000  
J 3  37187770.636 7 195423074.311 7        14.028          42.000  
J 4  37464098.638 5 196875155.043 5      -279.316          32.000  
> 2024 11 29  9  5 29.3990000  0 23                     
G 4  22802656.175 6 119828733.227 6     -2786.103          37.000  
G 8  20070660.783 7 105472030.668 7      1190.637          46.000  
G 9  22706998.933 5 119326103.00425     -1685.810          30.000  
G16  21160660.190 6 111200007.020 6     -1801.610          39.000  
G18  24975639.322 6 131247180.090 6     -2561.654          39.000  
G21  22941070.133 6 120556120.193 6      3812.393          37.000  
G26  23194543.480 7 121888145.837 7     -2579.298          42.000  
G27  19888898.547 8 104516871.98628     -1082.087          48.000  
G31  24226143.902 5 127309213.01925     -3557.977          33.000  
R 7  23292005.748 3               3      -211.505          20.000  
R14  24148996.652 6 128727618.420 6     -3093.023          40.000  
R15  20311197.656 6 108536840.123 6     -1422.521          41.000  
R16  19941461.127 8 106523664.673 8      1731.965          48.000  
R17  20231486.169 6 108262739.322 6     -2155.909          37.000  
R18  19393643.521 7 103524536.502 7      1802.754          45.000  
R19  21992254.112 4 117643716.29124      4262.656          27.000  
E 4  25739817.431 6 135263635.192 6     -2358.553          38.000  
E14  21508367.651 7 113027211.342 7      2759.201          45.000  
E21  26626656.867 5 139924063.863 5     -1815.701          32.000  
E26  24801459.282 7 130332606.589 7      1107.222          42.000  
J 2  38952880.943 7 204698754.44627        20.183          44.000  
J 3  37187769.257 6 195423071.553 6        13.442          41.000  
J 4  37464109.195 5 196875210.758 5      -278.920          32.000  
> 2024 11 29  9  5 29.5990000  0 23                     
G 4  22802762.307 6 119829290.471 6     -2785.986          36.000  
G 8  20070615.534 7 105471792.609 7      1190.307          46.000  
G 9  22707064.039 4 119326440.34424     -1686.881          29.000  
G16  21160728.612 6 111200367.345 6     -1801.936          39.000  
G18  24975736.851 6 131247692.526 6     -2561.942          36.000  
G21  22940924.598 6 120555357.630 6      3812.537          39.000  
G26  23194641.620 7 121888661.826 7     -2580.043          42.000  
G27  19888939.573 8 104517088.43628     -1082.515          48.000  
G31  24226274.708 5 127309924.45225     -3557.686          33.000  
R 7  23292013.775 3               3      -211.505          19.000  
R14  24149112.679 6 128728237.092 6     -3093.431          40.000  
R15  20311250.914 6 108537124.656 6     -1422.892          41.000  
R16  19941396.195 8 106523318.301 8      1731.734          48.000  
R17  20231566.754 6 108263170.636 6     -2157.100          37.000  
R18  19393575.971 7 103524176.007 7      1802.367          45.000  
R19  21992094.635 4 117642863.81824      4262.312          27.000  
E 4  25739907.370 6 135264106.990 6     -2359.368          38.000  
E14  21508262.933 7 113026659.468 7      2759.225          46.000  
E21  26626725.516 5 139924427.266 5     -1816.847          32.000  
E26  24801417.297 6 130332385.200 6      1107.104          41.000  
J 2  38952881.728 7 204698750.40027        20.091          44.000  
J 3  37187768.681 6 195423068.787 6        13.575          41.000  
J 4  37464117.711 5 196875266.638 5      -279.580          32.000  
> 2024 11 29  9  5 29.7990000  0 23                     
G 4  22802868.352 6 119829847.764 6     -2786.520          36.000  
G 8  20070570.251 7 105471554.578 7      1190.105          46.000  
G 9  22707130.123 4 119326777.74324     -1687.507          29.000  
G16  21160797.087 6 111200727.690 6     -1801.767          39.000  
G18  24975834.293 5 131248204.901 5     -2562.377          33.000  
G21  22940779.116 6 120554595.066 6      3813.151          36.000  
G26  23194739.725 7 121889177.835 7     -2579.949          43.000  
G27  19888980.581 8 104517304.92928     -1082.558          48.000  
G31  24226407.103 5 127310635.93425     -3557.491          33.000  
R 7  23292021.802 3               3      -211.505          20.000  
R14  24149228.775 6 128728855.801 6     -3093.644          40.000  
R15  20311304.085 6 108537409.221 6     -1422.871          41.000  
R16  19941331.315 8 106522971.968 8      1731.663          48.000  
R17  20231647.392 6 108263602.042 6     -2156.951          37.000  
R18  19393508.474 7 103523815.572 7      1801.960          45.000  
R19  21991935.088 4 117642011.36424      4261.920          28.000  
E 4  25739997.221 6 135264578.777 6     -2358.751          38.000  
E14  21508156.207 7 113026107.655 7      2758.933          46.000  
E21  26626792.717 5 139924790.628 5     -1816.193          32.000  
E26  24801375.172 6 130332163.872 6      1106.398          41.000  
J 2  38952881.048 7 204698746.40627        20.053          45.000  
J 3  37187768.960 6 195423066.052 6        13.667          41.000  
J 4  37464127.622 5 196875322.483 5      -278.985          32.000  
> 2024 11 29  9  5 29.9990000  0 23                     
G 4  22802974.415 6 119830405.058 6     -2786.336          36.000  
G 8  20070525.038 7 105471316.582 7      1190.184          46.000  
G 9  22707191.915 4 119327115.21824     -1687.409          29.000  
G16  21160865.597 6 111201088.075 6     -1801.997          39.000  
G18  24975931.630 5 131248717.298 5     -2562.184          34.000  
G21  22940634.628 5 120553832.476 5      3813.390          34.000  
G26  23194837.900 7 121889693.848 7     -2579.764          44.000  
G27  19889021.589 8 104517521.43928     -1082.438          49.000  
G31  24226540.842 6 127311347.43026     -3557.522          36.000  
R 7  23292029.724 3               3      -205.024          21.000  
R14  24149344.889 6 128729474.514 6     -3093.554          40.000  
R15  20311357.308 6 108537693.814 6     -1422.814          41.000  
R16  19941266.470 8 106522625.644 8      1731.703          48.000  
R17  20231727.837 6 108264033.469 6     -2157.364          39.000  
R18  19393440.906 7 103523455.170 7      1802.110          45.000  
R19  21991777.338 4 117641158.86124      4262.625          28.000  
E 4  25740086.933 6 135265050.635 6     -2359.435          40.000  
E14  21508051.105 7 113025555.842 7      2759.081          46.000  
E21  26626858.975 5 139925154.082 5     -1816.792          35.000  
E26  24801333.222 7 130331942.540 7      1106.777          43.000  
J 2  38952879.181 7 204698742.39927        20.136          46.000  
J 3  37187768.245 7 195423063.343 7        13.823          43.000  
J 4  37464140.466 5 196875378.355 5      -279.677          32.000  
> 2024 11 29  9  5 30.1990000  0 23                     
G 4  22803080.477 6 119830962.348 6     -2786.686          36.000  
G 8  20070479.737 7 105471078.595 7      1189.547          46.000  
G 9  22707255.678 4 119327452.57824     -1686.614          29.000  
G16  21160934.106 6 111201448.446 6     -1802.081          39.000  
G18  24976029.107 5 131249229.741 5     -2562.104          34.000  
G21  22940489.355 5 120553069.918 5      3812.340          34.000  
G26  23194936.197 7 121890209.861 7     -2580.289          44.000  
G27  19889062.527 8 104517737.45918     -1082.694          49.000  
G31  24226673.586 5 127312058.96125     -3558.408          35.000  
R 7  23292037.664 3               3      -204.300          21.000  
R14  24149461.055 6 128730093.201 6     -3093.806          40.000  
R15  20311410.514 7 108537978.416 7     -1423.208          42.000  
R16  19941201.660 8 106522279.320 8      1731.410          48.000  
R17  20231808.423 6 108264464.878 6     -2157.310          41.000  
R18  19393373.304 7 103523094.795 7      1801.540          45.000  
R19  21991620.547 4 117640306.40124      4261.810          28.000  
E 4  25740176.714 6 135265522.444 6     -2359.462          40.000  
E14  21507946.595 7 113025004.026 7      2758.866          47.000  
E21  26626928.689 5 139925517.508 5     -1817.361          35.000  
E26  24801291.271 7 130331721.220 7      1106.514          43.000  
J 2  38952878.901 7               7        20.021          46.000  
J 3  37187767.652 7 195423060.606 7        13.398          43.000  
J 4  37464148.493 5 196875434.203 5      -279.240          32.000  
> 2024 11 29  9  5 30.3990000  0 23                     
G 4  22803186.505 6 119831519.714 6     -2787.215          36.000  
G 8  20070434.471 7 105470840.658 7      1189.573          46.000  
G 9  22707320.593 4 119327790.02424     -1687.497          28.000  
G16  21161002.720 6 111201808.897 6     -1802.491          39.000  
G18  24976126.514 5 131249742.248 5     -2563.067          34.000  
G21  22940344.972 5 120552307.428 5      3812.304          34.000  
G26  23195034.355 7 121890725.893 7     -2580.344          43.000  
G27  19889103.657 8 104517954.050 8     -1083.140          48.000  
G31  24226810.448 5 127312770.49425     -3557.995          34.000  
R 7  23292045.482 3               3      -204.712          22.000  
R14  24149577.186 6 128730711.945 6     -3093.942          40.000  
R15  20311463.860 7 108538263.075 7     -1423.636          42.000  
R16  19941136.798 8 106521933.051 8      1731.110          48.000  
R17  20231889.043 6 108264896.381 6     -2157.699          41.000  
R18  19393305.842 7 103522734.491 7      1801.167          45.000  
R19  21991462.623 4 117639454.01824      4262.004          28.000  
E 4  25740266.583 6 135265994.303 6     -2359.430          39.000  
E14  21507842.609 7 113024452.266 7      2758.586          46.000  
E21  26627000.758 5 139925880.938 5     -1817.355          35.000  
E26  24801249.146 7 130331499.963 7      1106.125          42.000  
J 2  38952877.750 7 204698755.39217        19.597          45.000  
J 3  37187766.605 7 195423057.919 7        13.332          42.000  
J 4  37464159.888 5 196875490.035 5      -279.474          32.000  
> 2024 11 29  9  5 30.5990000  0 23                     
G 4  22803292.637 6 119832077.030 6     -2787.165          36.000  
G 8  20070389.066 7 105470602.730 7      1189.329          46.000  
G 9  22707384.740 4 119328127.47124     -1687.406          28.000  
G16  21161071.213 6 111202169.326 6     -1802.153          39.000  
G18  24976223.939 5 131250254.753 5     -2562.916          34.000  
G21  22940200.275 5 120551544.909 5      3812.804          34.000  
G26  23195132.687 7 121891241.916 7     -2580.116          43.000  
G27  19889144.822 8 104518170.625 8     -1083.112          48.000  
G31  24226944.762 5 127313482.01225     -3557.327          34.000  
R 7  23292053.003 3               3      -206.229          22.000  
R14  24149693.108 6 128731330.659 6     -3093.713          40.000  
R15  20311517.152 7 108538547.719 7     -1423.396          42.000  
R16  19941071.953 8 106521586.768 8      1731.246          48.000  
R17  20231969.593 6 108265327.888 6     -2157.458          41.000  
R18  19393238.257 7 103522374.200 7      1801.150          45.000  
R19  21991304.105 4 117638601.59324      4262.289          28.000  
E 4  25740356.207 6 135266466.149 6     -2358.974          39.000  
E14  21507737.454 7 113023900.505 7      2758.657          46.000  
E21  26627068.849 5 139926244.367 5     -1816.870          35.000  
E26  24801207.179 7 130331278.686 7      1106.407          42.000  
J 2  38952878.448 7 204698751.356 7        19.858          45.000  
J 3  37187767.076 7 195423055.207 7        13.498          42.000  
J 4  37464173.133 5 196875545.877 5      -279.423          32.000  
> 2024 11 29  9  5 30.7990000  0 23                     
G 4  22803398.769 6 119832634.342 6     -2786.161          36.000  
G 8  20070343.904 7 105470364.821 7      1189.643          46.000  
G 9  22707449.846 4 119328464.96224     -1687.565          28.000  
G16  21161139.740 6 111202529.771 6     -1801.946          39.000  
G18  24976321.346 5 131250767.263 5     -2562.677          34.000  
G21  22940054.845 5 120550782.417 5      3812.051          34.000  
G26  23195230.914 7 121891757.949 7     -2580.053          43.000  
G27  19889185.917 8 104518387.229 8     -1082.771          48.000  
G31  24227082.531 5 127314193.58925     -3557.419          34.000  
R 7  23292060.733 3               3      -204.408          22.000  
R14  24149809.222 6 128731949.402 6     -3093.384          40.000  
R15  20311570.376 7 108538832.382 7     -1423.210          42.000  
R16  19941007.125 8 106521240.488 8      1731.551          48.000  
R17  20232050.230 6 108265759.449 6     -2157.925          41.000  
R18  19393170.690 7 103522013.937 7      1801.424          45.000  
R19  21991146.669 4 117637749.19424      4262.028          28.000  
E 4  25740446.058 6 135266938.029 6     -2359.162          39.000  
E14  21507631.898 7 113023348.738 7      2758.843          46.000  
E21  26627139.400 5 139926607.806 5     -1816.947          35.000  
E26  24801165.019 7 130331057.437 7      1106.286          42.000  
J 2  38952877.069 7 204698747.334 7        20.408          46.000  
J 3  37187768.960 7 195423052.512 7        13.464          42.000  
J 4  37464183.271 5 196875601.707 5      -279.250          32.000  
> 2024 11 29  9  5 30.9990000  0 23                     
G 4  22803504.901 6 119833191.745 6     -2786.798          36.000  
G 8  20070298.761 7 105470126.964 7      1189.283          46.000  
G 9  22707513.993 4 119328802.41424     -1687.410          28.000  
G16  21161208.162 6 111202890.274 6     -1802.555          39.000  
G18  24976418.823 5 131251279.821 5     -2562.760          34.000  
G21  22939909.502 5 120550019.928 5      3812.283          34.000  
G26  23195329.019 7 121892274.007 7     -2580.341          43.000  
G27  19889226.943 8 104518603.879 8     -1083.207          48.000  
G31  24227219.603 5 127314905.18225     -3557.875          34.000  
R 7  23292067.085 3               3      -205.470          22.000  
R14  24149925.196 6 128732568.186 6     -3094.052          40.000  
R15  20311623.651 7 108539117.101 7     -1423.861          42.000  
R16  19940942.315 8 106520894.263 8      1731.090          48.000  
R17  20232130.850 6 108266191.041 6     -2157.772          40.000  
R18  19393103.158 7 103521653.745 7      1800.875          45.000  
R19  21990984.312 4 117636896.81924      4261.851          28.000  
E 4  25740535.804 6 135267409.935 6     -2359.672          39.000  
E14  21507528.191 7 113022797.037 7      2758.416          46.000  
E21  26627208.485 5 139926971.226 5     -1816.950          34.000  
E26  24801123.138 7 130330836.233 7      1106.008          42.000  
J 2  38952876.912 7 204698743.340 7        20.176          46.000  
J 3  37187767.285 7 195423049.830 7        13.469          42.000  
J 4  37464194.335 5 196875657.593 5      -279.324          32.000  
> 2024 11 29  9  5 31.1990000  0 23                     
G 4  22803610.946 6 119833749.140 6     -2786.732          36.000  
G 8  20070253.582 7 105469889.120 7      1189.252          46.000  
G 9  22707575.802 4 119329140.04624     -1688.614          28.000  
G16  21161276.846 6 111203250.767 6     -1802.521          38.000  
G18  24976516.335 5 131251792.390 5     -2562.981          34.000  
G21  22939764.996 5 120549257.460 5      3812.473          34.000  
G26  23195427.229 7 121892790.078 7     -2580.260          43.000  
G27  19889267.986 8 104518820.558 8     -1083.425          48.000  
G31  24227355.104 5 127315616.77625     -3558.340          34.000  
R 7  23292075.042 3               3      -210.038          22.000  
R14  24150041.397 6 128733186.959 6     -3094.037          40.000  
R15  20311676.857 7 108539401.810 7     -1423.449          42.000  
R16  19940877.470 8 106520548.041 8      1731.078          48.000  
R17  20232211.470 6 108266622.691 6     -2158.624          40.000  
R18  19393035.678 7 103521293.585 7      1800.768          45.000  
R19  21990830.192 4 117636044.50224      4261.315          28.000  
E 4  25740625.691 6 135267881.838 6     -2359.417          39.000  
E14  21507422.373 7 113022245.359 7      2758.319          46.000  
E21  26627277.641 5 139927334.724 5     -1817.053          34.000  
E26  24801081.206 7 130330615.046 7      1105.910          42.000  
J 2  38952876.284 7 204698739.34727        19.945          46.000  
J 3  37187765.767 7 195423047.165 7        13.519          42.000  
J 4  37464205.101 5 196875713.449 5      -279.636          32.000  
> 2024 11 29  9  5 31.3990000  0 23                     
G 4  22803717.009 6 119834306.542 6     -2787.009          36.000  
G 8  20070208.264 7 105469651.313 7      1189.001          46.000  
G 9  22707638.501 4 119329477.57224     -1687.691          28.000  
G16  21161345.286 6 111203611.278 6     -1802.776          38.000  
G18  24976613.742 5 131252304.995 5     -2563.004          33.000  
G21  22939620.456 5 120548495.008 5      3812.548          33.000  
G26  23195525.509 7 121893306.167 7     -2580.635          43.000  
G27  19889309.011 8 104519037.260 8     -1083.576          48.000  
G31  24227490.570 5 127316328.37025     -3558.091          34.000  
R 7  23292081.691 3               3      -215.833          22.000  
R14  24150157.528 6 128733805.761 6     -3093.953          40.000  
R15  20311730.045 7 108539686.576 7     -1423.810          42.000  
R16  19940812.642 8 106520201.841 8      1730.912          48.000  
R17  20232292.038 6 108267054.349 6     -2158.295          40.000  
R18  19392968.232 7 103520933.477 7      1800.511          44.000  
R19  21990667.888 4 117635192.21224      4261.518          28.000  
E 4  25740715.577 6 135268353.769 6     -2359.788          39.000  
E14  21507317.637 7 113021693.683 7      2758.198          46.000  
E21  26627347.110 5 139927698.210 5     -1817.364          34.000  
E26  24801039.081 7 130330393.889 7      1105.662          42.000  
J 2  38952875.411 7 204698735.37127        19.778          45.000  
J 3  37187764.563 7 195423044.520 7        13.270          42.000  
J 4  37464213.233 5 196875769.349 5      -279.626          31.000  
> 2024 11 29  9  5 31.5990000  0 23                     
G 4  22803823.124 6 119834863.957 6     -2786.628          36.000  
G 8  20070163.015 7 105469413.529 7      1188.659          45.000  
G 9  22707703.293 4 119329815.13024     -1687.750          28.000  
G16  21161413.743 6 111203971.780 6     -1802.795          38.000  
G18  24976711.131 5 131252817.622 5     -2562.937          33.000  
G21  22939474.852 5 120547732.576 5      3811.719          33.000  
G26  23195623.823 7 121893822.255 7     -2580.630          43.000  
G27  19889350.141 8 104519253.984 8     -1083.674          48.000  
G31  24227624.396 5 127317039.98025     -3558.441          34.000  
R 7  23292088.689 3               3      -215.833          22.000  
R14  24150273.590 6 128734424.579 6     -3094.512          40.000  
R15  20311783.198 7 108539971.347 7     -1424.323          42.000  
R16  19940747.867 8 106519855.647 8      1730.756          48.000  
R17  20232372.710 6 108267486.065 6     -2158.866          40.000  
R18  19392900.822 7 103520573.394 7      1800.209          44.000  
R19  21990505.653 4 117634339.87024      4261.513          28.000  
E 4  25740805.498 6 135268825.720 6     -2359.636          39.000  
E14  21507212.482 7 113021142.025 7      2758.251          46.000  
E21  26627415.777 5 139928061.669 5     -1817.521          33.000  
E26  24800997.096 7 130330172.748 7      1105.594          42.000  
J 2  38952875.464 7 204698731.35827        19.862          45.000  
J 3  37187764.598 7 195423041.863 7        13.124          42.000  
J 4  37464224.017 5 196875825.216 5      -279.412          31.000  
> 2024 11 29  9  5 31.7990000  0 23                     
G 4  22803929.221 6 119835421.380 6     -2787.094          36.000  
G 8  20070117.907 7 105469175.704 7      1189.202          45.000  
G 9  22707767.458 4 119330152.71824     -1687.836          28.000  
G16  21161482.340 6 111204332.247 6     -1802.025          38.000  
G18  24976808.643 5 131253330.201 5     -2563.030          34.000  
G21  22939329.718 5 120546970.050 5      3812.580          33.000  
G26  23195722.068 7 121894338.292 7     -2580.028          43.000  
G27  19889391.341 8 104519470.675 8     -1083.424          48.000  
G31  24227761.223 5 127317751.52525     -3557.448          34.000  
R 7  23292096.053 3               3      -200.637          21.000  
R14  24150389.651 6 128735043.297 6     -3093.441          40.000  
R15  20311836.491 7 108540256.051 7     -1423.284          42.000  
R16  19940682.987 8 106519509.407 8      1731.249          48.000  
R17  20232453.435 6 108267917.741 6     -2158.363          40.000  
R18  19392833.377 7 103520213.294 7      1800.554          45.000  
R19  21990345.774 4 117633487.49524      4261.969          28.000  
E 4  25740895.244 6 135269297.602 6     -2359.290          39.000  
E14  21507107.868 7 113020590.346 7      2758.565          46.000  
E21  26627482.593 5 139928425.078 5     -1816.612          33.000  
E26  24800955.198 7 130329951.566 7      1105.959          42.000  
J 2  38952874.033 7 204698727.30927        20.537          45.000  
J 3  37187763.778 7 195423039.160 7        13.809          42.000  
J 4  37464234.296 5 196875881.024 5      -278.631          31.000  
> 2024 11 29  9  5 31.9990000  0 23                     
G 4  22804035.405 6 119835978.751 6     -2787.108          36.000  
G 8  20070072.728 7 105468937.919 7      1189.096          45.000  
G 9  22707836.473 4 119330490.24424     -1687.402          28.000  
G16  21161550.919 6 111204692.747 6     -1802.688          38.000  
G18  24976906.120 5 131253842.787 5     -2562.418          34.000  
G21  22939184.271 5 120546207.558 5      3813.253          33.000  
G26  23195820.260 7 121894854.343 7     -2580.002          43.000  
G27  19889432.454 8 104519687.393 8     -1083.527          48.000  
G31  24227897.736 5 127318463.13525     -3558.276          34.000  
R 7  23292103.364 3               3      -200.207          21.000  
R14  24150505.643 6 128735662.082 6     -3093.501          40.000  
R15  20311889.732 7 108540540.816 7     -1423.428          42.000  
R16  19940618.125 8 106519163.188 8      1731.291          48.000  
R17  20232534.037 6 108268349.466 6     -2158.515          40.000  
R18  19392765.950 7 103519853.236 7      1800.311          45.000  
R19  21990188.600 4 117632635.14724      4261.946          28.000  
E 4  25740985.130 6 135269769.513 6     -2359.361          39.000  
E14  21507002.573 7 113020038.679 7      2758.429          46.000  
E21  26627556.774 5 139928788.519 5     -1816.782          33.000  
E26  24800913.125 7 130329730.415 7      1105.925          42.000  
J 2  38952873.440 7 204698723.26027        20.546          45.000  
J 3  37187763.394 7 195423036.475 7        13.461          42.000  
J 4  37464247.418 5 196875936.926 5      -279.166          31.000  
> 2024 11 29  9  5 32.1990000  0 23                     
G 4  22804141.590 6 119836536.182 6     -2786.886          36.000  
G 8  20070027.462 7 105468700.145 7      1188.941          45.000  
G 9  22707898.596 4 119330827.85724     -1688.304          28.000  
G16  21161619.411 6 111205053.226 6     -1802.468          38.000  
G18  24977003.615 5 131254355.399 5     -2561.858          34.000  
G21  22939038.526 5 120545445.111 5      3812.270          33.000  
G26  23195918.418 7 121895370.413 7     -2580.329          43.000  
G27  19889473.724 8 104519904.148 8     -1083.729          48.000  
G31  24228035.191 5 127319174.71325     -3558.286          34.000  
R 7  23292110.274 3               3      -206.652          22.000  
R14  24150621.739 6 128736280.868 6     -3093.883          40.000  
R15  20311942.973 7 108540825.599 7     -1424.081          42.000  
R16  19940553.315 8 106518816.994 8      1731.012          48.000  
R17  20232614.710 6 108268781.216 6     -2158.679          40.000  
R18  19392698.504 7 103519493.217 7      1800.160          45.000  
R19  21990026.697 4 117631782.86224      4261.676          27.000  
E 4  25741075.086 6 135270241.447 6     -2359.819          39.000  
E14  21506897.261 7 113019487.024 7      2758.345          46.000  
E21  26627620.869 5 139929151.994 5     -1817.454          33.000  
E26  24800871.053 7 130329509.299 7      1105.595          42.000  
J 2  38952871.869 7 204698719.22027        20.249          45.000  
J 3  37187763.080 7 195423033.773 7        13.718          42.000  
J 4  37464256.859 5 196875992.711 5      -279.327          31.000  
> 2024 11 29  9  5 32.3990000  0 23                     
G 4  22804247.722 6 119837093.559 6     -2786.931          36.000  
G 8  20069982.126 7 105468462.361 7      1188.941          45.000  
G 9  22707962.848 4 119331165.44824     -1688.006          28.000  
G16  21161687.973 6 111205413.677 6     -1801.945          38.000  
G18  24977101.109 5 131254868.048 5     -2563.196          34.000  
G21  22938893.166 5 120544682.585 5      3812.677          33.000  
G26  23196016.575 7 121895886.432 7     -2580.128          43.000  
G27  19889514.836 8 104520120.867 8     -1083.468          48.000  
G31  24228169.488 5 127319886.23525     -3558.284          34.000  
R 7  23292117.377 3               3      -204.745          22.000  
R14  24150737.783 6 128736899.607 6     -3093.531          40.000  
R15  20311996.161 7 108541110.338 7     -1423.879          42.000  
R16  19940488.452 8 106518470.749 8      1731.164          48.000  
R17  20232695.295 6 108269212.957 6     -2158.704          40.000  
R18  19392631.007 7 103519133.184 7      1799.877          45.000  
R19  21989867.516 4 117630930.55624      4261.286          27.000  
E 4  25741164.972 6 135270713.330 6     -2359.465          39.000  
E14  21506791.740 7 113018935.336 7      2758.460          46.000  
E21  26627691.106 5 139929515.358 5     -1816.812          33.000  
E26  24800828.928 7 130329288.140 7      1105.748          42.000  
J 2  38952871.171 7 204698715.13327        20.444          45.000  
J 3  37187762.294 7 195423031.056 7        13.794          42.000  
J 4  37464266.962 5 196876048.488 5      -278.890          31.000  
> 2024 11 29  9  5 32.5990000  0 23                     
G 4  22804353.802 6 119837650.936 6     -2786.603          36.000  
G 8  20069936.983 7 105468224.580 7      1188.864          45.000  
G 9  22708030.084 4 119331503.04724     -1687.896          28.000  
G16  21161756.343 6 111205774.149 6     -1802.379          38.000  
G18  24977198.481 5 131255380.686 5     -2563.711          34.000  
G21  22938748.277 5 120543920.049 5      3812.267          33.000  
G26  23196114.680 7 121896402.455 7     -2579.924          43.000  
G27  19889556.176 8 104520337.598 8     -1083.469          48.000  
G31  24228304.413 5 127320597.75525     -3557.266          34.000  
R 7  23292124.723 3               3      -203.757          22.000  
R14  24150853.914 6 128737518.350 6     -3093.541          40.000  
R15  20312049.471 7 108541395.074 7     -1423.435          42.000  
R16  19940423.415 8 106518124.518 8      1731.212          48.000  
R17  20232775.950 6 108269644.710 6     -2158.611          40.000  
R18  19392563.544 7 103518773.163 7      1800.050          45.000  
R19  21989709.051 4 117630078.15524      4262.040          27.000  
E 4  25741254.841 6 135271185.224 6     -2359.285          39.000  
E14  21506687.056 7 113018383.652 7      2758.452          46.000  
E21  26627764.990 5 139929878.776 5     -1817.330          33.000  
E26  24800786.855 7 130329066.997 7      1105.788          42.000  
J 2  38952870.316 7 204698711.01627        20.813          45.000  
J 3  37187762.608 7 195423028.330 7        13.771          42.000  
J 4  37464277.729 5 196876104.275 5      -279.060          31.000  
> 2024 11 29  9  5 32.7990000  0 23                     
G 4  22804459.830 6 119838208.292 6     -2786.926          36.000  
G 8  20069891.734 7 105467986.806 7      1189.030          45.000  
G 9  22708093.079 4 119331840.60024     -1687.900          28.000  
G16  21161824.922 6 111206134.592 6     -1802.179          38.000  
G18  24977295.941 5 131255893.289 5     -2562.647          34.000  
G21  22938603.894 5 120543157.490 5      3813.625          34.000  
G26  23196212.855 7 121896918.453 7     -2580.017          43.000  
G27  19889597.358 8 104520554.326 8     -1083.469          48.000  
G31  24228439.792 5 127321309.30125     -3557.217          33.000  
R 7  23292131.825 3               3      -203.757          21.000  
R14  24150969.958 6 128738137.066 6     -3093.488          40.000  
R15  20312102.782 7 108541679.824 7     -1423.329          42.000  
R16  19940358.570 8 106517778.269 8      1731.305          48.000  
R17  20232856.657 6 108270076.475 6     -2158.739          40.000  
R18  19392496.187 7 103518413.156 7      1800.156          45.000  
R19  21989550.131 4 117629225.82724      4261.628          27.000  
E 4  25741344.692 6 135271657.102 6     -2359.423          39.000  
E14  21506582.128 7 113017831.942 7      2758.793          46.000  
E21  26627834.477 5 139930242.128 5     -1817.001          33.000  
E26  24800744.888 7 130328845.843 7      1106.069          42.000  
J 2  38952869.862 7 204698706.88027        20.848          45.000  
J 3  37187762.172 7 195423025.560 7        14.091          42.000  
J 4  37464287.955 5 196876160.001 5      -278.864          31.000  
> 2024 11 29  9  5 32.9990000  0 23                     
G 4  22804565.910 6 119838765.609 6     -2787.101          37.000  
G 8  20069846.486 7 105467748.978 7      1189.190          45.000  
G 9  22708155.743 4 119332178.13324     -1687.864          28.000  
G16  21161893.310 6 111206494.973 6     -1801.208          38.000  
G18  24977393.383 6 131256405.848 6     -2562.915          36.000  
G21  22938459.371 5 120542394.890 5      3813.548          34.000  
G26  23196311.100 7 121897434.392 7     -2579.392          43.000  
G27  19889638.663 8 104520771.023 8     -1083.434          48.000  
G31  24228574.839 5 127322020.75925     -3556.857          34.000  
R 7  23292138.579 3               3      -212.646          22.000  
R14  24151086.054 6 128738755.732 6     -3093.021          40.000  
R15  20312156.162 7 108541964.535 7     -1423.547          42.000  
R16  19940293.621 8 106517431.970 8      1731.536          48.000  
R17  20232937.260 6 108270508.196 6     -2158.595          40.000  
R18  19392428.759 7 103518053.143 7      1800.167          44.000  
R19  21989391.753 4 117628373.38224      4262.438          27.000  
E 4  25741434.473 6 135272128.915 6     -2358.858          39.000  
E14  21506477.601 7 113017280.204 7      2758.794          46.000  
E21  26627906.040 5 139930605.413 5     -1816.163          33.000  
E26  24800703.007 7 130328624.649 7      1105.994          42.000  
J 2  38952868.047 7 204698702.69327        21.115          45.000  
J 3  37187761.247 7 195423022.736 7        14.376          42.000  
J 4  37464298.617 5 196876215.685 5      -278.316          31.000  
> 2024 11 29  9  5 33.1990000  0 23                     
G 4  22804671.989 6 119839322.912 6     -2786.317          37.000  
G 8  20069801.115 7 105467511.176 7      1189.064          45.000  
G 9  22708221.111 4 119332515.61324     -1687.300          28.000  
G16  21161961.819 6 111206855.375 6     -1801.687          38.000  
G18  24977490.825 6 131256918.377 6     -2563.088          36.000  
G21  22938314.185 5 120541632.284 5      3812.462          34.000  
G26  23196409.258 7 121897950.307 7     -2579.739          43.000  
G27  19889679.724 8 104520987.705 8     -1083.491          48.000  
G31  24228710.323 5 127322732.28625     -3557.947          33.000  
R 7  23292145.908 3               3      -202.922          22.000  
R14  24151202.220 6 128739374.384 6     -3093.262          40.000  
R15  20312209.350 7 108542249.221 7     -1423.363          42.000  
R16  19940228.776 8 106517085.656 8      1731.587          48.000  
R17  20233018.072 6 108270939.937 6     -2158.692          40.000  
R18  19392361.227 7 103517693.126 7      1800.025          44.000  
R19  21989233.427 4 117627521.02524      4261.308          27.000  
E 4  25741524.098 6 135272600.725 6     -2358.480          39.000  
E14  21506372.760 7 113016728.426 7      2758.917          46.000  
E21  26627974.759 5 139930968.696 5     -1816.331          34.000  
E26  24800661.074 7 130328403.447 7      1106.111          42.000  
J 2  38952867.367 7 204698698.45327        21.205          45.000  
J 3  37187760.549 7 195423019.904 7        14.324          42.000  
J 4  37464308.913 5 196876271.378 5      -278.908          31.000  
> 2024 11 29  9  5 33.3990000  0 23                     
G 4  22804778.052 6 119839880.233 6     -2786.615          37.000  
G 8  20069755.832 7 105467273.347 7      1189.154          45.000  
G 9  22708288.905 4 119332853.16324     -1687.935          28.000  
G16  21162030.416 6 111207215.739 6     -1802.284          38.000  
G18  24977588.232 6 131257430.979 6     -2562.687          37.000  
G21  22938168.441 5 120540869.713 5      3812.625          35.000  
G26  23196507.345 7 121898466.232 7     -2579.564          43.000  
G27  19889720.889 7 104521204.407 7     -1083.657          47.000  
G31  24228846.173 5 127323443.63525     -3556.932          34.000  
R 7  23292153.691 3               3      -205.444          22.000  
R14  24151318.334 6 128739993.045 6     -3093.372          40.000  
R15  20312262.678 7 108542533.907 7     -1423.333          42.000  
R16  19940163.878 8 106516739.343 8      1731.355          48.000  
R17  20233098.709 6 108271371.729 6     -2158.763          40.000  
R18  19392293.729 7 103517333.128 7      1799.664          45.000  
R19  21989073.374 4 117626668.55724      4262.278          27.000  
E 4  25741613.896 6 135273072.548 6     -2359.345          39.000  
E14  21506267.727 7 113016176.704 7      2758.457          46.000  
E21  26628043.217 5 139931331.988 5     -1816.844          34.000  
E26  24800619.037 7 130328182.280 7      1105.801          42.000  
J 2  38952867.314 7 204698694.23227        20.992          45.000  
J 3  37187759.991 7 195423017.064 7        14.095          42.000  
J 4  37464319.697 5 196876326.976 5      -277.657          32.000  
> 2024 11 29  9  5 33.5990000  0 23                     
G 4  22804884.079 6 119840437.548 6     -2786.403          37.000  
G 8  20069710.671 7 105467035.561 7      1188.842          45.000  
G 9  22708353.331 4 119333190.73124     -1688.359          29.000  
G16  21162098.804 6 111207576.146 6     -1802.256          38.000  
G18  24977685.639 6 131257943.557 6     -2562.929          37.000  
G21  22938023.186 5 120540107.088 5      3813.034          35.000  
G26  23196605.398 7 121898982.181 7     -2579.878          43.000  
G27  19889762.089 7 104521421.132 7     -1083.892          47.000  
G31  24228981.639 5 127324155.10625     -3556.626          30.000  
R 7  23292161.159 3               3      -213.717          21.000  
R14  24151434.361 6 128740611.704 6     -3093.567          40.000  
R15  20312316.041 7 108542818.650 7     -1423.699          42.000  
R16  19940098.946 8 106516393.046 8      1731.457          48.000  
R17  20233179.347 6 108271803.527 6     -2159.052          40.000  
R18  19392226.302 7 103516973.180 7      1799.604          45.000  
R19  21988913.896 4 117625816.16224      4262.189          27.000  
E 4  25741703.608 6 135273544.368 6     -2359.154          39.000  
E14  21506162.712 7 113015624.952 7      2758.579          46.000  
E21  26628113.838 5 139931695.262 5     -1816.515          34.000  
E26  24800577.104 7 130327961.101 7      1105.737          42.000  
J 2  38952866.267 7 204698690.01227        20.830          45.000  
J 3  37187759.310 7 195423014.232 7        14.216          42.000  
J 4  37464330.359 5 196876382.629 5      -278.219          32.000  
> 2024 11 29  9  5 33.7990000  0 23                     
G 4  22804990.194 6 119840994.918 6     -2787.283          37.000  
G 8  20069665.353 7 105466797.800 7      1188.668          45.000  
G 9  22708414.459 4 119333528.33124     -1687.614          29.000  
G16  21162167.278 6 111207936.565 6     -1802.209          38.000  
G18  24977783.081 6 131258456.133 6     -2563.207          39.000  
G21  22937878.192 5 120539344.541 5      3812.530          35.000  
G26  23196703.590 7 121899498.121 7     -2579.860          43.000  
G27  19889803.219 7 104521637.872 7     -1083.798          47.000  
G31  24229116.511 5 127324866.55025     -3557.895          30.000  
R 7  23292168.541 3               3      -213.717          21.000  
R14  24151550.457 6 128741230.372 6     -3093.377          40.000  
R15  20312369.351 7 108543103.388 7     -1423.897          42.000  
R16  19940034.118 8 106516046.781 8      1731.098          48.000  
R17  20233260.263 6 108272235.349 6     -2158.940          40.000  
R18  19392158.752 7 103516613.265 7      1799.469          45.000  
R19  21988753.215 4 117624963.81924      4261.841          27.000  
E 4  25741793.093 6 135274016.207 6     -2359.200          39.000  
E14  21506057.696 7 113015073.232 7      2758.564          46.000  
E21  26628183.865 5 139932058.583 5     -1816.778          34.000  
E26  24800535.171 7 130327739.963 7      1105.727          42.000  
J 2  38952865.308 7 204698685.77827        21.152          45.000  
J 3  37187759.083 7 195423011.416 7        14.177          42.000  
J 4  37464342.033 5 196876438.291 5      -278.361          32.000  
> 2024 11 29  9  5 33.9990000  0 23                     
G 4  22805096.326 6 119841552.263 6     -2787.106          36.000  
G 8  20069620.261 7 105466560.088 7      1188.394          45.000  
G 9  22708477.525 4 119333866.01624     -1689.192          29.000  
G16  21162235.823 6 111208297.017 6     -1802.450          37.000  
G18  24977880.575 6 131258968.774 6     -2563.636          38.000  
G21  22937733.006 5 120538582.002 5      3812.305          34.000  
G26  23196801.748 7 121900014.079 7     -2579.944          42.000  
G27  19889844.436 7 104521854.685 7     -1084.232          47.000  
G31  24229251.402 4 127325578.04124     -3557.373          29.000  
R 7  23292175.800 3               3      -209.811          21.000  
R14  24151666.483 6 128741849.073 6     -3093.689          40.000  
R15  20312422.714 6 108543388.182 6     -1423.981          41.000  
R16  19939969.239 8 106515700.534 8      1731.064          48.000  
R17  20233341.023 6 108272667.229 6     -2159.813          40.000  
R18  19392091.394 7 103516253.417 7      1798.976          45.000  
R19  21988595.081 4 117624111.44624      4261.680          27.000  
E 4  25741882.804 6 135274488.082 6     -2359.569          38.000  
E14  21505952.594 7 113014521.540 7      2758.430          46.000  
E21  26628252.724 5 139932421.860 5     -1816.219          33.000  
E26  24800493.081 6 130327518.866 6      1105.248          41.000  
J 2  38952864.331 7 204698681.57927        20.934          45.000  
J 3  37187758.734 6 195423008.634 6        13.747          41.000  
J 4  37464352.277 5 196876494.001 5      -278.948          32.000  
> 2024 11 29  9  5 34.1990000  0 23                     
G 4  22805202.441 6 119842109.694 6     -2787.233          36.000  
G 8  20069575.048 7 105466322.421 7      1188.249          45.000  
G 9  22708542.614 4 119334203.66424     -1688.760          29.000  
G16  21162304.385 6 111208657.526 6     -1803.207          37.000  
G18  24977978.052 6 131259481.437 6     -2563.729          38.000  
G21  22937588.029 5 120537819.484 5      3812.590          34.000  
G26  23196899.923 7 121900530.076 7     -2580.030          42.000  
G27  19889885.584 7 104522071.536 7     -1084.361          47.000  
G31  24229386.379 4 127326289.55724     -3556.871          29.000  
R 7  23292183.845 3               3      -209.811          21.000  
R14  24151782.475 6 128742467.802 6     -3093.499          40.000  
R15  20312476.042 6 108543673.021 6     -1424.089          41.000  
R16  19939904.428 8 106515354.332 8      1730.962          48.000  
R17  20233421.765 6 108273099.134 6     -2159.750          40.000  
R18  19392023.931 7 103515893.617 7      1798.974          45.000  
R19  21988435.377 4 117623259.214 4      4261.024          27.000  
E 4  25741972.411 6 135274959.998 6     -2359.742          38.000  
E14  21505847.770 7 113013969.899 7      2758.185          45.000  
E21  26628320.518 5 139932785.272 5     -1817.402          33.000  
E26  24800451.026 6 130327297.808 6      1105.172          41.000  
J 2  38952863.685 7 204698677.38927        20.868          45.000  
J 3  37187758.002 6 195423005.893 6        13.395          41.000  
J 4  37464365.137 5 196876549.701 5      -279.034          32.000  
> 2024 11 29  9  5 34.3990000  0 23                     
G 4  22805308.504 6 119842667.109 6     -2787.434          36.000  
G 8  20069529.852 7 105466084.788 7      1187.978          45.000  
G 9  22708605.086 4 119334541.32424     -1687.972          29.000  
G16  21162372.912 6 111209018.009 6     -1802.950          37.000  
G18  24978075.442 6 131259994.130 6     -2563.662          38.000  
G21  22937442.913 5 120537056.979 5      3812.885          33.000  
G26  23196998.202 7 121901046.083 7     -2580.023          42.000  
G27  19889926.766 7 104522288.401 7     -1084.519          47.000  
G31  24229521.897 5 127327001.13625     -3557.651          30.000  
R 7  23292192.203 3               3      -210.171          21.000  
R14  24151898.554 6 128743086.575 6     -3094.027          40.000  
R15  20312529.509 6 108543957.885 6     -1424.551          41.000  
R16  19939839.583 8 106515008.148 8      1730.801          48.000  
R17  20233502.664 6 108273531.088 6     -2159.890          40.000  
R18  19391956.486 7 103515533.876 7      1798.418          45.000  
R19  21988276.388 4 117622406.856 4      4262.053          27.000  
E 4  25742062.332 6 135275431.913 6     -2359.887          38.000  
E14  21505742.737 7 113013418.258 7      2758.158          45.000  
E21  26628389.062 5 139933148.603 5     -1816.828          33.000  
E26  24800408.971 6 130327076.757 6      1105.200          41.000  
J 2  38952863.022 7 204698673.20227        20.748          45.000  
J 3  37187757.321 6 195423003.121 6        13.511          41.000  
J 4  37464374.770 5 196876605.398 5      -278.744          32.000  
> 2024 11 29  9  5 34.5990000  0 23                     
G 4  22805414.618 6 119843224.521 6     -2787.524          36.000  
G 8  20069484.621 7 105465847.139 7      1188.207          45.000  
G 9  22708667.488 4 119334879.02724     -1688.359          29.000  
G16  21162441.386 6 111209378.494 6     -1802.648          37.000  
G18  24978172.901 6 131260506.841 6     -2563.780          38.000  
G21  22937297.728 5 120536294.472 5      3812.188          33.000  
G26  23197096.342 7 121901562.068 7     -2580.013          42.000  
G27  19889968.176 7 104522505.273 7     -1084.577          47.000  
G31  24229657.241 5 127327712.61025     -3557.783          30.000  
R 7  23292200.510 3               3      -207.495          21.000  
R14  24152014.720 6 128743705.314 6     -3094.308          40.000  
R15  20312582.925 6 108544242.717 6     -1424.516          41.000  
R16  19939774.703 8 106514661.952 8      1730.842          48.000  
R17  20233583.319 6 108273963.051 6     -2160.074          40.000  
R18  19391889.146 7 103515174.116 7      1798.553          45.000  
R19  21988118.167 4 117621554.575 4      4261.479          27.000  
E 4  25742152.044 6 135275903.802 6     -2359.608          38.000  
E14  21505637.896 7 113012866.613 7      2758.107          45.000  
E21  26628458.061 5 139933511.932 5     -1816.140          33.000  
E26  24800366.916 6 130326855.705 6      1105.112          41.000  
J 2  38952862.236 7 204698668.97327        21.123          45.000  
J 3  37187756.553 6 195423000.345 6        13.727          41.000  
J 4  37464385.065 5 196876661.114 5      -279.408          31.000  
> 2024 11 29  9  5 34.7990000  0 23                     
G 4  22805520.855 6 119843781.964 6     -2787.148          36.000  
G 8  20069439.355 7 105465609.554 7      1188.074          45.000  
G 9  22708727.761 4 119335216.81424     -1688.726          29.000  
G16  21162509.983 6 111209738.979 6     -1802.285          38.000  
G18  24978270.343 6 131261019.573 6     -2563.185          38.000  
G21  22937152.629 5 120535531.952 5      3812.991          33.000  
G26  23197194.570 7 121902078.108 7     -2580.207          42.000  
G27  19890009.515 7 104522722.179 7     -1084.328          47.000  
G31  24229792.515 5 127328424.18025     -3557.507          31.000  
R 7  23292209.165 3               3      -207.495          20.000  
R14  24152130.816 6 128744324.062 6     -3093.650          40.000  
R15  20312636.287 6 108544527.594 6     -1424.137          41.000  
R16  19939709.667 8 106514315.788 8      1731.028          48.000  
R17  20233664.149 6 108274395.067 6     -2159.948          40.000  
R18  19391821.736 7 103514814.433 7      1798.429          45.000  
R19  21987958.270 4 117620702.417 4      4260.504          27.000  
E 4  25742241.930 6 135276375.755 6     -2359.830          38.000  
E14  21505532.916 7 113012315.005 7      2758.175          45.000  
E21  26628525.576 5 139933875.315 5     -1816.498          33.000  
E26  24800324.913 6 130326634.711 6      1105.019          41.000  
J 2  38952861.312 7 204698664.78127        21.210          45.000  
J 3  37187755.942 6 195422997.601 6        13.687          41.000  
J 4  37464395.064 5 196876716.746 5      -277.002          31.000  
> 2024 11 29  9  5 34.9990000  0 23                     
G 4  22805626.953 6 119844339.495 6     -2787.940          36.000  
G 8  20069394.019 7 105465372.022 7      1187.664          45.000  
G 9  22708790.686 4 119335554.59624     -1688.805          29.000  
G16  21162578.632 6 111210099.544 6     -1802.651          38.000  
G18  24978367.873 6 131261532.350 6     -2563.719          38.000  
G21  22937007.513 5 120534769.525 5      3812.147          33.000  
G26  23197292.937 7 121902594.180 7     -2580.377          42.000  
G27  19890050.837 7 104522939.175 7     -1085.017          47.000  
G31  24229927.789 5 127329135.76925     -3557.197          31.000  
R 7  23292216.511 3               3      -207.495          20.000  
R14  24152246.965 6 128744942.879 6     -3094.166          40.000  
R15  20312689.615 6 108544812.549 6     -1424.627          41.000  
R16  19939644.787 8 106513969.686 8      1730.530          48.000  
R17  20233744.751 6 108274827.175 6     -2160.399          38.000  
R18  19391754.430 7 103514454.828 7      1797.972          45.000  
R19  21987798.688 4 117619850.123 4      4261.553          27.000  
E 4  25742331.554 6 135276847.741 6     -2359.950          38.000  
E14  21505428.040 7 113011763.478 7      2757.514          45.000  
E21  26628595.184 5 139934238.687 5     -1816.659          33.000  
E26  24800282.876 7 130326413.786 7      1104.474          42.000  
J 2  38952860.596 7 204698660.64727        20.702          45.000  
J 3  37187755.349 6 195422994.902 6        13.361          41.000  
J 4  37464402.952 5 196876772.529 5      -278.700          30.000  
> 2024 11 29  9  5 35.1990000  0 23                     
G 4  22805733.085 6 119844896.977 6     -2787.458          36.000  
G 8  20069348.910 7 105465134.522 7      1187.911          45.000  
G 9  22708858.759 4 119335892.43724     -1689.035          29.000  
G16  21162647.229 6 111210460.109 6     -1802.122          38.000  
G18  24978465.507 6 131262045.186 6     -2563.909          38.000  
G21  22936862.589 5 120534007.093 5      3811.894          33.000  
G26  23197391.146 7 121903110.266 7     -2580.242          42.000  
G27  19890092.055 7 104523156.185 7     -1084.835          47.000  
G31  24230063.343 5 127329847.38925     -3557.383          32.000  
R 7  23292223.631 3               3      -207.495          20.000  
R14  24152363.183 6 128745561.738 6     -3094.115          40.000  
R15  20312742.943 6 108545097.509 6     -1424.466          41.000  
R16  19939579.994 8 106513623.605 8      1730.612          48.000  
R17  20233825.528 6 108275259.346 6     -2160.736          38.000  
R18  19391687.177 7 103514095.258 7      1798.104          45.000  
R19  21987638.530 4 117618998.021 4      4260.613          27.000  
E 4  25742421.405 6 135277319.749 6     -2359.754          38.000  
E14  21505323.304 7 113011211.962 7      2757.935          45.000  
E21  26628665.422 5 139934602.124 5     -1816.997          33.000  
E26  24800240.698 7 130326192.873 7      1104.769          42.000  
J 2  38952859.985 7 204698656.50327        20.992          45.000  
J 3  37187754.983 6 195422992.207 6        13.850          41.000  
J 4  37464412.358 5 196876828.305 5      -278.923          30.000  
> 2024 11 29  9  5 35.3990000  0 23                     
G 4  22805839.217 6 119845454.512 6     -2787.751          36.000  
G 8  20069303.679 7 105464897.043 7      1187.084          45.000  
G 9  22708926.205 4 119336230.29124     -1689.696          29.000  
G16  21162715.913 6 111210820.701 6     -1803.110          37.000  
G18  24978563.071 6 131262558.016 6     -2564.685          37.000  
G21  22936717.508 5 120533244.682 5      3811.410          33.000  
G26  23197489.356 7 121903626.348 7     -2580.519          42.000  
G27  19890133.412 7 104523373.221 7     -1085.375          47.000  
G31  24230198.791 5 127330558.98125     -3558.342          33.000  
R 7  23292230.088 3               3      -207.410          20.000  
R14  24152479.332 6 128746180.566 6     -3094.372          40.000  
R15  20312796.376 6 108545382.476 6     -1424.934          41.000  
R16  19939515.184 8 106513277.525 8      1730.315          48.000  
R17  20233906.392 6 108275691.533 6     -2160.987          38.000  
R18  19391619.784 7 103513735.723 7      1797.610          45.000  
R19  21987479.576 4 117618145.817 4      4260.981          27.000  
E 4  25742511.239 6 135277791.763 6     -2360.268          38.000  
E14  21505218.323 7 113010660.455 7      2757.396          45.000  
E21  26628732.448 5 139934965.491 5     -1817.085          32.000  
E26  24800198.643 7 130325971.992 7      1104.386          42.000  
J 2  38952859.218 7 204698652.35327        20.785          45.000  
J 3  37187754.372 7 195422989.535 7        13.311          42.000  
J 4  37464423.229 5 196876884.111 5      -279.352          30.000  
> 2024 11 29  9  5 35.5990000  0 23                     
G 4  22805945.262 6 119846012.094 6     -2788.284          36.000  
G 8  20069258.448 7 105464659.543 7      1187.425          45.000  
G 9  22708990.247 4 119336568.20524     -1689.512          29.000  
G16  21162784.440 6 111211181.224 6     -1802.598          37.000  
G18  24978660.513 6 131263070.879 6     -2564.191          37.000  
G21  22936572.497 6 120532482.239 6      3812.088          36.000  
G26  23197587.636 7 121904142.434 7     -2580.340          42.000  
G27  19890174.681 7 104523590.253 7     -1085.312          47.000  
G31  24230334.153 5 127331270.56825     -3558.337          33.000  
R 7  23292237.190 3               3      -209.613          20.000  
R14  24152595.446 6 128746799.396 6     -3094.182          40.000  
R15  20312849.791 6 108545667.443 6     -1424.811          41.000  
R16  19939450.409 8 106512931.446 8      1730.359          48.000  
R17  20233987.065 6 108276123.724 6     -2160.925          39.000  
R18  19391552.357 7 103513376.201 7      1797.442          45.000  
R19  21987320.081 4 117617293.629 4      4260.844          27.000  
E 4  25742601.299 6 135278263.768 6     -2360.087          38.000  
E14  21505113.273 7 113010108.945 7      2757.533          45.000  
E21  26628801.376 5 139935328.907 5     -1817.469          32.000  
E26  24800156.571 7 130325751.110 7      1104.354          42.000  
J 2  38952858.485 7 204698648.18027        20.908          45.000  
J 3  37187753.831 7 195422986.825 7        13.500          43.000  
J 4  37464436.212 5 196876939.878 5      -278.998          30.000  
> 2024 11 29  9  5 35.7990000  0 23                     
G 4  22806051.324 6 119846569.570 6     -2787.708          36.000  
G 8  20069213.148 7 105464422.055 7      1187.368          45.000  
G 9  22709051.392 4 119336905.95824     -1688.554          29.000  
G16  21162852.932 6 111211541.744 6     -1802.139          37.000  
G18  24978758.042 6 131263583.696 6     -2563.815          37.000  
G21  22936427.520 6 120531719.757 6      3812.257          36.000  
G26  23197685.811 7 121904658.499 7     -2580.484          42.000  
G27  19890215.916 7 104523807.272 7     -1085.146          47.000  
G31  24230468.205 4 127331982.23524     -3559.274          28.000  
R 7  23292244.868 3               3      -210.471          20.000  
R14  24152711.647 6 128747418.189 6     -3094.098          40.000  
R15  20312903.136 7 108545952.404 7     -1425.015          42.000  
R16  19939385.633 8 106512585.336 8      1730.528          48.000  
R17  20234067.824 6 108276555.915 6     -2161.210          40.000  
R18  19391484.946 7 103513016.680 7      1797.312          45.000  
R19  21987160.987 4 117616441.351 4      4261.480          27.000  
E 4  25742691.011 6 135278735.769 6     -2360.187          38.000  
E14  21505008.328 7 113009557.396 7      2757.726          45.000  
E21  26628871.020 5 139935692.298 5     -1817.312          32.000  
E26  24800114.498 7 130325530.190 7      1104.615          42.000  
J 2  38952857.665 7 204698643.96327        20.925          45.000  
J 3  37187753.255 7 195422984.068 7        13.844          42.000  
J 4  37464448.497 5 196876995.508 5      -277.753          30.000  
> 2024 11 29  9  5 35.9990000  0 23                     
G 4  22806157.439 6 119847127.052 6     -2787.210          36.000  
G 8  20069168.021 7 105464184.586 7      1187.385          45.000  
G 9  22709111.421 4 119337243.81024     -1689.460          29.000  
G16  21162921.424 6 111211902.299 6     -1802.911          37.000  
G18  24978855.571 6 131264096.561 6     -2564.262          37.000  
G21  22936282.491 6 120530957.303 6      3812.261          38.000  
G26  23197783.951 7 121905174.553 7     -2580.324          42.000  
G27  19890257.238 7 104524024.309 7     -1085.332          47.000  
G31  24230604.439 4 127332693.77024     -3557.143          28.000  
R 7  23292252.249 3               3      -209.357          20.000  
R14  24152827.708 6 128748037.022 6     -3094.225          40.000  
R15  20312956.726 7 108546237.372 7     -1424.891          43.000  
R16  19939320.823 8 106512239.242 8      1730.480          48.000  
R17  20234148.741 6 108276988.128 6     -2161.035          40.000  
R18  19391417.641 7 103512657.189 7      1797.255          45.000  
R19  21987001.824 4 117615589.179 4      4261.076          26.000  
E 4  25742780.810 6 135279207.765 6     -2360.072          38.000  
E14  21504903.207 7 113009005.865 7      2757.749          45.000  
E21  26628940.350 5 139936055.644 5     -1816.347          32.000  
E26  24800072.478 7 130325309.291 7      1104.541          42.000  
J 2  38952857.089 7 204698639.74527        21.140          45.000  
J 3  37187752.749 6 195422981.335 6        13.550          40.000  
J 4  37464461.375 5 196877051.278 5      -278.804          30.000  
> 2024 11 29  9  5 36.1990000  0 23                     
G 4  22806263.537 6 119847684.604 6     -2787.810          36.000  
G 8  20069122.930 7 105463947.139 7      1187.088          45.000  
G 9  22709178.378 5 119337581.704 5     -1690.053          30.000  
G16  21162990.056 6 111212262.845 6     -1802.993          37.000  
G18  24978953.135 6 131264609.396 6     -2564.070          37.000  
G21  22936137.288 6 120530194.871 6      3812.415          38.000  
G26  23197882.213 7 121905690.639 7     -2580.494          42.000  
G27  19890298.648 7 104524241.375 7     -1085.327          47.000  
G31  24230742.174 4 127333405.43924     -3558.291          28.000  
R 7  23292258.723 3               3      -209.357          20.000  
R14  24152943.874 6 128748655.857 6     -3094.375          40.000  
R15  20313010.211 7 108546522.371 7     -1424.871          43.000  
R16  19939255.891 8 106511893.169 8      1730.302          48.000  
R17  20234229.640 6 108277420.384 6     -2161.156          40.000  
R18  19391350.318 7 103512297.744 7      1797.096          45.000  
R19  21986842.573 4 117614737.074 4      4260.190          26.000  
E 4  25742870.661 6 135279679.774 6     -2360.011          38.000  
E14  21504798.297 7 113008454.360 7      2757.403          45.000  
E21  26629009.871 5 139936419.055 5     -1816.840          35.000  
E26  24800030.580 6 130325088.443 6      1104.367          41.000  
J 2  38952856.321 7 204698635.54227        20.811          45.000  
J 3  37187752.278 6 195422978.610 6        13.909          40.000  
J 4  37464472.125 4 196877106.908 4      -278.155          29.000  
> 2024 11 29  9  5 36.3990000  0 23                     
G 4  22806369.564 6 119848242.165 6     -2788.090          36.000  
G 8  20069077.699 7 105463709.725 7      1186.991          45.000  
G 9  22709242.786 5 119337919.644 5     -1689.751          30.000  
G16  21163058.600 6 111212623.459 6     -1803.191          37.000  
G18  24979050.700 6 131265122.276 6     -2564.451          37.000  
G21  22935992.242 6 120529432.460 6      3812.504          36.000  
G26  23197980.405 7 121906206.727 7     -2580.575          42.000  
G27  19890339.761 7 104524458.471 7     -1085.674          47.000  
G31  24230878.582 4 127334117.02524     -3558.038          29.000  
R 7  23292266.785 3               3      -208.078          20.000  
R14  24153059.883 6 128749274.710 6     -3094.330          40.000  
R15  20313063.608 7 108546807.401 7     -1425.183          44.000  
R16  19939191.081 8 106511547.118 8      1730.142          48.000  
R17  20234310.295 6 108277852.703 6     -2161.881          41.000  
R18  19391282.943 7 103511938.352 7      1796.815          45.000  
R19  21986683.898 4 117613884.981 4      4260.616          26.000  
E 4  25742960.617 6 135280151.804 6     -2359.988          38.000  
E14  21504693.369 7 113007902.867 7      2757.465          45.000  
E21  26629079.114 5 139936782.444 5     -1816.932          35.000  
E26  24799988.543 6 130324867.608 6      1104.144          41.000  
J 2  38952855.448 7 204698631.33727        20.992          45.000  
J 3  37187751.702 6 195422975.906 6        13.640          40.000  
J 4  37464482.036 4 196877162.594 4      -277.746          29.000  
> 2024 11 29  9  5 36.5990000  0 23                     
G 4  22806475.784 6 119848799.689 6     -2787.606          36.000  
G 8  20069032.346 7 105463472.318 7      1187.068          45.000  
G 9  22709309.307 5 119338257.627 5     -1690.259          30.000  
G16  21163127.197 6 111212984.047 6     -1803.179          37.000  
G18  24979148.211 6 131265635.183 6     -2564.771          36.000  
G21  22935847.231 6 120528670.069 6      3812.251          36.000  
G26  23198078.650 6 121906722.767 6     -2580.262          41.000  
G27  19890381.292 7 104524675.571 7     -1085.479          47.000  
G31  24231014.572 4 127334828.57824     -3557.793          29.000  
R 7  23292274.533 3               3      -216.177          20.000  
R14  24153176.102 6 128749893.568 6     -3094.364          40.000  
R15  20313116.954 7 108547092.429 7     -1425.232          43.000  
R16  19939126.288 8 106511201.064 8      1730.356          48.000  
R17  20234391.177 6 108278285.012 6     -2161.813          41.000  
R18  19391215.567 7 103511578.970 7      1796.742          45.000  
R19  21986525.468 4 117613032.698 4      4262.234          26.000  
E 4  25743050.433 6 135280623.831 6     -2360.112          38.000  
E14  21504588.528 7 113007351.399 7      2757.277          45.000  
E21  26629148.653 5 139937145.823 5     -1816.867          35.000  
E26  24799946.470 6 130324646.780 6      1103.990          41.000  
J 2  38952854.750 7 204698627.13727        20.910          45.000  
J 3  37187751.109 6 195422973.193 6        13.642          41.000  
J 4  37464490.412 4 196877218.299 4      -278.516          29.000  
> 2024 11 29  9  5 36.7990000  0 23                     
G 4  22806581.951 5 119849357.274 5     -2787.889          35.000  
G 8  20068987.220 7 105463234.995 7      1186.491          45.000  
G 9  22709374.501 4 119338595.601 4     -1690.571          29.000  
G16  21163195.881 6 111213344.754 6     -1803.776          37.000  
G18  24979245.706 6 131266148.116 6     -2565.252          36.000  
G21  22935702.254 6 120527907.727 6      3811.564          36.000  
G26  23198176.825 6 121907238.864 6     -2580.511          41.000  
G27  19890422.632 7 104524892.751 7     -1086.043          47.000  
G31  24231151.538 4 127335540.19024     -3558.121          29.000  
R 7  23292281.915 3               3      -200.123          20.000  
R14  24153292.285 6 128750512.483 6     -3094.796          40.000  
R15  20313170.246 7 108547377.541 7     -1425.708          42.000  
R16  19939061.408 8 106510855.086 8      1729.890          48.000  
R17  20234472.059 6 108278717.396 6     -2161.727          41.000  
R18  19391148.262 7 103511219.679 7      1796.234          45.000  
R19  21986365.903 4 117612180.803 4      4259.765          26.000  
E 4  25743140.197 6 135281095.917 6     -2360.630          38.000  
E14  21504483.495 7 113006799.989 7      2756.823          45.000  
E21  26629217.599 5 139937509.261 5     -1817.342          32.000  
E26  24799904.555 6 130324426.013 6      1103.653          41.000  
J 2  38952854.017 7 204698622.95427        20.884          45.000  
J 3  37187750.498 7 195422970.527 7        13.101          42.000  
J 4  37464501.807 4 196877274.067 4      -279.106          29.000  
> 2024 11 29  9  5 36.9990000  0 23                     
G 4  22806688.170 5 119849914.917 5     -2788.654          35.000  
G 8  20068942.128 7 105462997.691 7      1186.306          45.000  
G 9  22709441.195 3               3     -1687.946          23.000  
G16  21163264.478 6 111213705.434 6     -1803.394          37.000  
G18  24979343.252 6 131266661.092 6     -2565.112          36.000  
G21  22935557.051 6 120527145.344 6      3811.876          36.000  
G26  23198275.140 6 121907755.001 6     -2581.090          41.000  
G27  19890463.954 7 104525109.957 7     -1086.311          47.000  
G31  24231287.842 4 127336251.81224     -3558.140          29.000  
R 7  23292289.471 3               3      -203.602          20.000  
R14  24153408.347 6 128751131.390 6     -3094.898          40.000  
R15  20313223.644 6 108547662.669 6     -1425.837          41.000  
R16  19938996.563 8 106510509.112 8      1729.646          48.000  
R17  20234552.801 6 108279149.807 6     -2162.147          39.000  
R18  19391080.887 7 103510860.418 7      1795.969          45.000  
R19  21986206.897 4 117611328.688 4      4260.700          27.000  
E 4  25743230.205 6 135281567.996 6     -2360.513          38.000  
E14  21504378.584 7 113006248.597 7      2756.834          44.000  
E21  26629286.737 5 139937872.742 5     -1817.833          31.000  
E26  24799862.395 7 130324205.251 7      1103.802          42.000  
J 2  38952853.250 7 204698618.78427        20.866          45.000  
J 3  37187749.887 7 195422967.837 7        13.298          42.000  
J 4  37464511.039 4 196877329.834 4      -278.740          29.000  
> 2024 11 29  9  5 37.1990000  0 23                     
G 4  22806794.302 5 119850472.506 5     -2787.872          35.000  
G 8  20068896.897 7 105462760.389 7      1186.542          45.000  
G 9  22709505.063 4               4     -1690.796          29.000  
G16  21163333.075 6 111214066.112 6     -1803.188          37.000  
G18  24979440.677 6 131267174.065 6     -2564.723          37.000  
G21  22935411.987 5 120526382.966 5      3811.968          35.000  
G26  23198373.315 6 121908271.145 6     -2580.547          41.000  
G27  19890505.241 7 104525327.148 7     -1085.863          47.000  
G31  24231418.823 5 127336963.40625     -3557.195          30.000  
R 7  23292297.707 3               3      -203.602          20.000  
R14  24153524.426 6 128751750.299 6     -3094.426          40.000  
R15  20313277.129 6 108547947.798 6     -1425.475          41.000  
R16  19938931.806 8 106510163.140 8      1729.863          48.000  
R17  20234633.595 6 108279582.195 6     -2162.144          38.000  
R18  19391013.564 7 103510501.169 7      1796.275          45.000  
R19  21986047.524 4 117610476.604 4      4260.625          27.000  
E 4  25743320.074 6 135282040.089 6     -2360.069          38.000  
E14  21504273.569 7 113005697.204 7      2756.956          45.000  
E21  26629355.822 5 139938236.201 5     -1817.512          31.000  
E26  24799820.375 7 130323984.514 7      1103.738          42.000  
J 2  38952852.412 7 204698614.594 7        21.157          45.000  
J 3  37187749.399 7 195422965.162 7        13.447          42.000  
J 4  37464521.090 4 196877385.604 4      -278.452          28.000  
> 2024 11 29  9  5 37.3990000  0 23                     
G 4  22806900.469 6 119851030.187 6     -2787.543          36.000  
G 8  20068851.754 7 105462523.149 7      1186.338          45.000  
G 9  22709568.687 5               5     -1690.916          30.000  
G16  21163401.741 6 111214426.822 6     -1803.215          39.000  
G18  24979538.206 6 131267687.121 6     -2565.125          37.000  
G21  22935266.959 5 120525620.658 5      3811.809          35.000  
G26  23198471.472 6 121908787.325 6     -2580.779          41.000  
G27  19890546.633 7 104525544.433 7     -1086.246          47.000  
G31  24231551.462 5 127337675.15725     -3559.012          34.000  
R 7  23292304.914 3               3      -203.602          20.000  
R14  24153640.627 6 128752369.267 6     -3094.708          40.000  
R15  20313330.631 6 108548232.985 6     -1425.767          41.000  
R16  19938867.013 8 106509817.224 8      1729.821          48.000  
R17  20234714.547 6 108280014.684 6     -2162.106          37.000  
R18  19390946.276 7 103510142.014 7      1796.064          45.000  
R19  21985888.413 4 117609624.623 4      4259.817          27.000  
E 4  25743409.890 6 135282512.245 6     -2360.402          38.000  
E14  21504168.623 7 113005145.877 7      2756.656          45.000  
E21  26629424.838 5 139938599.650 5     -1817.344          31.000  
E26  24799778.390 7 130323763.846 7      1103.475          42.000  
J 2  38952851.627 7 204698610.454 7        20.898          45.000  
J 3  37187748.893 7 195422962.535 7        13.539          42.000  
J 4  37464530.600 4 196877441.388 4      -278.677          28.000  
> 2024 11 29  9  5 37.5990000  0 23                     
G 4  22807006.567 6 119851587.923 6     -2788.740          36.000  
G 8  20068806.575 7 105462285.946 7      1186.117          45.000  
G 9  22709632.205 5 119339926.29935     -1690.350          30.000  
G16  21163470.426 6 111214787.553 6     -1803.354          39.000  
G18  24979635.770 6 131268200.191 6     -2565.659          37.000  
G21  22935121.947 5 120524858.359 5      3811.199          35.000  
G26  23198569.734 6 121909303.496 6     -2580.761          41.000  
G27  19890587.955 7 104525761.735 7     -1086.599          47.000  
G31  24231689.895 5 127338386.84925     -3558.534          33.000  
R 7  23292313.238 3               3      -221.559          19.000  
R14  24153756.810 6 128752988.244 6     -3094.982          40.000  
R15  20313383.994 6 108548518.198 6     -1426.093          41.000  
R16  19938802.360 8 106509471.325 8      1729.493          48.000  
R17  20234795.429 6 108280447.268 6     -2163.176          37.000  
R18  19390878.866 7 103509782.906 7      1795.494          45.000  
R19  21985729.633 4 117608772.648 4      4260.123          27.000  
E 4  25743499.829 6 135282984.421 6     -2360.857          38.000  
E14  21504063.660 7 113004594.556 7      2756.493          45.000  
E21  26629494.063 5 139938963.140 5     -1817.591          31.000  
E26  24799736.457 7 130323543.195 7      1103.148          42.000  
J 2  38952850.702 7 204698606.310 7        20.805          45.000  
J 3  37187748.439 7 195422959.925 7        13.138          42.000  
J 4  37464540.425 4 196877497.179 4      -278.824          28.000  
> 2024 11 29  9  5 37.7990000  0 23                     
G 4  22807112.612 6 119852145.613 6     -2789.215          36.000  
G 8  20068761.466 7 105462048.755 7      1185.704          45.000  
G 9  22709694.817 5 119340264.38525     -1690.571          30.000  
G16  21163539.232 6 111215148.272 6     -1803.584          39.000  
G18  24979733.370 6 131268713.258 6     -2565.662          36.000  
G21  22934976.779 5 120524096.064 5      3811.303          35.000  
G26  23198668.118 6 121909819.692 6     -2581.187          41.000  
G27  19890629.260 7 104525979.057 7     -1086.830          47.000  
G31  24231824.349 5 127339098.54825     -3558.176          33.000  
R 7  23292321.003 3               3      -221.559          19.000  
R14  24153872.924 6 128753607.219 6     -3094.978          40.000  
R15  20313437.287 6 108548803.391 6     -1426.150          41.000  
R16  19938737.759 8 106509125.425 8      1729.304          48.000  
R17  20234876.276 6 108280879.915 6     -2163.337          37.000  
R18  19390811.577 7 103509423.815 7      1795.221          45.000  
R19  21985570.766 4 117607920.670 4      4259.961          27.000  
E 4  25743589.767 6 135283456.591 6     -2361.115          38.000  
E14  21503958.557 7 113004043.253 7      2756.294          45.000  
E21  26629563.235 5 139939326.615 5     -1817.104          31.000  
E26  24799694.402 7 130323322.572 7      1102.974          42.000  
J 2  38952849.899 7 204698602.165 7        20.656          45.000  
J 3  37187748.003 7 195422957.323 7        12.797          42.000  
J 4  37464548.975 4 196877552.992 4      -279.008          28.000  
> 2024 11 29  9  5 37.9990000  0 23                     
G 4  22807218.709 5 119852703.349 5     -2788.929          35.000  
G 8  20068716.270 7 105461811.576 7      1186.093          45.000  
G 9  22709758.615 5 119340602.57925     -1691.658          30.000  
G16  21163607.951 6 111215508.969 6     -1803.122          39.000  
G18  24979830.881 6 131269226.310 6     -2564.726          36.000  
G21  22934831.733 5 120523333.743 5      3812.264          35.000  
G26  23198766.328 6 121910335.862 6     -2580.880          41.000  
G27  19890670.547 7 104526196.402 7     -1086.512          47.000  
G31  24231958.157 5 127339810.28525     -3558.531          33.000  
R 7  23292328.350 3               3      -221.559          19.000  
R14  24153989.107 6 128754226.212 6     -3094.825          40.000  
R15  20313490.685 6 108549088.602 6     -1425.922          41.000  
R16  19938673.019 8 106508779.539 8      1729.504          48.000  
R17  20234957.227 6 108281312.576 6     -2163.282          37.000  
R18  19390744.255 7 103509064.759 7      1795.427          45.000  
R19  21985411.742 4 117607068.733 4      4259.623          27.000  
E 4  25743679.531 6 135283928.770 6     -2360.770          38.000  
E14  21503853.542 7 113003491.956 7      2756.694          45.000  
E21  26629632.076 5 139939690.078 5     -1816.666          31.000  
E26  24799652.504 7 130323101.972 7      1103.041          42.000  
J 2  38952849.027 7 204698598.002 7        21.260          45.000  
J 3  37187747.584 7 195422954.698 7        13.183          43.000  
J 4  37464560.876 4 196877608.720 4      -278.377          28.000  
> 2024 11 29  9  5 38.1990000  0 23                     
G 4  22807324.963 5 119853261.100 5     -2788.568          35.000  
G 8  20068671.231 7 105461574.454 7      1185.688          45.000  
G 9  22709826.130 4 119340940.80924     -1690.960          29.000  
G16  21163676.513 6 111215869.722 6     -1803.762          37.000  
G18  24979928.411 6 131269739.491 6     -2565.615          36.000  
G21  22934686.686 6 120522571.481 6      3811.850          36.000  
G26  23198864.556 6 121910852.116 6     -2581.312          41.000  
G27  19890711.869 7 104526413.789 7     -1086.696          47.000  
G31  24232089.121 4 127340522.19624     -3560.685          28.000  
R 7  23292335.452 3               3      -210.138          20.000  
R14  24154105.256 6 128754845.219 6     -3094.938          40.000  
R15  20313544.030 6 108549373.864 6     -1426.220          41.000  
R16  19938608.383 8 106508433.687 8      1729.378          48.000  
R17  20235038.161 6 108281745.236 6     -2163.169          40.000  
R18  19390676.949 7 103508705.755 7      1794.986          45.000  
R19  21985252.073 4 117606246.80934      4259.665          27.000  
E 4  25743769.347 6 135284400.979 6     -2360.969          38.000  
E14  21503748.666 7 113002940.706 7      2756.210          45.000  
E21  26629700.656 5 139940053.584 5     -1817.524          30.000  
E26  24799610.292 7 130322881.381 7      1103.011          42.000  
J 2  38952848.189 7 204698593.875 7        20.913          45.000  
J 3  37187747.113 7 195422952.118 7        13.086          43.000  
J 4  37464572.673 4 196877664.535 4      -279.254          28.000  
> 2024 11 29  9  5 38.3990000  0 23                     
G 4  22807431.131 5 119853818.812 5     -2788.668          35.000  
G 8  20068626.035 7 105461337.293 7      1186.015          44.000  
G 9  22709892.196 4 119341278.86024     -1689.817          28.000  
G16  21163745.249 6 111216230.423 6     -1804.287          36.000  
G18  24980025.888 5 131270252.616 5     -2565.954          35.000  
G21  22934541.640 5 120521809.189 5      3811.485          35.000  
G26  23198962.696 6 121911368.319 6     -2580.956          40.000  
G27  19890753.296 7 104526631.156 7     -1086.793          46.000  
G31  24232229.473 4 127341233.91724     -3558.704          28.000  
R 7  23292343.008 3               3      -210.138          20.000  
R14  24154221.509 6 128755464.193 6     -3094.771          40.000  
R15  20313597.533 7 108549659.108 7     -1426.135          42.000  
R16  19938543.748 8 106508087.807 8      1729.417          48.000  
R17  20235119.095 6 108282177.891 6     -2163.036          40.000  
R18  19390609.696 7 103508346.753 7      1795.051          45.000  
R19  21985092.770 4 117605394.84324      4259.917          27.000  
E 4  25743859.355 6 135284873.167 6     -2360.791          37.000  
E14  21503643.738 7 113002389.392 7      2756.631          44.000  
E21  26629768.310 4 139940417.053 4     -1817.234          29.000  
E26  24799568.394 6 130322660.795 6      1103.214          41.000  
J 2  38952847.474 7 204698589.699 7        21.191          44.000  
J 3  37187746.624 7 195422949.499 7        13.013          42.000  
J 4  37464585.394 4 196877720.280 4      -278.544          27.000  
> 2024 11 29  9  5 38.5990000  0 23                     
G 4  22807537.350 5 119854376.542 5     -2788.563          35.000  
G 8  20068580.734 7 105461100.178 7      1185.546          44.000  
G 9  22709956.029 4 119341617.13524     -1691.460          28.000  
G16  21163814.038 6 111216591.147 6     -1803.805          36.000  
G18  24980123.591 5 131270765.711 5     -2565.569          34.000  
G21  22934396.385 5 120521046.936 5      3810.961          35.000  
G26  23199060.940 6 121911884.528 6     -2581.087          40.000  
G27  19890794.688 7 104526848.547 7     -1087.101          46.000  
G31  24232366.457 4 127341945.55624     -3558.557          29.000  
R 7  23292351.035 3               3      -213.757          20.000  
R14  24154337.641 6 128756083.183 6     -3094.960          40.000  
R15  20313651.017 7 108549944.367 7     -1426.245          42.000  
R16  19938478.885 8 106507741.935 8      1729.401          48.000  
R17  20235199.942 6 108282610.585 6     -2163.434          41.000  
R18  19390542.460 7 103507987.773 7      1794.876          45.000  
R19  21984933.449 4 117604542.93624      4259.594          27.000  
E 4  25743949.224 6 135285345.353 6     -2361.014          37.000  
E14  21503538.845 7 113001838.128 7      2756.232          44.000  
E21  26629833.888 5 139940780.514 5     -1817.138          30.000  
E26  24799526.513 6 130322440.222 6      1102.793          41.000  
J 2  38952846.688 7 204698585.529 7        20.970          44.000  
J 3  37187746.153 7 195422946.877 7        13.077          42.000  
J 4  37464594.294 4 196877776.047 4      -278.902          28.000  
> 2024 11 29  9  5 38.7990000  0 23                     
G 4  22807643.500 5 119854934.266 5     -2789.161          34.000  
G 8  20068535.486 7 105460863.090 7      1185.256          44.000  
G 9  22710019.269 4 119341955.33724     -1691.214          28.000  
G16  21163882.652 6 111216951.892 6     -1803.772          36.000  
G18  24980221.155 5 131271278.843 5     -2565.462          34.000  
G21  22934251.338 5 120520284.637 5      3811.617          35.000  
G26  23199159.133 6 121912400.740 6     -2581.388          40.000  
G27  19890836.167 7 104527065.954 7     -1087.374          46.000  
G31  24232504.105 5 127342657.27425     -3558.934          33.000  
R 7  23292358.696 3               3      -211.822          21.000  
R14  24154453.789 6 128756702.187 6     -3095.055          40.000  
R15  20313704.625 7 108550229.675 7     -1426.785          42.000  
R16  19938414.127 8 106507396.089 8      1728.960          48.000  
R17  20235280.859 6 108283043.313 6     -2163.833          41.000  
R18  19390475.259 7 103507628.854 7      1794.456          45.000  
R19  21984774.897 4 117603690.93224      4260.185          27.000  
E 4  25744039.110 6 135285817.558 6     -2361.094          37.000  
E14  21503433.951 7 113001286.861 7      2756.117          44.000  
E21  26629905.434 5 139941144.042 5     -1818.087          30.000  
E26  24799484.458 6 130322219.664 6      1102.681          41.000  
J 2  38952845.833 7 204698581.356 7        20.468          44.000  
J 3  37187745.682 6 195422944.260 6        12.923          41.000  
J 4  37464603.141 4 196877831.799 4      -278.823          27.000  
> 2024 11 29  9  5 38.9990000  0 23                     
G 4  22807749.597 5 119855491.991 5     -2788.692          34.000  
G 8  20068490.412 7 105460625.989 7      1185.641          44.000  
G 9  22710082.316 4 119342293.51324     -1690.985          27.000  
G16  21163951.406 6 111217312.684 6     -1803.875          36.000  
G18  24980318.789 5 131271791.994 5     -2565.820          34.000  
G21  22934106.240 5 120519522.333 5      3811.990          34.000  
G26  23199257.308 6 121912916.896 6     -2580.422          40.000  
G27  19890877.594 7 104527283.361 7     -1086.970          46.000  
G31  24232639.780 5 127343369.01325     -3559.031          33.000  
R 7  23292366.775 3               3      -215.751          22.000  
R14  24154569.920 6 128757321.182 6     -3094.562          40.000  
R15  20313758.005 7 108550514.953 7     -1426.350          42.000  
R16  19938349.370 7 106507050.225 7      1729.501          47.000  
R17  20235361.793 6 108283476.036 6     -2163.489          41.000  
R18  19390408.006 7 103507269.925 7      1794.825          45.000  
R19  21984615.140 4 117602839.10024      4259.038          27.000  
E 4  25744129.014 6 135286289.744 6     -2360.799          37.000  
E14  21503329.250 7 113000735.600 7      2756.381          44.000  
E21  26629980.400 5 139941507.500 5     -1817.460          31.000  
E26  24799442.613 6 130321999.111 6      1102.939          41.000  
J 2  38952845.013 7 204698577.144 7        21.231          44.000  
J 3  37187745.141 6 195422941.620 6        13.267          40.000  
J 4  37464608.184 4 196877887.418 4      -277.668          27.000  
