     3.03           OBSERVATION DATA    M: Mixed            RINEX VERSION / TYPE
Emlid RGL 1.2.7                         20241128 085416 UTC PGM / RUN BY / DATE 
format: u-blox                                              COMMENT             
                                                            MARKER NAME         
                                                            MARKER NUMBER       
                                                            MARKER TYPE         
                                                            OBSERVER / AGENCY   
                    EMLID REACH M+                          REC # / TYPE / VERS 
                                                            ANT # / TYPE        
 -3035492.9669  4047946.6059  3870432.3500                  APPROX POSITION XYZ 
        0.0000        0.0000        0.0000                  ANTENNA: DELTA H/E/N
G    4 C1C L1C D1C S1C                                      SYS / # / OBS TYPES 
R    4 C1C L1C D1C S1C                                      SYS / # / OBS TYPES 
E    4 C1C L1C D1C S1C                                      SYS / # / OBS TYPES 
J    4 C1C L1C D1C S1C                                      SYS / # / OBS TYPES 
C    4 C1I L1I D1I S1I                                      SYS / # / OBS TYPES 
  2024    11    28     8    49   32.0000000     GPS         TIME OF FIRST OBS   
  2024    11    28     8    54   34.7930000     GPS         TIME OF LAST OBS    
G                                                           SYS / PHASE SHIFT   
R                                                           SYS / PHASE SHIFT   
E                                                           SYS / PHASE SHIFT   
J                                                           SYS / PHASE SHIFT   
C                                                           SYS / PHASE SHIFT   
  0                                                         GLONASS SLOT / FRQ #
 C1C    0.000 C1P    0.000 C2C    0.000 C2P    0.000        GLONASS COD/PHS/BIS 
                                                            END OF HEADER       
> 2024 11 28  8 49 32.0000000  0  3                     
G18  22532425.401 6 118408694.509 6     -2096.332          37.000  
G26  20704431.664 6 108802521.31816     -2511.981          39.000  
G31  21510317.270 6 113037480.091 6     -3440.522          40.000  
> 2024 11 28  8 49 32.2000000  0  3                     
G18  22532505.358 6 118409113.878 6     -2096.801          38.000  
G26  20704527.204 6 108803023.684 6     -2511.719          40.000  
G31  21510448.164 7 113038168.217 7     -3440.948          42.000  
> 2024 11 28  8 49 32.4000000  0  3                     
G18  22532585.158 6 118409533.199 6     -2097.035          37.000  
G26  20704622.866 6 108803526.031 6     -2511.938          38.000  
G31  21510579.111 6 113038856.275 6     -3440.648          40.000  
> 2024 11 28  8 49 32.6000000  0  3                     
G18  22532664.906 6 118409952.502 6     -2096.528          37.000  
G26  20704718.301 6 108804028.329 6     -2511.420          38.000  
G31  21510710.092 6 113039544.328 6     -3440.179          40.000  
> 2024 11 28  8 49 32.8000000  0  3                     
G18  22532744.566 6 118410371.825 6     -2096.393          37.000  
G26  20704813.876 6 108804530.654 6     -2511.658          38.000  
G31  21510840.951 6 113040232.374 6     -3440.338          40.000  
> 2024 11 28  8 49 33.0000000  0  3                     
G18  22532824.331 6 118410791.129 6     -2096.621          37.000  
G26  20704909.398 6 108805032.916 6     -2511.761          38.000  
G31  21510972.002 6 113040920.403 6     -3440.273          40.000  
> 2024 11 28  8 49 33.2000000  0  3                     
G18  22532904.148 6 118411210.442 6     -2096.451          36.000  
G26  20705004.851 6 108805535.172 6     -2511.554          38.000  
G31  21511103.001 6 113041608.396 6     -3439.813          40.000  
> 2024 11 28  8 49 33.4000000  0  3                     
G18  22532983.896 6 118411629.735 6     -2096.516          36.000  
G26  20705100.251 6 108806037.402 6     -2511.462          38.000  
G31  21511233.913 6 113042296.391 6     -3439.949          40.000  
> 2024 11 28  8 49 33.6000000  0  3                     
G18  22533063.678 6 118412049.065 6     -2096.794          36.000  
G26  20705195.826 6 108806539.631 6     -2510.907          38.000  
G31  21511364.912 6 113042984.407 6     -3440.494          40.000  
> 2024 11 28  8 49 33.8000000  0  3                     
G18  22533143.443 6 118412468.411 6     -2097.081          36.000  
G26  20705291.314 6 108807041.865 6     -2511.060          38.000  
G31  21511495.753 6 113043672.364 6     -3439.711          40.000  
> 2024 11 28  8 49 34.0000000  0  3                     
G18  22533223.225 5 118412887.702 5     -2096.353          33.000  
G26  20705386.819 6 108807544.065 6     -2510.791          36.000  
G31  21511626.700 6 113044360.357 6     -3439.696          38.000  
> 2024 11 28  8 49 34.2000000  0  3                     
G18  22533303.060 5 118413307.044 5     -2096.732          34.000  
G26  20705482.376 6 108808046.303 6     -2511.230          36.000  
G31  21511757.664 6 113045048.339 6     -3439.988          38.000  
> 2024 11 28  8 49 34.4000000  0  3                     
G18  22533382.877 5 118413726.356 5     -2096.724          34.000  
G26  20705577.986 6 108808548.488 6     -2511.133          36.000  
G31  21511888.715 6 113045736.271 6     -3439.608          38.000  
> 2024 11 28  8 49 34.6000000  0  3                     
G18  22533462.695 5 118414145.695 5     -2096.705          34.000  
G26  20705673.456 6 108809050.647 6     -2510.919          36.000  
G31  21512019.731 6 113046424.229 6     -3439.573          38.000  
> 2024 11 28  8 49 34.8000000  0  3                     
G18  22533542.442 6 118414565.036 6     -2097.192          37.000  
G26  20705769.031 6 108809552.812 6     -2510.565          39.000  
G31  21512150.730 6 113047112.170 6     -3439.713          41.000  
> 2024 11 28  8 49 35.0000000  0  3                     
G18  22533622.102 6 118414984.359 6     -2097.052          37.000  
G26  20705864.606 6 108810054.974 6     -2510.590          39.000  
G31  21512281.659 6 113047800.089 6     -3439.583          40.000  
> 2024 11 28  8 49 35.2000000  0  3                     
G18  22533701.867 6 118415403.702 6     -2096.490          37.000  
G26  20705960.146 6 108810557.132 6     -2510.773          38.000  
G31  21512412.623 6 113048488.019 6     -3439.547          40.000  
> 2024 11 28  8 49 35.4000000  0  3                     
G18  22533781.650 6 118415823.009 6     -2096.761          36.000  
G26  20706055.494 6 108811059.244 6     -2510.919          38.000  
G31  21512543.569 6 113049175.920 6     -3439.612          40.000  
> 2024 11 28  8 49 35.6000000  0  3                     
G18  22533861.415 6 118416242.374 6     -2096.807          36.000  
G26  20706151.034 6 108811561.330 6     -2510.309          38.000  
G31  21512674.516 6 113049863.814 6     -3439.310          40.000  
> 2024 11 28  8 49 35.8000000  0  3                     
G18  22533941.302 6 118416661.679 6     -2096.496          36.000  
G26  20706246.661 6 108812063.426 6     -2510.291          38.000  
G31  21512805.375 6 113050551.690 6     -3439.406          40.000  
> 2024 11 28  8 49 36.0000000  0  3                     
G18  22534021.119 6 118417080.985 6     -2096.726          36.000  
G26  20706342.148 6 108812565.466 6     -2510.370          38.000  
G31  21512936.234 6 113051239.507 6     -3439.015          40.000  
> 2024 11 28  8 49 36.2000000  0  3                     
G18  22534100.954 6 118417500.284 6     -2096.777          36.000  
G26  20706437.514 6 108813067.495 6     -2509.821          38.000  
G31  21513066.988 6 113051927.344 6     -3439.308          40.000  
> 2024 11 28  8 49 36.4000000  0  3                     
G18  22534180.858 6 118417919.623 6     -2096.704          36.000  
G26  20706533.124 6 108813569.558 6     -2510.455          38.000  
G31  21513197.917 6 113052615.190 6     -3439.192          40.000  
> 2024 11 28  8 49 36.6000000  0  3                     
G18  22534260.641 6 118418338.908 6     -2096.319          36.000  
G26  20706628.733 6 108814071.548 6     -2509.741          38.000  
G31  21513328.881 6 113053302.990 6     -3438.945          40.000  
> 2024 11 28  8 49 36.8000000  0  3                     
G18  22534340.441 6 118418758.227 6     -2096.116          36.000  
G26  20706724.343 6 108814573.553 6     -2509.723          38.000  
G31  21513459.740 6 113053990.794 6     -3438.564          40.000  
> 2024 11 28  8 49 37.0000000  0  3                     
G18  22534420.275 6 118419177.564 6     -2096.618          36.000  
G26  20706819.883 6 108815075.530 6     -2509.857          38.000  
G31  21513590.652 6 113054678.585 6     -3438.932          40.000  
> 2024 11 28  8 49 37.2000000  0  3                     
G18  22534500.058 6 118419596.900 6     -2097.061          36.000  
G26  20706915.493 6 108815577.529 6     -2510.242          38.000  
G31  21513721.598 6 113055366.374 6     -3438.821          40.000  
> 2024 11 28  8 49 37.4000000  0  3                     
G18  22534579.840 6 118420016.200 6     -2096.879          36.000  
G26  20707010.980 6 108816079.463 6     -2510.107          38.000  
G31  21513852.545 6 113056054.132 6     -3438.870          40.000  
> 2024 11 28  8 49 37.6000000  0  3                     
G18  22534659.483 6 118420435.476 6     -2096.470          36.000  
G26  20707106.555 6 108816581.391 6     -2509.467          38.000  
G31  21513983.456 6 113056741.865 6     -3438.549          40.000  
> 2024 11 28  8 49 37.8000000  0  3                     
G18  22534739.422 6 118420854.795 6     -2096.372          36.000  
G26  20707202.008 6 108817083.313 6     -2509.717          38.000  
G31  21514114.438 6 113057429.607 6     -3438.607          40.000  
> 2024 11 28  8 49 38.0000000  0  3                     
G18  22534819.292 6 118421274.138 6     -2097.460          36.000  
G26  20707297.583 6 108817585.222 6     -2510.034          38.000  
G31  21514245.332 6 113058117.351 6     -3439.175          40.000  
> 2024 11 28  8 49 38.2000000  0  3                     
G18  22534899.074 6 118421693.484 6     -2097.075          36.000  
G26  20707393.140 6 108818087.169 6     -2509.454          38.000  
G31  21514376.261 6 113058805.105 6     -3438.856          40.000  
> 2024 11 28  8 49 38.4000000  0  3                     
G18  22534978.944 6 118422112.846 6     -2097.004          36.000  
G26  20707488.575 6 108818589.109 6     -2509.601          38.000  
G31  21514507.015 6 113059492.847 6     -3438.523          40.000  
> 2024 11 28  8 49 38.6000000  0  3                     
G18  22535058.744 6 118422532.232 6     -2097.047          36.000  
G26  20707584.011 6 108819091.026 6     -2509.796          38.000  
G31  21514637.857 6 113060180.616 6     -3438.568          40.000  
> 2024 11 28  8 49 38.8000000  0  3                     
G18  22535138.526 6 118422951.591 6     -2096.599          36.000  
G26  20707679.463 6 108819592.956 6     -2509.595          38.000  
G31  21514768.681 6 113060868.395 6     -3438.894          40.000  
> 2024 11 28  8 49 39.0000000  0  3                     
G18  22535218.274 6 118423371.008 6     -2096.951          36.000  
G26  20707774.986 6 108820094.885 6     -2509.772          38.000  
G31  21514899.436 6 113061556.149 6     -3439.073          41.000  
> 2024 11 28  8 49 39.2000000  0  3                     
G18  22535298.004 6 118423790.440 6     -2097.111          36.000  
G26  20707870.526 6 108820596.811 6     -2509.576          38.000  
G31  21515030.382 6 113062243.908 6     -3439.022          41.000  
> 2024 11 28  8 49 39.4000000  0  3                     
G18  22535377.786 6 118424209.925 6     -2097.230          36.000  
G26  20707966.101 6 108821098.787 6     -2509.979          38.000  
G31  21515161.398 6 113062931.725 6     -3438.975          41.000  
> 2024 11 28  8 49 39.6000000  0  3                     
G18  22535457.638 6 118424629.408 6     -2097.952          36.000  
G26  20708061.693 6 108821600.736 6     -2509.882          39.000  
G31  21515292.397 6 113063619.518 6     -3439.050          41.000  
> 2024 11 28  8 49 39.8000000  0  3                     
G18  22535537.578 6 118425048.940 6     -2097.670          36.000  
G26  20708157.233 6 108822102.763 6     -2510.065          39.000  
G31  21515423.361 6 113064307.384 6     -3439.667          41.000  
> 2024 11 28  8 49 40.0000000  0  3                     
G18  22535617.325 6 118425468.489 6     -2097.566          36.000  
G26  20708252.773 6 108822604.738 6     -2509.912          39.000  
G31  21515554.325 6 113064995.231 6     -3439.305          41.000  
> 2024 11 28  8 49 40.2000000  0  3                     
G18  22535697.160 6 118425888.093 6     -2097.754          36.000  
G26  20708348.278 6 108823106.764 6     -2509.888          38.000  
G31  21515685.045 6 113065683.089 6     -3438.941          41.000  
> 2024 11 28  8 49 40.4000000  0  3                     
G18  22535776.943 6 118426307.656 6     -2098.094          36.000  
G26  20708443.835 6 108823608.712 6     -2509.924          38.000  
G31  21515815.921 6 113066370.908 6     -3439.033          41.000  
> 2024 11 28  8 49 40.6000000  0  3                     
G18  22535856.690 5 118426727.149 5     -2097.520          35.000  
G26  20708539.375 6 108824110.624 6     -2509.216          38.000  
G31  21515946.937 6 113067058.698 6     -3438.528          41.000  
> 2024 11 28  8 49 40.8000000  0  3                     
G18  22535936.368 5 118427146.662 5     -2097.384          35.000  
G26  20708634.793 6 108824612.543 6     -2509.412          38.000  
G31  21516077.779 6 113067746.446 6     -3438.570          41.000  
> 2024 11 28  8 49 41.0000000  0  3                     
G18  22536016.168 5 118427566.104 5     -2097.003          35.000  
G26  20708730.193 6 108825114.359 6     -2508.984          38.000  
G31  21516208.691 6 113068434.139 6     -3438.157          41.000  
> 2024 11 28  8 49 41.2000000  0  3                     
G18  22536096.020 5 118427985.505 5     -2096.699          35.000  
G26  20708825.698 6 108825616.112 6     -2508.716          38.000  
G31  21516339.602 6 113069121.773 6     -3438.386          41.000  
> 2024 11 28  8 49 41.4000000  0  3                     
G18  22536175.872 5 118428404.908 5     -2096.806          35.000  
G26  20708921.221 6 108826117.856 6     -2508.557          38.000  
G31  21516470.409 6 113069809.360 6     -3437.958          41.000  
> 2024 11 28  8 49 41.6000000  0  3                     
G18  22536255.619 5 118428824.250 5     -2096.617          35.000  
G26  20709016.639 6 108826619.557 6     -2508.398          38.000  
G31  21516601.355 6 113070496.942 6     -3437.781          41.000  
> 2024 11 28  8 49 41.8000000  0  3                     
G18  22536335.472 5 118429243.608 5     -2096.354          35.000  
G26  20709112.126 6 108827121.237 6     -2508.221          38.000  
G31  21516732.180 6 113071184.499 6     -3437.897          41.000  
> 2024 11 28  8 49 42.0000000  0  3                     
G18  22536415.359 5 118429662.943 5     -2096.507          35.000  
G26  20709207.631 6 108827622.890 6     -2508.643          39.000  
G31  21516863.004 6 113071872.021 6     -3437.812          41.000  
> 2024 11 28  8 49 42.2000000  0  3                     
G18  22536495.193 5 118430082.296 5     -2097.185          35.000  
G26  20709303.032 6 108828124.467 6     -2507.697          39.000  
G31  21516993.846 6 113072559.489 6     -3437.552          41.000  
> 2024 11 28  8 49 42.4000000  0  3                     
G18  22536574.906 6 118430501.560 6     -2096.712          36.000  
G26  20709398.449 6 108828626.028 6     -2507.501          39.000  
G31  21517124.653 6 113073246.932 6     -3437.214          41.000  
> 2024 11 28  8 49 42.6000000  0  3                     
G18  22536654.654 6 118430920.876 6     -2096.845          36.000  
G26  20709494.024 6 108829127.609 6     -2507.971          39.000  
G31  21517255.494 6 113073934.370 6     -3436.964          41.000  
> 2024 11 28  8 49 42.8000000  0  3                     
G18  22536734.506 6 118431340.172 6     -2096.430          36.000  
G26  20709589.512 6 108829629.178 6     -2507.996          39.000  
G31  21517386.301 6 113074621.819 6     -3436.989          41.000  
> 2024 11 28  8 49 43.0000000  0  3                     
G18  22536814.236 6 118431759.457 6     -2096.533          36.000  
G26  20709685.017 6 108830130.665 6     -2507.513          39.000  
G31  21517517.108 6 113075309.213 6     -3437.002          41.000  
> 2024 11 28  8 49 43.2000000  0  3                     
G18  22536894.071 6 118432178.758 6     -2096.686          36.000  
G26  20709780.487 6 108830632.161 6     -2507.318          38.000  
G31  21517647.880 6 113075996.612 6     -3437.108          40.000  
> 2024 11 28  8 49 43.4000000  0  3                     
G18  22536973.836 6 118432598.017 6     -2096.688          36.000  
G26  20709876.027 6 108831133.617 6     -2507.086          38.000  
G31  21517778.722 6 113076683.969 6     -3436.801          40.000  
> 2024 11 28  8 49 43.6000000  0  3                     
G18  22537053.705 6 118433017.343 6     -2097.047          36.000  
G26  20709971.514 6 108831635.122 6     -2507.434          38.000  
G31  21517909.546 6 113077371.362 6     -3436.997          39.000  
> 2024 11 28  8 49 43.8000000  0  3                     
G18  22537133.418 6 118433436.611 6     -2096.199          36.000  
G26  20710066.897 6 108832136.597 6     -2507.404          38.000  
G31  21518040.353 6 113078058.727 6     -3436.363          40.000  
> 2024 11 28  8 49 44.0000000  0  3                     
G18  22537213.165 6 118433855.923 6     -2096.383          36.000  
G26  20710162.507 6 108832638.063 6     -2507.812          38.000  
G31  21518171.142 6 113078746.107 6     -3436.869          39.000  
> 2024 11 28  8 49 44.2000000  0  3                     
G18  22537293.017 5 118434275.267 5     -2096.857          35.000  
G26  20710257.907 6 108833139.486 6     -2507.281          38.000  
G31  21518301.879 6 113079433.448 6     -3436.429          39.000  
> 2024 11 28  8 49 44.4000000  0  3                     
G18  22537372.817 5 118434694.560 5     -2096.787          35.000  
G26  20710353.378 6 108833640.924 6     -2507.172          38.000  
G31  21518432.634 6 113080120.805 6     -3436.696          39.000  
> 2024 11 28  8 49 44.6000000  0  3                     
G18  22537452.600 5 118435113.875 5     -2096.608          35.000  
G26  20710448.883 6 108834142.333 6     -2507.043          38.000  
G31  21518563.388 6 113080808.123 6     -3436.674          39.000  
> 2024 11 28  8 49 44.8000000  0  3                     
G18  22537532.330 6 118435533.193 6     -2096.725          36.000  
G26  20710544.475 6 108834643.751 6     -2507.043          38.000  
G31  21518694.300 6 113081495.443 6     -3436.495          39.000  
> 2024 11 28  8 49 45.0000000  0  3                     
G18  22537612.077 6 118435952.493 6     -2096.505          36.000  
G26  20710639.928 6 108835145.134 6     -2506.799          38.000  
G31  21518825.037 6 113082182.753 6     -3436.361          39.000  
> 2024 11 28  8 49 45.2000000  0  3                     
G18  22537691.877 6 118436371.793 6     -2097.100          36.000  
G26  20710735.380 6 108835646.496 6     -2506.775          38.000  
G31  21518955.721 6 113082870.057 6     -3436.951          39.000  
> 2024 11 28  8 49 45.4000000  0  3                     
G18  22537771.712 6 118436791.083 6     -2096.453          36.000  
G26  20710830.816 6 108836147.848 6     -2506.293          37.000  
G31  21519086.598 6 113083557.315 6     -3436.410          39.000  
> 2024 11 28  8 49 45.6000000  0  3                     
G18  22537851.616 6 118437210.375 6     -2095.927          36.000  
G26  20710926.164 6 108836649.230 6     -2506.891          38.000  
G31  21519217.440 6 113084244.592 6     -3436.115          39.000  
> 2024 11 28  8 49 45.8000000  0  3                     
G18  22537931.503 6 118437629.643 6     -2096.061          36.000  
G26  20711021.529 6 108837150.477 6     -2506.049          39.000  
G31  21519348.212 6 113084931.834 6     -3435.889          39.000  
> 2024 11 28  8 49 46.0000000  0  3                     
G18  22538011.303 6 118438048.918 6     -2096.497          36.000  
G26  20711116.929 6 108837651.745 6     -2506.152          39.000  
G31  21519478.931 6 113085619.043 6     -3435.874          39.000  
> 2024 11 28  8 49 46.2000000  0  3                     
G18  22538091.103 5 118438468.172 5     -2096.431          35.000  
G26  20711212.417 6 108838153.002 6     -2506.036          39.000  
G31  21519609.773 6 113086306.228 6     -3435.825          39.000  
> 2024 11 28  8 49 46.4000000  0  3                     
G18  22538170.851 5 118438887.444 5     -2096.779          35.000  
G26  20711307.835 6 108838654.206 6     -2505.951          39.000  
G31  21519740.440 6 113086993.391 6     -3435.530          40.000  
> 2024 11 28  8 49 46.6000000  0  3                     
G18  22538250.633 5 118439306.620 5     -2095.282          35.000  
G26  20711403.287 6 108839155.383 6     -2505.457          39.000  
G31  21519871.230 6 113087680.521 6     -3435.736          41.000  
> 2024 11 28  8 49 46.8000000  0  3                     
G18  22538330.485 5 118439725.840 5     -2096.207          35.000  
G26  20711498.618 6 108839656.535 6     -2505.505          39.000  
G31  21520002.019 6 113088367.608 6     -3435.249          41.000  
> 2024 11 28  8 49 47.0000000  0  3                     
G18  22538410.268 5 118440145.030 5     -2095.830          35.000  
G26  20711594.001 6 108840157.687 6     -2506.085          39.000  
G31  21520132.739 6 113089054.705 6     -3435.236          41.000  
> 2024 11 28  8 49 47.2000000  0  3                     
G18  22538490.155 5 118440564.249 5     -2095.490          35.000  
G26  20711689.419 6 108840658.833 6     -2506.042          39.000  
G31  21520263.685 6 113089741.813 6     -3435.482          40.000  
> 2024 11 28  8 49 47.4000000  0  3                     
G18  22538569.972 5 118440983.466 5     -2095.736          35.000  
G26  20711784.836 6 108841159.942 6     -2505.432          39.000  
G31  21520394.370 6 113090428.883 6     -3435.323          40.000  
> 2024 11 28  8 49 47.6000000  0  3                     
G18  22538649.685 5 118441402.682 5     -2095.676          35.000  
G26  20711880.237 6 108841661.042 6     -2505.634          39.000  
G31  21520525.142 6 113091115.925 6     -3435.276          40.000  
> 2024 11 28  8 49 47.8000000  0  3                     
G18  22538729.432 5 118441821.935 5     -2096.110          35.000  
G26  20711975.602 6 108842162.136 6     -2505.481          39.000  
G31  21520655.931 6 113091802.995 6     -3435.170          40.000  
> 2024 11 28  8 49 48.0000000  0  3                     
G18  22538809.232 5 118442241.186 5     -2096.361          35.000  
G26  20712070.968 6 108842663.228 6     -2505.145          39.000  
G31  21520786.546 6 113092490.081 6     -3435.576          40.000  
> 2024 11 28  8 49 48.2000000  0  3                     
G18  22538889.102 5 118442660.429 5     -2096.164          35.000  
G26  20712166.385 6 108843164.334 6     -2505.109          39.000  
G31  21520917.492 6 113093177.132 6     -3435.118          40.000  
> 2024 11 28  8 49 48.4000000  0  3                     
G18  22538968.884 5 118443079.690 5     -2096.240          35.000  
G26  20712261.873 6 108843665.439 6     -2505.804          39.000  
G31  21521048.317 6 113093864.190 6     -3435.234          40.000  
> 2024 11 28  8 49 48.6000000  0  3                     
G18  22539048.771 5 118443498.960 5     -2096.605          35.000  
G26  20712357.343 6 108844166.500 6     -2505.469          39.000  
G31  21521179.089 6 113094551.247 6     -3435.305          40.000  
> 2024 11 28  8 49 48.8000000  0  3                     
G18  22539128.536 5 118443918.226 5     -2096.073          35.000  
G26  20712452.883 6 108844667.543 6     -2504.895          39.000  
G31  21521309.826 6 113095238.285 6     -3435.170          40.000  
> 2024 11 28  8 49 49.0000000  0  3                     
G18  22539208.406 5 118444337.462 5     -2096.314          35.000  
G26  20712548.266 6 108845168.568 6     -2504.669          39.000  
G31  21521440.388 6 113095925.287 6     -3434.749          40.000  
> 2024 11 28  8 49 49.2000000  0  3                     
G18  22539288.136 5 118444756.682 5     -2096.258          35.000  
G26  20712643.614 6 108845669.557 6     -2504.852          39.000  
G31  21521571.265 6 113096612.247 6     -3434.999          40.000  
> 2024 11 28  8 49 49.4000000  0  3                     
G18  22539367.970 5 118445175.888 5     -2096.120          35.000  
G26  20712738.997 6 108846170.527 6     -2504.565          39.000  
G31  21521701.723 6 113097299.197 6     -3434.524          40.000  
> 2024 11 28  8 49 49.6000000  0  3                     
G18  22539447.701 5 118445595.102 5     -2095.995          35.000  
G26  20712834.572 6 108846671.487 6     -2504.749          39.000  
G31  21521832.425 6 113097986.135 6     -3434.721          40.000  
> 2024 11 28  8 49 49.8000000  0  3                     
G18  22539527.413 5 118446014.308 5     -2096.126          35.000  
G26  20712929.832 6 108847172.415 6     -2504.785          39.000  
G31  21521963.022 6 113098673.058 6     -3434.465          40.000  
> 2024 11 28  8 49 50.0000000  0  3                     
G18  22539607.248 5 118446433.516 5     -2095.860          35.000  
G26  20713025.076 6 108847673.317 6     -2504.547          39.000  
G31  21522093.811 6 113099359.961 6     -3434.348          40.000  
> 2024 11 28  8 49 50.2000000  0  3                     
G18  22539687.152 5 118446852.733 5     -2096.339          35.000  
G26  20713120.546 6 108848174.199 6     -2504.395          39.000  
G31  21522224.636 6 113100046.848 6     -3434.258          40.000  
> 2024 11 28  8 49 50.4000000  0  3                     
G18  22539767.005 5 118447271.936 5     -2096.860          35.000  
G26  20713215.876 6 108848675.080 6     -2504.559          39.000  
G31  21522355.443 6 113100733.731 6     -3434.441          40.000  
> 2024 11 28  8 49 50.6000000  0  3                     
G18  22539846.735 5 118447691.132 5     -2096.310          35.000  
G26  20713311.155 6 108849175.960 6     -2504.260          39.000  
G31  21522486.145 6 113101420.612 6     -3434.331          40.000  
> 2024 11 28  8 49 50.8000000  0  3                     
G18  22539926.465 5 118448110.335 5     -2096.389          35.000  
G26  20713406.625 6 108849676.818 6     -2504.608          39.000  
G31  21522616.725 6 113102107.476 6     -3434.374          41.000  
> 2024 11 28  8 49 51.0000000  0  3                     
G18  22540006.317 5 118448529.522 5     -2095.966          35.000  
G26  20713502.008 6 108850177.638 6     -2504.193          39.000  
G31  21522747.340 6 113102794.297 6     -3434.262          41.000  
> 2024 11 28  8 49 51.2000000  0  3                     
G18  22540086.117 5 118448948.721 5     -2096.043          35.000  
G26  20713597.338 6 108850678.455 6     -2504.059          39.000  
G31  21522878.024 6 113103481.116 6     -3433.929          41.000  
> 2024 11 28  8 49 51.4000000  0  3                     
G18  22540166.021 5 118449367.939 5     -2095.981          35.000  
G26  20713692.581 6 108851179.288 6     -2504.041          39.000  
G31  21523008.691 6 113104167.960 6     -3434.236          41.000  
> 2024 11 28  8 49 51.6000000  0  3                     
G18  22540245.734 6 118449787.185 6     -2096.496          36.000  
G26  20713787.964 6 108851680.106 6     -2503.998          39.000  
G31  21523139.533 6 113104854.787 6     -3434.009          41.000  
> 2024 11 28  8 49 51.8000000  0  3                     
G18  22540325.569 6 118450206.436 6     -2096.896          36.000  
G26  20713883.208 6 108852180.924 6     -2503.925          39.000  
G31  21523270.148 6 113105541.628 6     -3434.460          39.000  
> 2024 11 28  8 49 52.0000000  0  3                     
G18  22540405.386 6 118450625.693 6     -2096.254          36.000  
G26  20713978.538 6 108852681.787 6     -2504.150          39.000  
G31  21523400.833 6 113106228.507 6     -3434.503          39.000  
> 2024 11 28  8 49 52.2000000  0  3                     
G18  22540485.256 6 118451045.008 6     -2097.033          36.000  
G26  20714073.816 6 108853182.592 6     -2504.468          39.000  
G31  21523531.535 6 113106915.365 6     -3434.908          39.000  
> 2024 11 28  8 49 52.4000000  0  3                     
G18  22540565.178 5 118451464.305 5     -2097.177          35.000  
G26  20714169.007 6 108853683.425 6     -2504.034          39.000  
G31  21523662.307 6 113107602.227 6     -3433.744          41.000  
> 2024 11 28  8 49 52.6000000  0  3                     
G18  22540644.960 6 118451883.612 6     -2096.194          36.000  
G26  20714264.285 6 108854184.303 6     -2504.187          39.000  
G31  21523792.869 6 113108289.114 6     -3434.439          40.000  
> 2024 11 28  8 49 52.8000000  0  3                     
G18  22540724.638 6 118452302.977 6     -2096.203          36.000  
G26  20714359.511 6 108854685.156 6     -2504.156          39.000  
G31  21523923.641 6 113108976.044 6     -3434.524          40.000  
> 2024 11 28  8 49 53.0000000  0  3                     
G18  22540804.455 5 118452722.459 5     -2097.936          33.000  
G26  20714454.790 6 108855185.947 6     -2504.688          37.000  
G31  21524054.448 6 113109662.935 6     -3434.801          40.000  
> 2024 11 28  8 49 53.2000000  0  3                     
G18  22540884.290 5 118453141.850 5     -2096.418          33.000  
G26  20714550.050 6 108855686.777 6     -2504.327          37.000  
G31  21524185.185 6 113110349.950 6     -3433.966          40.000  
> 2024 11 28  8 49 53.4000000  0  3                     
G18  22540964.124 5 118453561.335 5     -2097.425          33.000  
G26  20714645.503 5 108856187.706 5     -2505.786          34.000  
G31  21524315.887 6 113111036.870 6     -3435.482          38.000  
> 2024 11 28  8 49 53.6000000  0  3                     
G18  22541043.802 6 118453980.685 6     -2096.578          36.000  
G26  20714740.799 5 108856688.616 5     -2505.444          34.000  
G31  21524446.781 6 113111723.738 6     -3434.496          40.000  
> 2024 11 28  8 49 53.8000000  0  3                     
G18  22541123.445 6 118454400.094 6     -2096.633          36.000  
G26  20714836.129 6 108857189.535 6     -2504.321          36.000  
G31  21524577.553 6 113112410.653 6     -3434.681          40.000  
> 2024 11 28  8 49 54.0000000  0  3                     
G18  22541203.158 6 118454819.421 6     -2095.878          38.000  
G26  20714931.285 6 108857690.373 6     -2503.339          38.000  
G31  21524708.430 6 113113097.506 6     -3434.606          40.000  
> 2024 11 28  8 49 54.2000000  0  3                     
G18  22541283.114 6 118455238.849 6     -2097.126          36.000  
G26  20715026.738 6 108858191.244 6     -2504.535          40.000  
G31  21524839.132 6 113113784.355 6     -3433.927          40.000  
> 2024 11 28  8 49 54.4000000  0  3                     
G18  22541362.967 4 118455657.833 4     -2094.320          29.000  
G26  20715121.981 6 108858691.955 6     -2503.265          38.000  
G31  21524969.974 6 113114471.199 6     -3434.042          40.000  
> 2024 11 28  8 49 54.6000000  0  3                     
G18  22541443.307 4               4     -2101.953          28.000  
G26  20715217.451 6 108859192.712 6     -2503.333          40.000  
G31  21525100.693 6 113115157.999 6     -3434.043          40.000  
> 2024 11 28  8 49 54.8000000  0  3                     
G18  22541522.933 3               3     -2099.986          21.000  
G26  20715312.712 6 108859693.370 6     -2503.302          39.000  
G31  21525231.413 7 113115844.739 7     -3433.979          42.000  
> 2024 11 28  8 49 55.0000000  0  3                     
G18  22541602.209 3               3     -2095.089          22.000  
G26  20715408.043 6 108860194.076 6     -2502.814          39.000  
G31  21525362.115 6 113116531.476 6     -3433.382          40.000  
> 2024 11 28  8 49 55.2000000  0  3                     
G18  22541681.730 5               5     -2094.649          34.000  
G26  20715503.425 6 108860694.757 6     -2503.503          37.000  
G31  21525492.887 6 113117218.195 6     -3432.972          40.000  
> 2024 11 28  8 49 55.4000000  0  3                     
G18  22541761.983 5               5     -2096.965          34.000  
G26  20715598.756 6 108861195.435 6     -2504.059          37.000  
G31  21525623.642 7 113117904.967 7     -3434.205          42.000  
> 2024 11 28  8 49 55.6000000  0  3                     
G18  22541837.770 5               5     -2095.904          34.000  
G26  20715693.999 6 108861696.098 6     -2503.363          37.000  
G31  21525754.344 7 113118591.693 7     -3433.776          42.000  
> 2024 11 28  8 49 55.8000000  0  3                     
G18  22541916.732 5 118458575.41735     -2097.365          34.000  
G26  20715789.173 6 108862196.767 6     -2503.705          37.000  
G31  21525885.063 7 113119278.449 7     -3433.740          42.000  
> 2024 11 28  8 49 56.0000000  0  3                     
G18  22541998.504 5 118458994.88125     -2097.692          33.000  
G26  20715884.346 6 108862697.479 6     -2503.497          37.000  
G31  21526015.905 7 113119965.249 7     -3434.818          42.000  
> 2024 11 28  8 49 56.2000000  0  3                     
G18  22542076.332 5 118459414.35925     -2097.250          33.000  
G26  20715979.537 6 108863198.162 6     -2502.728          37.000  
G31  21526146.502 7 113120651.988 7     -3433.488          42.000  
> 2024 11 28  8 49 56.4000000  0  3                     
G18  22542157.301 4 118459833.64824     -2095.229          29.000  
G26  20716074.833 6 108863698.893 6     -2503.430          37.000  
G31  21526277.292 7 113121338.798 7     -3434.074          43.000  
> 2024 11 28  8 49 56.6000000  0  3                     
G18  22542235.669 4 118460253.16424     -2097.483          29.000  
G26  20716170.128 6 108864199.602 6     -2504.089          37.000  
G31  21526408.099 7 113122025.549 7     -3434.104          42.000  
> 2024 11 28  8 49 56.8000000  0  3                     
G18  22542314.702 4 118460672.69524     -2097.575          28.000  
G26  20716265.529 6 108864700.224 6     -2503.497          37.000  
G31  21526538.731 7 113122712.318 7     -3433.850          43.000  
> 2024 11 28  8 49 57.0000000  0  3                     
G18  22542395.112 4 118461092.10324     -2096.544          28.000  
G26  20716360.772 6 108865200.840 6     -2503.015          36.000  
G31  21526669.468 7 113123399.027 7     -3433.730          42.000  
> 2024 11 28  8 49 57.2000000  0  3                     
G18  22542474.546 4 118461511.51024     -2097.018          28.000  
G26  20716455.946 6 108865701.377 6     -2502.100          36.000  
G31  21526800.100 6 113124085.701 6     -3433.467          41.000  
> 2024 11 28  8 49 57.4000000  0  3                     
G18  22542551.152 4 118461930.88224     -2096.726          29.000  
G26  20716551.137 6 108866201.905 6     -2501.935          36.000  
G31  21526930.820 6 113124772.298 6     -3432.798          41.000  
> 2024 11 28  8 49 57.6000000  0  3                     
G18  22542631.755 4 118462350.21224     -2097.944          29.000  
G26  20716646.450 6 108866702.354 6     -2502.155          36.000  
G31  21527061.505 7 113125458.851 7     -3432.379          42.000  
> 2024 11 28  8 49 57.8000000  0  3                     
G18  22542712.811 5 118462769.43425     -2096.774          30.000  
G26  20716741.623 6 108867202.740 6     -2502.032          36.000  
G31  21527192.224 7 113126145.355 7     -3432.494          42.000  
> 2024 11 28  8 49 58.0000000  0  3                     
G18  22542794.181 5 118463188.61825     -2096.720          30.000  
G26  20716836.866 6 108867703.035 6     -2501.318          36.000  
G31  21527322.926 7 113126831.749 7     -3431.752          42.000  
> 2024 11 28  8 49 58.2000000  0  3                     
G18  22542871.206 5 118463607.69625     -2095.848          31.000  
G26  20716932.110 6 108868203.260 6     -2500.946          36.000  
G31  21527453.506 7 113127518.107 7     -3431.655          42.000  
> 2024 11 28  8 49 58.4000000  0  3                     
G18  22542950.308 5 118464026.83025     -2095.747          31.000  
G26  20717027.318 6 108868703.466 6     -2500.708          36.000  
G31  21527583.982 7 113128204.398 7     -3431.339          42.000  
> 2024 11 28  8 49 58.6000000  0  3                     
G18  22543032.185 5 118464445.81225     -2094.715          31.000  
G26  20717122.404 6 108869203.594 6     -2501.166          36.000  
G31  21527714.596 7 113128890.618 7     -3431.035          42.000  
> 2024 11 28  8 49 58.8000000  0  3                     
G18  22543113.241 5 118464864.89025     -2095.302          31.000  
G26  20717217.421 6 108869703.679 6     -2500.787          36.000  
G31  21527845.316 7 113129576.847 7     -3431.039          42.000  
> 2024 11 28  8 49 59.0000000  0  3                     
G18  22543190.982 5 118465283.88625     -2094.713          32.000  
G26  20717312.490 6 108870203.735 6     -2500.220          36.000  
G31  21527975.739 7 113130263.028 7     -3430.853          42.000  
> 2024 11 28  8 49 59.2000000  0  3                     
G18  22543273.853 5 118465702.88325     -2094.757          31.000  
G26  20717407.576 6 108870703.782 6     -2500.317          36.000  
G31  21528106.371 7 113130949.183 7     -3430.836          42.000  
> 2024 11 28  8 49 59.4000000  0  3                     
G18  22543349.691 5 118466121.82725     -2094.115          31.000  
G26  20717502.610 6 108871203.765 6     -2499.536          36.000  
G31  21528236.916 7 113131635.283 7     -3430.305          42.000  
> 2024 11 28  8 49 59.6000000  0  3                     
G18  22543429.491 5 118466540.78525     -2094.189          31.000  
G26  20717597.644 6 108871703.722 6     -2499.683          36.000  
G31  21528367.496 7 113132321.375 7     -3430.490          42.000  
> 2024 11 28  8 49 59.8000000  0  3                     
G18  22543511.054 5 118466959.80825     -2094.904          31.000  
G26  20717692.695 6 108872203.640 6     -2499.561          36.000  
G31  21528498.111 7 113133007.439 7     -3430.320          42.000  
> 2024 11 28  8 50  0.0000000  0  3                     
G18  22543589.771 5 118467378.76525     -2095.618          30.000  
G26  20717787.694 5 108872703.571 5     -2499.011          35.000  
G31  21528628.691 7 113133693.491 7     -3430.212          42.000  
> 2024 11 28  8 50  0.2000000  0  4                     
G18  22543670.932 5 118467797.64625     -2093.916          30.000  
G26  20717882.815 5 108873203.553 5     -2500.085          35.000  
G27  17800275.442 4               4      -493.252          25.000  
G31  21528759.254 7 113134379.572 7     -3430.651          42.000  
> 2024 11 28  8 50  0.3930000  0  4                     
G18  22543746.492 5 118468202.00125     -2094.415          30.000  
G26  20717974.568 5 108873685.920 5     -2499.242          35.000  
G27  17800293.485 4               4      -494.407          25.000  
G31  21528885.209 7 113135041.597 7     -3430.027          42.000  
> 2024 11 28  8 50  0.5930000  0  4                     
G18  22543824.756 5 118468620.90625     -2093.970          30.000  
G26  20718069.707 5 108874185.841 5     -2499.363          35.000  
G27  17800312.297 4               4      -494.662          25.000  
G31  21529015.737 7 113135727.640 7     -3430.200          42.000  
> 2024 11 28  8 50  0.7930000  0  4                     
G18  22543906.999 5 118469039.82225     -2093.523          30.000  
G26  20718164.776 5 108874685.720 5     -2499.423          35.000  
G27  17800329.869 4               4      -493.918          25.000  
G31  21529146.230 7 113136413.670 7     -3430.053          42.000  
> 2024 11 28  8 50  0.9930000  0  4                     
G18  22543987.392 5 118469458.78625     -2092.291          30.000  
G26  20718259.897 5 108875185.523 5     -2498.914          35.000  
G27  17800348.872 4               4      -493.508          26.000  
G31  21529276.845 7 113137099.637 7     -3429.749          42.000  
> 2024 11 28  8 50  1.1930000  0  4                     
G18  22544068.082 5 118469877.74825     -2093.974          30.000  
G26  20718355.035 5 108875685.322 5     -2499.395          35.000  
G27  17800366.235 4               4      -492.948          26.000  
G31  21529407.407 7 113137785.579 7     -3429.927          42.000  
> 2024 11 28  8 50  1.3930000  0  5                     
G16  18868569.972 4               4     -1607.215          26.000  
G18  22544148.056 5 118470296.62725     -2093.252          30.000  
G26  20718450.156 5 108876185.084 5     -2498.945          35.000  
G27  17800383.825 4               4      -492.783          25.000  
G31  21529537.813 7 113138471.512 7     -3429.918          42.000  
> 2024 11 28  8 50  1.5930000  0  5                     
G16  18868631.658 4               4     -1607.523          26.000  
G18  22544230.421 5 118470715.64625     -2095.758          30.000  
G26  20718545.278 6 108876684.897 6     -2499.315          36.000  
G27  17800401.049 4               4      -495.342          25.000  
G31  21529668.253 7 113139157.459 7     -3429.873          42.000  
> 2024 11 28  8 50  1.7930000  0  5                     
G16  18868693.449 4               4     -1608.091          26.000  
G18  22544307.988 5 118471134.60125     -2095.042          30.000  
G26  20718640.311 6 108877184.715 6     -2499.462          36.000  
G27  17800418.394 4               4      -493.597          25.000  
G31  21529798.746 7 113139843.459 7     -3429.894          42.000  
> 2024 11 28  8 50  1.9930000  0  5                     
G16  18868754.281 4               4     -1607.229          26.000  
G18  22544388.538 5 118471553.50825     -2094.293          31.000  
G26  20718735.293 6 108877684.520 6     -2498.703          36.000  
G27  17800436.839 4               4      -493.347          25.000  
G31  21529929.169 7 113140529.400 7     -3429.638          42.000  
> 2024 11 28  8 50  2.1930000  0  5                     
G16  18868815.060 4               4     -1607.047          26.000  
G18  22544467.954 5 118471972.52325     -2094.780          31.000  
G26  20718830.275 6 108878184.274 6     -2498.654          36.000  
G27  17800454.534 4               4      -493.515          25.000  
G31  21530059.679 7 113141215.321 7     -3429.603          42.000  
> 2024 11 28  8 50  2.3930000  0  5                     
G16  18868875.647 4               4     -1607.395          26.000  
G18  22544545.921 5 118472391.41425     -2094.112          31.000  
G26  20718925.448 6 108878684.022 6     -2498.916          36.000  
G27  17800473.205 4               4      -493.689          25.000  
G31  21530190.137 7 113141901.214 7     -3429.456          42.000  
> 2024 11 28  8 50  2.5930000  0  5                     
G16  18868937.299 4               4     -1607.345          26.000  
G18  22544625.791 5 118472810.34725     -2094.876          30.000  
G26  20719020.464 6 108879183.719 6     -2498.782          36.000  
G27  17800491.196 4               4      -493.968          25.000  
G31  21530320.717 7 113142587.100 7     -3429.444          42.000  
> 2024 11 28  8 50  2.7930000  0  5                     
G16  18868997.450 4               4     -1606.326          26.000  
G18  22544705.765 5 118473229.25425     -2094.220          30.000  
G26  20719115.481 6 108879683.406 6     -2498.483          36.000  
G27  17800509.327 4               4      -494.078          25.000  
G31  21530451.244 7 113143272.957 7     -3429.379          42.000  
> 2024 11 28  8 50  2.9930000  0  5                     
G16  18869057.409 4               4     -1607.520          26.000  
G18  22544787.415 5 118473648.15525     -2093.824          30.000  
G26  20719210.410 5 108880183.078 5     -2497.822          35.000  
G27  17800528.139 4               4      -493.800          25.000  
G31  21530581.789 6 113143958.813 6     -3429.253          40.000  
> 2024 11 28  8 50  3.1930000  0  5                     
G16  18869119.339 4               4     -1606.325          26.000  
G18  22544864.545 5 118474067.08525     -2094.396          30.000  
G26  20719305.357 6 108880682.720 6     -2498.192          36.000  
G27  17800546.182 4               4      -493.829          25.000  
G31  21530712.265 6 113144644.628 6     -3429.084          40.000  
> 2024 11 28  8 50  3.3930000  0  5                     
G16  18869180.154 4               4     -1607.081          26.000  
G18  22544944.345 5 118474486.02125     -2094.766          30.000  
G26  20719400.513 6 108881182.351 6     -2498.108          36.000  
G27  17800564.138 4               4      -491.799          25.000  
G31  21530842.792 7 113145330.432 7     -3429.004          42.000  
> 2024 11 28  8 50  3.5930000  0  5                     
G16  18869239.397 4               4     -1604.886          26.000  
G18  22545024.773 5 118474904.90425     -2094.153          30.000  
G26  20719495.599 6 108881681.946 6     -2497.763          36.000  
G27  17800582.147 4               4      -493.154          25.000  
G31  21530973.093 6 113146016.215 6     -3428.851          41.000  
> 2024 11 28  8 50  3.7930000  0  5                     
G16  18869301.223 4               4     -1606.374          26.000  
G18  22545104.328 4 118475323.76224     -2094.193          29.000  
G26  20719590.720 6 108882181.507 6     -2498.230          36.000  
G27  17800600.609 4               4      -494.216          25.000  
G31  21531103.533 7 113146701.967 7     -3428.734          42.000  
> 2024 11 28  8 50  3.9930000  0  5                     
G16  18869361.793 4               4     -1606.734          26.000  
G18  22545182.767 4 118475742.68724     -2094.847          29.000  
G26  20719685.806 6 108882681.052 6     -2497.387          36.000  
G27  17800618.461 4               4      -493.734          25.000  
G31  21531234.096 7 113147387.720 7     -3428.834          42.000  
> 2024 11 28  8 50  4.1930000  0  5                     
G16  18869423.095 4               4     -1605.821          26.000  
G18  22545262.654 4 118476161.50824     -2093.827          29.000  
G26  20719780.997 6 108883180.641 6     -2498.125          36.000  
G27  17800637.150 4               4      -494.559          25.000  
G31  21531364.624 6 113148073.463 6     -3428.681          41.000  
> 2024 11 28  8 50  4.3930000  0  5                     
G16  18869484.328 4               4     -1606.619          26.000  
G18  22545342.559 4 118476580.45024     -2094.485          29.000  
G26  20719875.944 6 108883680.186 6     -2498.263          36.000  
G27  17800655.176 4               4      -493.967          25.000  
G31  21531495.134 6 113148759.232 6     -3428.858          41.000  
> 2024 11 28  8 50  4.5930000  0  5                     
G16  18869544.444 4               4     -1606.824          26.000  
G18  22545422.498 4 118476999.44424     -2094.965          29.000  
G26  20719971.013 6 108884179.729 6     -2497.808          36.000  
G27  17800672.801 4               4      -494.289          25.000  
G31  21531625.557 6 113149444.978 6     -3428.724          41.000  
> 2024 11 28  8 50  4.7930000  0  5                     
G16  18869605.764 4               4     -1606.094          26.000  
G18  22545502.054 5 118477418.33125     -2094.492          30.000  
G26  20720066.029 6 108884679.284 6     -2497.418          36.000  
G27  17800692.240 4               4      -494.003          25.000  
G31  21531756.067 6 113150130.741 6     -3428.655          41.000  
> 2024 11 28  8 50  4.9930000  0  5                     
G16  18869666.456 4               4     -1606.038          26.000  
G18  22545582.325 5 118477837.27025     -2094.739          30.000  
G26  20720161.133 6 108885178.849 6     -2497.909          36.000  
G27  17800710.720 4               4      -494.036          25.000  
G31  21531886.525 6 113150816.485 6     -3428.477          41.000  
> 2024 11 28  8 50  5.1930000  0  5                     
G16  18869727.008 4               4     -1606.446          27.000  
G18  22545663.276 5 118478256.20025     -2094.596          30.000  
G26  20720256.324 6 108885678.356 6     -2498.022          36.000  
G27  17800728.293 4               4      -495.156          25.000  
G31  21532016.930 6 113151502.225 6     -3428.761          41.000  
> 2024 11 28  8 50  5.3930000  0  5                     
G16  18869788.259 4               4     -1605.353          27.000  
G18  22545742.727 4 118478675.13924     -2094.799          29.000  
G26  20720351.410 6 108886177.849 6     -2497.587          36.000  
G27  17800746.301 4               4      -495.160          25.000  
G31  21532147.458 6 113152187.915 6     -3428.437          41.000  
> 2024 11 28  8 50  5.5930000  0  5                     
G16  18869850.800 4               4     -1605.572          27.000  
G18  22545822.928 5 118479094.09225     -2094.881          30.000  
G26  20720446.461 6 108886677.325 6     -2497.268          36.000  
G27  17800764.397 4               4      -494.027          25.000  
G31  21532277.881 6 113152873.623 6     -3428.639          41.000  
> 2024 11 28  8 50  5.7930000  0  5                     
G16  18869911.876 4               4     -1605.850          27.000  
G18  22545901.559 5 118479512.95825     -2094.376          30.000  
G26  20720541.565 6 108887176.781 6     -2496.703          36.000  
G27  17800783.156 4               4      -494.287          25.000  
G31  21532408.408 6 113153559.270 6     -3428.050          41.000  
> 2024 11 28  8 50  5.9930000  0  6                     
G 4  20304977.229 4               4     -2462.287          24.000  
G16  18869972.341 4               4     -1606.139          27.000  
G18  22545980.504 5 118479931.86725     -2094.251          30.000  
G26  20720636.756 6 108887676.239 6     -2497.773          36.000  
G27  17800801.322 4               4      -492.976          25.000  
G31  21532538.901 6 113154244.919 6     -3428.024          41.000  
> 2024 11 28  8 50  6.1930000  0  6                     
G 4  20305070.360 4               4     -2462.287          24.000  
G16  18870034.150 4               4     -1605.370          26.000  
G18  22546060.077 4 118480350.22114     -2092.809          29.000  
G26  20720731.825 6 108888175.611 6     -2497.049          36.000  
G27  17800820.779 4               4      -496.367          25.000  
G31  21532669.341 6 113154930.538 6     -3427.904          41.000  
> 2024 11 28  8 50  6.3930000  0  6                     
G 4  20305168.291 4               4     -2462.287          24.000  
G16  18870095.278 4               4     -1605.254          27.000  
G18  22546143.105 4 118480769.142 4     -2094.213          29.000  
G26  20720826.859 6 108888674.998 6     -2496.506          36.000  
G27  17800839.660 4               4      -495.690          25.000  
G31  21532799.834 6 113155616.139 6     -3428.091          41.000  
> 2024 11 28  8 50  6.5930000  0  6                     
G 4  20305258.962 3               3     -2462.287          23.000  
G16  18870156.022 4               4     -1605.971          26.000  
G18  22546221.055 4 118481188.024 4     -2095.641          29.000  
G26  20720921.980 6 108889174.369 6     -2496.480          36.000  
G27  17800858.768 4               4      -494.539          25.000  
G31  21532930.187 6 113156301.719 6     -3427.697          41.000  
> 2024 11 28  8 50  6.7930000  0  6                     
G 4  20305349.320 3               3     -2462.287          23.000  
G16  18870217.255 4               4     -1606.421          26.000  
G18  22546299.930 4 118481606.876 4     -2094.183          29.000  
G26  20721017.066 6 108889673.737 6     -2497.102          36.000  
G27  17800876.654 4               4      -494.535          24.000  
G31  21533060.767 6 113156987.279 6     -3427.784          41.000  
> 2024 11 28  8 50  6.9930000  0  6                     
G 4  20305447.320 3               3     -2462.287          23.000  
G16  18870277.929 4               4     -1605.474          26.000  
G18  22546381.492 4 118482025.724 4     -2094.790          29.000  
G26  20721112.100 5 108890173.054 5     -2496.391          33.000  
G27  17800895.431 4               4      -488.723          24.000  
G31  21533191.155 6 113157672.844 6     -3427.716          38.000  
> 2024 11 28  8 50  7.1930000  0  5                     
G 4  20305542.511 3               3     -2462.287          23.000  
G16  18870338.639 4               4     -1605.749          26.000  
G18  22546459.704 3               3     -2091.595          20.000  
G26  20721207.151 4               4     -2496.912          29.000  
G31  21533321.648 5 113158358.400 5     -3427.827          35.000  
> 2024 11 28  8 50  7.3930000  0  5                     
G 4  20305636.637 3               3     -2462.287          23.000  
G16  18870400.203 4               4     -1607.310          25.000  
G18  22546536.398 3               3     -2094.569          21.000  
G26  20721301.278 5               5     -2496.558          33.000  
G31  21533452.141 6 113159043.940 6     -3427.587          37.000  
> 2024 11 28  8 50  7.5930000  0  5                     
G 4  20305729.193 3               3     -2462.287          22.000  
G16  18870461.279 4               4     -1606.083          25.000  
G18  22546617.873 3               3     -2095.168          21.000  
G26  20721399.383 5 108891672.45235     -2496.433          33.000  
G31  21533582.633 6 113159729.466 6     -3427.798          38.000  
> 2024 11 28  8 50  7.7930000  0  5                     
G 4  20305822.604 3               3     -2462.287          22.000  
G16  18870522.843 4               4     -1604.071          25.000  
G18  22546697.568 3               3     -2093.401          22.000  
G26  20721494.399 5 108892171.74725     -2496.530          34.000  
G31  21533713.074 6 113160414.985 6     -3427.446          38.000  
> 2024 11 28  8 50  7.9930000  0  5                     
G 4  20305915.300 3               3     -2462.287          22.000  
G16  18870584.303 4               4     -1604.757          25.000  
G18  22546775.483 3               3     -2095.025          23.000  
G26  20721589.835 5 108892671.01225     -2497.007          34.000  
G31  21533843.462 6 113161100.504 6     -3427.897          38.000  
> 2024 11 28  8 50  8.1930000  0  5                     
G 4  20306007.193 3               3     -2462.287          22.000  
G16  18870644.297 4               4     -1604.359          25.000  
G18  22546857.133 4               4     -2094.991          24.000  
G26  20721683.664 5 108893170.20325     -2496.141          34.000  
G31  21533973.885 6 113161785.964 6     -3427.474          36.000  
> 2024 11 28  8 50  8.3930000  0  5                     
G 4  20306095.508 3               3     -2462.287          21.000  
G16  18870704.971 4               4     -1603.098          25.000  
G18  22546936.671 4               4     -2093.255          24.000  
G26  20721779.641 5 108893669.43425     -2496.151          30.000  
G31  21534104.325 5 113162471.432 5     -3427.085          34.000  
> 2024 11 28  8 50  8.5930000  0  5                     
G 4  20306191.275 3               3     -2462.287          21.000  
G16  18870766.064 4               4     -1606.261          24.000  
G18  22547016.855 4               4     -2094.153          24.000  
G26  20721872.668 5 108894168.61325     -2495.588          30.000  
G31  21534234.713 5 113163156.875 5     -3427.086          34.000  
> 2024 11 28  8 50  8.7930000  0  5                     
G 4  20306284.756 3               3     -2462.287          20.000  
G16  18870826.791 4               4     -1603.492          24.000  
G18  22547094.194 4               4     -2094.050          24.000  
G26  20721967.649 5 108894667.76125     -2495.766          30.000  
G31  21534365.101 5 113163842.264 5     -3426.830          34.000  
> 2024 11 28  8 50  8.9930000  0  5                     
G 4  20306380.767 3               3     -2462.287          20.000  
G16  18870887.134 3               3     -1602.888          23.000  
G18  22547174.884 4               4     -2094.551          24.000  
G26  20722061.706 5 108895166.85125     -2495.375          34.000  
G31  21534495.489 6 113164527.641 6     -3427.060          39.000  
> 2024 11 28  8 50  9.1930000  0  4                     
G16  18870947.512 4               4     -1607.546          24.000  
G18  22547253.549 4               4     -2094.240          25.000  
G26  20722156.757 6 108895665.93326     -2495.305          38.000  
G31  21534626.069 6 113165212.968 6     -3426.884          41.000  
> 2024 11 28  8 50  9.3930000  0  4                     
G16  18871009.128 4               4     -1602.540          24.000  
G18  22547330.400 4               4     -2093.423          25.000  
G26  20722250.465 5 108896164.99625     -2495.012          33.000  
G31  21534756.579 6 113165898.316 6     -3426.993          38.000  
> 2024 11 28  8 50  9.5930000  0  4                     
G16  18871069.593 4               4     -1607.418          24.000  
G18  22547415.959 4               4     -2094.338          25.000  
G26  20722345.656 6 108896664.08526     -2494.981          36.000  
G31  21534887.072 6 113166583.650 6     -3426.388          41.000  
> 2024 11 28  8 50  9.7930000  0  4                     
G16  18871130.041 4               4     -1601.733          24.000  
G18  22547498.079 4 118487902.07234     -2093.997          25.000  
G26  20722442.068 5 108897163.16125     -2495.458          33.000  
G31  21535017.443 6 113167268.991 6     -3426.727          39.000  
> 2024 11 28  8 50  9.9930000  0  4                     
G16  18871191.256 4               4     -1616.573          24.000  
G18  22547575.663 4 118488320.86024     -2093.714          25.000  
G26  20722537.451 5 108897662.20525     -2495.307          34.000  
G31  21535147.901 6 113167954.313 6     -3426.772          39.000  
> 2024 11 28  8 50 10.1930000  0  5                     
G 4  20306933.834 3               3     -2462.287          20.000  
G16  18871251.826 4               4     -1597.660          24.000  
G18  22547655.794 4 118488739.73224     -2094.279          25.000  
G26  20722632.747 5 108898161.26025     -2494.993          34.000  
G31  21535278.201 6 113168639.634 6     -3426.606          39.000  
> 2024 11 28  8 50 10.3930000  0  5                     
G 4  20307025.640 3               3     -2462.287          20.000  
G16  18871312.413 4               4     -1607.352          24.000  
G18  22547737.304 4 118489158.59624     -2094.529          25.000  
G26  20722727.624 5 108898660.33725     -2495.618          34.000  
G31  21535408.677 6 113169324.990 6     -3426.931          37.000  
> 2024 11 28  8 50 10.5930000  0  5                     
G 4  20307116.992 3               3     -2462.287          20.000  
G16  18871372.669 4               4     -1607.225          24.000  
G18  22547814.609 4 118489577.49624     -2094.896          25.000  
G26  20722823.513 6 108899159.41026     -2495.451          36.000  
G31  21535539.100 6 113170010.329 6     -3426.302          39.000  
> 2024 11 28  8 50 10.7930000  0  5                     
G 4  20307211.938 3               3     -2462.287          20.000  
G16  18871433.518 4               4     -1598.503          24.000  
G18  22547897.532 4 118489996.39924     -2094.763          26.000  
G26  20722920.483 6 108899658.50226     -2495.507          36.000  
G31  21535669.435 6 113170695.701 6     -3426.818          41.000  
> 2024 11 28  8 50 10.9930000  0  5                     
G 4  20307304.843 3               3     -2462.287          20.000  
G16  18871494.349 4               4     -1603.146          25.000  
G18  22547976.442 4 118490415.29624     -2094.989          26.000  
G26  20723015.343 6 108900157.52526     -2495.326          37.000  
G31  21535799.771 6 113171381.052 6     -3426.931          41.000  
> 2024 11 28  8 50 11.1930000  0  4                     
G16  18871554.884 4               4     -1605.198          25.000  
G18  22548056.975 4 118490834.20324     -2094.437          26.000  
G26  20723110.063 6 108900656.60826     -2495.168          37.000  
G31  21535930.246 6 113172066.388 6     -3426.530          41.000  
> 2024 11 28  8 50 11.3930000  0  4                     
G16  18871614.476 4               4     -1603.598          25.000  
G18  22548136.443 4 118491253.06324     -2094.187          27.000  
G26  20723204.451 6 108901155.63426     -2495.669          37.000  
G31  21536060.599 6 113172751.717 6     -3426.729          41.000  
> 2024 11 28  8 50 11.5930000  0  4                     
G16  18871676.756 4               4     -1604.689          25.000  
G18  22548216.522 4 118491671.98524     -2094.290          27.000  
G26  20723300.951 6 108901654.63926     -2494.658          37.000  
G31  21536191.022 6 113173437.028 6     -3426.428          41.000  
> 2024 11 28  8 50 11.7930000  0  4                     
G16  18871738.146 4               4     -1603.752          25.000  
G18  22548297.997 4 118492090.98524     -2095.462          27.000  
G26  20723395.304 6 108902153.69526     -2495.291          37.000  
G31  21536321.393 6 113174122.374 6     -3426.673          41.000  
> 2024 11 28  8 50 11.9930000  0  4                     
G16  18871800.583 4               4     -1604.667          25.000  
G18  22548376.331 4 118492509.86624     -2094.407          27.000  
G26  20723490.652 6 108902652.65726     -2494.846          37.000  
G31  21536451.851 6 113174807.656 6     -3426.263          41.000  
> 2024 11 28  8 50 12.1930000  0  4                     
G16  18871861.519 4               4     -1604.720          25.000  
G18  22548454.770 4 118492928.78224     -2094.730          28.000  
G26  20723584.534 6 108903151.62726     -2494.615          37.000  
G31  21536582.186 6 113175492.956 6     -3426.212          41.000  
> 2024 11 28  8 50 12.3930000  0  4                     
G16  18871923.415 4               4     -1604.117          25.000  
G18  22548535.250 4 118493347.70224     -2094.613          28.000  
G26  20723679.812 6 108903650.61926     -2494.654          37.000  
G31  21536712.574 6 113176178.244 6     -3426.472          41.000  
> 2024 11 28  8 50 12.5930000  0  4                     
G16  18871984.369 4               4     -1603.074          25.000  
G18  22548614.195 4 118493766.60524     -2094.490          28.000  
G26  20723774.392 6 108904149.60926     -2495.444          37.000  
G31  21536843.032 6 113176863.526 6     -3426.471          40.000  
> 2024 11 28  8 50 12.7930000  0  4                     
G16  18872045.671 4               4     -1603.392          25.000  
G18  22548694.204 4 118494185.54524     -2094.748          28.000  
G26  20723868.554 6 108904648.52226     -2494.571          37.000  
G31  21536973.368 6 113177548.782 6     -3426.394          41.000  
> 2024 11 28  8 50 12.9930000  0  4                     
G16  18872106.101 4               4     -1604.495          25.000  
G18  22548771.753 4 118494604.44624     -2094.899          29.000  
G26  20723963.657 6 108905147.44826     -2494.340          37.000  
G31  21537103.669 6 113178234.013 6     -3426.105          40.000  
> 2024 11 28  8 50 13.1930000  0  4                     
G16  18872166.688 4               4     -1604.246          25.000  
G18  22548852.757 4 118495023.35724     -2094.151          29.000  
G26  20724057.906 6 108905646.36226     -2494.573          37.000  
G31  21537234.126 6 113178919.231 6     -3426.056          40.000  
> 2024 11 28  8 50 13.3930000  0  4                     
G16  18872227.572 4               4     -1604.438          25.000  
G18  22548931.545 4 118495442.29324     -2094.249          29.000  
G26  20724152.748 6 108906145.25926     -2494.380          37.000  
G31  21537364.497 6 113179604.439 6     -3425.619          40.000  
> 2024 11 28  8 50 13.5930000  0  4                     
G16  18872288.613 4               4     -1604.117          25.000  
G18  22549010.263 4 118495861.27124     -2095.367          29.000  
G26  20724248.707 6 108906644.16426     -2494.112          37.000  
G31  21537494.990 6 113180289.680 6     -3425.735          40.000  
> 2024 11 28  8 50 13.7930000  0  4                     
G16  18872350.003 4               4     -1604.749          25.000  
G18  22549090.464 4 118496280.15024     -2094.744          29.000  
G26  20724343.182 6 108907143.05426     -2494.708          37.000  
G31  21537625.482 6 113180974.889 6     -3425.934          40.000  
> 2024 11 28  8 50 13.9930000  0  4                     
G16  18872410.311 4               4     -1603.328          25.000  
G18  22549172.218 4 118496699.07724     -2094.784          29.000  
G26  20724438.635 6 108907641.95826     -2494.495          37.000  
G31  21537755.836 6 113181660.123 6     -3425.896          40.000  
> 2024 11 28  8 50 14.1930000  0  4                     
G16  18872471.963 4               4     -1603.656          25.000  
G18  22549251.076 4 118497118.03224     -2094.576          29.000  
G26  20724533.093 6 108908140.81226     -2494.370          37.000  
G31  21537886.067 6 113182345.318 6     -3425.736          40.000  
> 2024 11 28  8 50 14.3930000  0  4                     
G16  18872533.597 4               4     -1603.498          25.000  
G18  22549330.998 4 118497536.94124     -2094.593          29.000  
G26  20724628.458 6 108908639.61926     -2494.082          37.000  
G31  21538016.402 6 113183030.481 6     -3425.886          40.000  
> 2024 11 28  8 50 14.5930000  0  4                     
G16  18872593.678 4               4     -1603.418          26.000  
G18  22549409.925 4 118497955.82324     -2094.335          29.000  
G26  20724723.039 6 108909138.42926     -2494.255          37.000  
G31  21538146.808 6 113183715.633 6     -3425.997          40.000  
> 2024 11 28  8 50 14.7930000  0  4                     
G16  18872654.631 4               4     -1605.084          26.000  
G18  22549488.120 4 118498374.85824     -2095.347          29.000  
G26  20724818.055 6 108909637.32326     -2494.513          37.000  
G31  21538277.213 6 113184400.845 6     -3426.043          40.000  
> 2024 11 28  8 50 14.9930000  0  4                     
G16  18872716.039 4               4     -1604.906          26.000  
G18  22549571.497 4 118498793.74824     -2093.711          29.000  
G26  20724913.211 5 108910136.15125     -2494.089          35.000  
G31  21538407.497 6 113185086.003 6     -3425.263          39.000  
> 2024 11 28  8 50 15.1930000  0  4                     
G16  18872777.045 4               4     -1604.903          25.000  
G18  22549651.349 4 118499212.82924     -2095.209          28.000  
G26  20725008.507 5 108910635.03025     -2494.955          35.000  
G31  21538537.954 6 113185771.216 6     -3426.249          37.000  
> 2024 11 28  8 50 15.3930000  0  4                     
G16  18872838.574 4               4     -1603.669          25.000  
G18  22549730.870 4 118499631.82524     -2095.174          28.000  
G26  20725103.384 6 108911133.80326     -2494.073          37.000  
G31  21538668.273 6 113186456.391 6     -3426.256          40.000  
> 2024 11 28  8 50 15.5930000  0  4                     
G16  18872901.098 4               4     -1603.671          26.000  
G18  22549806.028 4 118500050.78624     -2094.958          28.000  
G26  20725198.068 6 108911632.63526     -2493.976          38.000  
G31  21538798.608 6 113187141.543 6     -3425.603          41.000  
> 2024 11 28  8 50 15.7930000  0  4                     
G16  18872962.785 4               4     -1603.994          26.000  
G18  22549884.240 4 118500469.80824     -2095.093          28.000  
G26  20725292.945 6 108912131.44326     -2494.071          38.000  
G31  21538928.892 6 113187826.723 6     -3426.267          41.000  
> 2024 11 28  8 50 15.9930000  0  4                     
G16  18873023.808 4               4     -1603.784          26.000  
G18  22549961.771 4 118500888.86724     -2095.580          27.000  
G26  20725387.944 6 108912630.24826     -2493.514          38.000  
G31  21539059.175 6 113188511.864 6     -3426.012          41.000  
> 2024 11 28  8 50 16.1930000  0  4                     
G16  18873085.599 4  99178726.42434     -1603.719          26.000  
G18  22550040.716 4 118501307.83924     -2094.921          27.000  
G26  20725482.839 6 108913129.09226     -2494.609          38.000  
G31  21539189.563 6 113189197.057 6     -3425.810          41.000  
> 2024 11 28  8 50 16.3930000  0  4                     
G16  18873145.628 4  99179047.23024     -1604.094          26.000  
G18  22550120.952 4 118501726.95024     -2095.519          27.000  
G26  20725577.837 6 108913627.87326     -2494.086          38.000  
G31  21539319.864 6 113189882.225 6     -3426.306          41.000  
> 2024 11 28  8 50 16.5930000  0  4                     
G16  18873207.001 4  99179368.04724     -1604.419          26.000  
G18  22550196.703 4 118502146.08424     -2095.896          27.000  
G26  20725672.836 6 108914126.76726     -2494.513          37.000  
G31  21539450.339 6 113190567.473 6     -3426.122          41.000  
> 2024 11 28  8 50 16.7930000  0  4                     
G16  18873268.181 4  99179688.89424     -1604.183          26.000  
G18  22550280.150 4 118502565.15824     -2095.644          27.000  
G26  20725767.696 6 108914625.62526     -2494.305          37.000  
G31  21539580.675 6 113191252.719 6     -3426.320          41.000  
> 2024 11 28  8 50 16.9930000  0  4                     
G16  18873329.117 4  99180009.66024     -1604.004          26.000  
G18  22550360.089 4 118502984.34124     -2096.027          27.000  
G26  20725862.555 6 108915124.49726     -2494.514          37.000  
G31  21539711.080 6 113191937.944 6     -3426.143          40.000  
> 2024 11 28  8 50 17.1930000  0  4                     
G16  18873389.984 4  99180330.50724     -1604.359          26.000  
G18  22550443.938 4 118503403.45024     -2095.697          27.000  
G26  20725957.415 6 108915623.36626     -2494.514          37.000  
G31  21539841.259 6 113192623.178 6     -3426.062          40.000  
> 2024 11 28  8 50 17.3930000  0  4                     
G16  18873450.100 4  99180651.28624     -1604.021          26.000  
G18  22550520.509 4 118503822.62524     -2095.814          27.000  
G26  20726052.326 6 108916122.17226     -2494.491          37.000  
G31  21539971.577 6 113193308.364 6     -3425.866          40.000  
> 2024 11 28  8 50 17.5930000  0  4                     
G16  18873510.826 4  99180972.04724     -1604.131          26.000  
G18  22550600.117 4 118504241.64324     -2094.776          27.000  
G26  20726147.168 6 108916620.93826     -2493.826          37.000  
G31  21540101.965 6 113193993.508 6     -3425.734          40.000  
> 2024 11 28  8 50 17.7930000  0  4                     
G16  18873572.408 4  99181292.68324     -1602.611          26.000  
G18  22550680.912 4 118504660.81424     -2095.919          27.000  
G26  20726242.097 6 108917119.65426     -2493.169          37.000  
G31  21540232.388 6 113194678.611 6     -3425.130          40.000  
> 2024 11 28  8 50 17.9930000  0  4                     
G16  18873632.454 4  99181613.38524     -1603.673          26.000  
G18  22550760.188 4 118505079.85324     -2095.065          27.000  
G26  20726336.957 6 108917618.33026     -2493.434          37.000  
G31  21540362.811 6 113195363.677 6     -3424.978          40.000  
> 2024 11 28  8 50 18.1930000  0  4                     
G16  18873693.740 4  99181933.98824     -1602.554          26.000  
G18  22550841.558 4 118505498.37514     -2095.439          27.000  
G26  20726431.799 6 108918116.45616     -2493.025          37.000  
G31  21540493.042 6 113196048.708 6     -3425.092          40.000  
> 2024 11 28  8 50 18.3930000  0  4                     
G16  18873753.035 4  99182254.52724     -1602.255          26.000  
G18  22550921.341 4 118505917.257 4     -2094.916          27.000  
G26  20726526.641 6 108918615.040 6     -2493.041          37.000  
G31  21540623.535 6 113196733.657 6     -3424.572          40.000  
> 2024 11 28  8 50 18.5930000  0  4                     
G16  18873813.780 4  99182575.06024     -1602.639          25.000  
G18  22551001.437 4 118506336.238 4     -2094.821          27.000  
G26  20726621.518 6 108919113.576 6     -2492.696          37.000  
G31  21540753.835 6 113197418.609 6     -3424.603          40.000  
> 2024 11 28  8 50 18.7930000  0  4                     
G16  18873874.245 4  99182895.66024     -1603.166          26.000  
G18  22551080.068 4 118506755.099 4     -2094.738          27.000  
G26  20726716.412 6 108919612.089 6     -2492.397          37.000  
G31  21540884.084 6 113198103.507 6     -3424.172          40.000  
> 2024 11 28  8 50 18.9930000  0  4                     
G16  18873935.024 4  99183216.10424     -1602.056          26.000  
G18  22551162.625 4 118507174.022 4     -2094.281          26.000  
G26  20726811.306 6 108920110.591 6     -2492.133          37.000  
G31  21541014.472 6 113198788.409 6     -3424.555          40.000  
> 2024 11 28  8 50 19.1930000  0  4                     
G16  18873996.640 4  99183536.52424     -1601.944          25.000  
G18  22551243.960 4 118507592.937 4     -2094.211          26.000  
G26  20726906.200 6 108920609.080 6     -2492.481          37.000  
G31  21541144.790 6 113199473.294 6     -3424.557          38.000  
> 2024 11 28  8 50 19.3930000  0  4                     
G16  18874057.036 4  99183857.18924     -1603.910          26.000  
G18  22551324.423 4 118508011.989 4     -2094.835          26.000  
G26  20727001.077 6 108921107.591 6     -2492.639          37.000  
G31  21541275.073 6 113200158.216 6     -3424.776          40.000  
> 2024 11 28  8 50 19.5930000  0  4                     
G16  18874117.501 4  99184177.61624     -1601.688          26.000  
G18  22551403.543 4 118508430.972 4     -2094.746          26.000  
G26  20727096.041 6 108921606.118 6     -2493.060          37.000  
G31  21541405.217 6 113200843.128 6     -3424.345          40.000  
> 2024 11 28  8 50 19.7930000  0  4                     
G16  18874178.803 4  99184498.18324     -1602.875          26.000  
G18  22551483.220 4 118508850.012 4     -2095.492          26.000  
G26  20727190.918 6 108922104.648 6     -2493.194          37.000  
G31  21541535.570 6 113201528.071 6     -3424.652          40.000  
> 2024 11 28  8 50 19.9930000  0  4                     
G16  18874239.530 4  99184818.73824     -1602.563          26.000  
G18  22551563.195 4 118509268.990 4     -2094.861          26.000  
G26  20727285.865 6 108922603.118 6     -2492.332          37.000  
G31  21541665.993 6 113202212.974 6     -3424.555          40.000  
> 2024 11 28  8 50 20.1930000  0  4                     
G16  18874300.344 4  99185139.15524     -1601.948          26.000  
G18  22551643.448 4 118509688.040 4     -2095.617          26.000  
G26  20727380.707 6 108923101.624 6     -2492.278          37.000  
G31  21541796.311 6 113202897.880 6     -3424.623          40.000  
> 2024 11 28  8 50 20.3930000  0  4                     
G16  18874361.821 4  99185459.68224     -1602.318          26.000  
G18  22551722.341 4 118510106.948 4     -2094.515          26.000  
G26  20727475.479 6 108923600.081 6     -2492.394          37.000  
G31  21541926.577 6 113203582.774 6     -3424.667          40.000  
> 2024 11 28  8 50 20.5930000  0  4                     
G16  18874423.665 4  99185780.22724     -1602.766          26.000  
G18  22551802.908 4 118510526.020 4     -2095.120          26.000  
G26  20727570.286 6 108924098.540 6     -2491.995          37.000  
G31  21542056.843 6 113204267.648 6     -3424.124          40.000  
> 2024 11 28  8 50 20.7930000  0  4                     
G16  18874485.124 4  99186100.71624     -1602.711          25.000  
G18  22551882.953 4 118510945.059 4     -2095.207          26.000  
G26  20727665.198 6 108924597.011 6     -2492.336          37.000  
G31  21542187.092 6 113204952.541 6     -3424.358          40.000  
> 2024 11 28  8 50 20.9930000  0  4                     
G16  18874546.444 4  99186421.16024     -1602.101          26.000  
G18  22551962.403 4 118511364.011 4     -2094.542          26.000  
G26  20727760.040 6 108925095.426 6     -2491.706          37.000  
G31  21542317.392 6 113205637.404 6     -3424.157          40.000  
> 2024 11 28  8 50 21.1930000  0  4                     
G16  18874607.956 4  99186741.63924     -1602.295          25.000  
G18  22552042.029 4 118511783.051 4     -2095.178          25.000  
G26  20727854.986 6 108925593.859 6     -2491.920          37.000  
G31  21542447.606 6 113206322.255 6     -3423.936          40.000  
> 2024 11 28  8 50 21.3930000  0  4                     
G16  18874669.975 4  99187062.07824     -1601.903          25.000  
G18  22552123.137 4 118512202.064 4     -2095.312          25.000  
G26  20727949.811 6 108926092.286 6     -2491.807          37.000  
G31  21542577.837 6 113207007.111 6     -3424.293          40.000  
> 2024 11 28  8 50 21.5930000  0  4                     
G16  18874730.928 4  99187382.52224     -1601.975          26.000  
G18  22552203.391 4 118512621.019 4     -2094.907          25.000  
G26  20728044.600 6 108926590.678 6     -2492.077          37.000  
G31  21542708.155 6 113207691.925 6     -3424.203          40.000  
> 2024 11 28  8 50 21.7930000  0  4                     
G16  18874792.248 4  99187702.98924     -1602.393          26.000  
G18  22552283.086 4 118513040.080 4     -2095.382          25.000  
G26  20728139.407 6 108927089.058 6     -2492.197          37.000  
G31  21542838.473 6 113208376.745 6     -3424.037          40.000  
> 2024 11 28  8 50 21.9930000  0  4                     
G16  18874852.696 4  99188023.44424     -1602.487          26.000  
G18  22552362.834 4 118513459.067 4     -2094.583          25.000  
G26  20728234.284 6 108927587.409 6     -2491.602          37.000  
G31  21542968.722 6 113209061.537 6     -3423.753          40.000  
> 2024 11 28  8 50 22.1930000  0  4                     
G16  18874913.859 4  99188343.79824     -1602.397          26.000  
G18  22552442.703 4 118513878.090 4     -2095.055          26.000  
G26  20728329.039 6 108928085.747 6     -2491.944          37.000  
G31  21543098.988 6 113209746.319 6     -3424.225          40.000  
> 2024 11 28  8 50 22.3930000  0  4                     
G16  18874976.610 4  99188664.16124     -1601.720          26.000  
G18  22552522.538 4 118514297.046 4     -2094.598          26.000  
G26  20728423.828 6 108928584.038 6     -2491.477          37.000  
G31  21543229.184 6 113210431.061 6     -3423.552          39.000  
> 2024 11 28  8 50 22.5930000  0  4                     
G16  18875038.628 4  99188984.61524     -1602.546          26.000  
G18  22552602.128 4 118514716.099 4     -2095.449          26.000  
G26  20728518.566 6 108929082.380 6     -2491.856          37.000  
G31  21543359.467 6 113211115.847 6     -3424.181          39.000  
> 2024 11 28  8 50 22.7930000  0  4                     
G16  18875100.663 4  99189304.98624     -1602.011          26.000  
G18  22552681.143 4 118515135.131 4     -2095.434          26.000  
G26  20728613.320 6 108929580.689 6     -2492.143          37.000  
G31  21543489.838 6 113211800.582 6     -3423.467          39.000  
> 2024 11 28  8 50 22.9930000  0  4                     
G16  18875161.669 4  99189625.38824     -1602.202          26.000  
G18  22552760.175 4 118515554.164 4     -2095.481          26.000  
G26  20728707.831 6 108930078.987 6     -2491.392          37.000  
G31  21543620.069 6 113212485.383 6     -3423.752          39.000  
> 2024 11 28  8 50 23.1930000  0  4                     
G16  18875222.169 4  99189945.78224     -1602.284          26.000  
G18  22552839.975 4 118515973.243 4     -2095.825          26.000  
G26  20728802.777 6 108930577.303 6     -2491.940          37.000  
G31  21543750.265 6 113213170.136 6     -3424.002          39.000  
> 2024 11 28  8 50 23.3930000  0  4                     
G16  18875284.152 4  99190266.10924     -1601.888          26.000  
G18  22552919.687 4 118516392.265 4     -2095.379          26.000  
G26  20728897.672 6 108931075.585 6     -2491.090          37.000  
G31  21543880.426 6 113213854.892 6     -3423.724          40.000  
> 2024 11 28  8 50 23.5930000  0  4                     
G16  18875345.856 4  99190586.53124     -1601.966          26.000  
G18  22552999.365 4 118516811.410 4     -2096.013          26.000  
G26  20728992.548 6 108931573.928 6     -2491.531          37.000  
G31  21544010.814 6 113214539.690 6     -3424.074          40.000  
> 2024 11 28  8 50 23.7930000  0  4                     
G16  18875407.159 4  99190906.92524     -1601.805          26.000  
G18  22553079.479 4 118517230.431 4     -2095.320          26.000  
G26  20729087.408 6 108932072.196 6     -2491.306          37.000  
G31  21544141.132 6 113215224.411 6     -3423.628          39.000  
> 2024 11 28  8 50 23.9930000  0  4                     
G16  18875468.514 4  99191227.25724     -1601.949          26.000  
G18  22553159.628 4 118517649.470 4     -2095.386          26.000  
G26  20729182.407 6 108932570.467 6     -2491.550          37.000  
G31  21544271.433 6 113215909.155 6     -3423.417          39.000  
> 2024 11 28  8 50 24.1930000  0  4                     
G16  18875529.939 4  99191547.657 4     -1602.131          26.000  
G18  22553239.672 4 118518068.440 4     -2094.631          26.000  
G26  20729277.179 6 108933068.697 6     -2491.458          37.000  
G31  21544401.664 6 113216593.859 6     -3423.721          39.000  
> 2024 11 28  8 50 24.3930000  0  4                     
G16  18875590.823 4  99191867.929 4     -1601.472          26.000  
G18  22553318.285 4 118518487.505 4     -2094.947          26.000  
G26  20729371.811 6 108933566.900 6     -2490.971          37.000  
G31  21544531.825 6 113217278.554 6     -3423.457          39.000  
> 2024 11 28  8 50 24.5930000  0  4                     
G16  18875651.445 4  99192188.306 4     -1601.776          26.000  
G18  22553398.469 4 118518906.534 4     -2095.029          26.000  
G26  20729466.461 6 108934065.101 6     -2490.729          37.000  
G31  21544662.004 6 113217963.232 6     -3423.259          39.000  
> 2024 11 28  8 50 24.7930000  0  4                     
G16  18875712.817 4  99192508.532 4     -1601.201          26.000  
G18  22553477.274 4 118519325.593 4     -2095.068          26.000  
G26  20729561.146 6 108934563.290 6     -2490.159          37.000  
G31  21544792.304 6 113218647.898 6     -3423.143          41.000  
> 2024 11 28  8 50 24.9930000  0  4                     
G16  18875773.945 4  99192828.916 4     -1602.104          26.000  
G18  22553556.830 4 118519744.699 4     -2095.312          26.000  
G26  20729655.901 6 108935061.515 6     -2490.945          37.000  
G31  21544922.518 6 113219332.600 6     -3423.531          39.000  
> 2024 11 28  8 50 25.1930000  0  4                     
G16  18875835.143 4  99193149.147 4     -1600.602          26.000  
G18  22553636.420 4 118520163.729 4     -2095.235          26.000  
G26  20729750.691 6 108935559.643 6     -2490.505          37.000  
G31  21545052.749 6 113220017.220 6     -3423.344          39.000  
> 2024 11 28  8 50 25.3930000  0  4                     
G16  18875896.760 4  99193469.373 4     -1600.891          26.000  
G18  22553715.697 4 118520582.762 4     -2095.362          26.000  
G26  20729845.480 6 108936057.793 6     -2490.726          37.000  
G31  21545182.840 6 113220701.839 6     -3423.188          39.000  
> 2024 11 28  8 50 25.5930000  0  4                     
G16  18875959.249 4  99193789.696 4     -1601.677          26.000  
G18  22553795.933 4 118521001.767 4     -2094.367          26.000  
G26  20729940.392 6 108936555.932 6     -2490.774          37.000  
G31  21545313.036 6 113221386.447 6     -3422.954          39.000  
> 2024 11 28  8 50 25.7930000  0  4                     
G16  18876020.936 4  99194109.964 4     -1601.839          26.000  
G18  22553875.767 4 118521420.840 4     -2095.373          26.000  
G26  20730035.234 6 108937054.044 6     -2490.841          37.000  
G31  21545443.337 6 113222071.057 6     -3423.029          39.000  
> 2024 11 28  8 50 25.9930000  0  4                     
G16  18876081.941 4  99194430.248 4     -1601.777          26.000  
G18  22553956.440 4 118521839.977 4     -2095.879          26.000  
G26  20730130.006 6 108937552.143 6     -2490.794          37.000  
G31  21545573.586 6 113222755.659 6     -3422.979          39.000  
> 2024 11 28  8 50 26.1930000  0  4                     
G16  18876143.070 4  99194750.415 4     -1601.362          26.000  
G18  22554035.768 4 118522258.938 4     -2094.984          26.000  
G26  20730224.883 6 108938050.241 6     -2490.075          37.000  
G31  21545703.921 6 113223440.289 6     -3423.193          39.000  
> 2024 11 28  8 50 26.3930000  0  4                     
G16  18876204.180 4  99195070.670 4     -1601.452          26.000  
G18  22554115.289 4 118522678.025 4     -2095.295          25.000  
G26  20730319.620 6 108938548.336 6     -2490.256          37.000  
G31  21545834.187 6 113224124.837 6     -3422.842          39.000  
> 2024 11 28  8 50 26.5930000  0  4                     
G16  18876265.151 4  99195390.829 4     -1600.795          26.000  
G18  22554195.438 4 118523097.094 4     -2095.667          25.000  
G26  20730414.549 6 108939046.372 6     -2490.207          37.000  
G31  21545964.540 6 113224809.415 6     -3422.908          39.000  
> 2024 11 28  8 50 26.7930000  0  4                     
G16  18876325.023 4  99195711.026 4     -1600.558          26.000  
G18  22554274.889 4 118523516.085 4     -2094.814          26.000  
G26  20730509.286 6 108939544.422 6     -2489.746          37.000  
G31  21546094.911 6 113225493.924 6     -3422.103          39.000  
> 2024 11 28  8 50 26.9930000  0  4                     
G16  18876385.854 4  99196031.225 4     -1600.966          26.000  
G18  22554353.537 4 118523935.108 4     -2095.380          26.000  
G26  20730604.076 6 108940042.462 6     -2490.156          37.000  
G31  21546225.142 6 113226178.509 6     -3422.778          39.000  
> 2024 11 28  8 50 27.1930000  0  4                     
G16  18876446.703 4  99196351.451 4     -1600.946          26.000  
G18  22554432.150 4 118524354.189 4     -2095.313          26.000  
G26  20730698.953 6 108940540.478 6     -2490.677          37.000  
G31  21546355.512 6 113226863.037 6     -3423.204          39.000  
> 2024 11 28  8 50 27.3930000  0  4                     
G16  18876508.390 4  99196671.590 4     -1600.782          26.000  
G18  22554512.770 4 118524773.183 4     -2095.385          26.000  
G26  20730793.812 6 108941038.434 6     -2489.765          37.000  
G31  21546485.639 6 113227547.515 6     -3422.443          39.000  
> 2024 11 28  8 50 27.5930000  0  4                     
G16  18876569.361 4  99196991.753 4     -1601.053          26.000  
G18  22554592.029 4 118525192.254 4     -2095.402          26.000  
G26  20730888.584 6 108941536.421 6     -2489.738          37.000  
G31  21546615.835 6 113228232.002 6     -3422.259          39.000  
> 2024 11 28  8 50 27.7930000  0  4                     
G16  18876630.472 4  99197311.777 4     -1599.763          26.000  
G18  22554671.742 4 118525611.204 4     -2094.687          25.000  
G26  20730983.182 6 108942034.323 6     -2489.196          37.000  
G31  21546746.101 6 113228916.448 6     -3421.927          39.000  
> 2024 11 28  8 50 27.9930000  0  4                     
G16  18876692.350 4  99197631.901 4     -1600.599          26.000  
G18  22554750.896 4 118526030.200 4     -2095.240          26.000  
G26  20731077.954 6 108942532.216 6     -2489.532          37.000  
G31  21546876.419 6 113229600.856 6     -3422.021          39.000  
> 2024 11 28  8 50 28.1930000  0  4                     
G16  18876753.757 4  99197951.904 4     -1599.965          26.000  
G18  22554830.957 4 118526449.115 4     -2094.242          26.000  
G26  20731172.691 6 108943030.059 6     -2488.951          37.000  
G31  21547006.423 6 113230285.220 6     -3421.796          39.000  
> 2024 11 28  8 50 28.3930000  0  5                     
G 4  20315484.773 3               3     -2463.000          22.000  
G16  18876815.339 4  99198271.972 4     -1600.298          26.000  
G18  22554910.408 4 118526868.041 4     -2094.574          26.000  
G26  20731267.481 6 108943527.890 6     -2489.048          37.000  
G31  21547136.671 6 113230969.568 6     -3421.512          39.000  
> 2024 11 28  8 50 28.5930000  0  5                     
G 4  20315578.690 3               3     -2463.000          22.000  
G16  18876877.130 4  99198592.001 4     -1600.674          25.000  
G18  22554989.999 4 118527287.050 4     -2095.016          26.000  
G26  20731362.183 6 108944025.691 6     -2488.475          37.000  
G31  21547266.798 6 113231653.921 6     -3421.581          39.000  
> 2024 11 28  8 50 28.7930000  0  5                     
G 4  20315670.460 3               3     -2463.000          22.000  
G16  18876938.957 4  99198911.940 4     -1599.480          25.000  
G18  22555069.048 4 118527705.977 4     -2094.491          26.000  
G26  20731456.886 6 108944523.520 6     -2489.070          37.000  
G31  21547397.081 6 113232338.260 6     -3421.550          39.000  
> 2024 11 28  8 50 28.9930000  0  5                     
G 4  20315757.572 3               3     -2463.000          22.000  
G16  18876999.142 4  99199232.040 4     -1601.240          25.000  
G18  22555148.918 4 118528124.986 4     -2095.253          26.000  
G26  20731551.640 6 108945021.319 6     -2488.677          37.000  
G31  21547527.277 6 113233022.613 6     -3421.840          39.000  
> 2024 11 28  8 50 29.1930000  0  4                     
G16  18877059.764 4  99199551.928 4     -1599.386          25.000  
G18  22555227.671 4 118528543.913 4     -2094.736          26.000  
G26  20731646.395 6 108945519.100 6     -2489.016          37.000  
G31  21547657.508 6 113233706.906 6     -3421.356          39.000  
> 2024 11 28  8 50 29.3930000  0  4                     
G16  18877120.421 4  99199871.996 4     -1600.274          25.000  
G18  22555307.505 4 118528962.851 4     -2095.004          26.000  
G26  20731741.062 6 108946016.861 6     -2488.981          37.000  
G31  21547787.756 6 113234391.239 6     -3421.792          39.000  
> 2024 11 28  8 50 29.5930000  0  4                     
G16  18877180.991 4  99200191.922 4     -1599.525          25.000  
G18  22555386.817 4 118529381.910 4     -2095.209          26.000  
G26  20731835.747 6 108946514.665 6     -2488.971          37.000  
G31  21547917.883 6 113235075.590 6     -3422.043          39.000  
> 2024 11 28  8 50 29.7930000  0  4                     
G16  18877241.421 4  99200511.993 4     -1600.388          25.000  
G18  22555467.786 4 118529800.878 4     -2094.769          26.000  
G26  20731930.328 6 108947012.431 6     -2488.624          37.000  
G31  21548048.096 6 113235759.909 6     -3421.650          40.000  
> 2024 11 28  8 50 29.9930000  0  4                     
G16  18877302.881 4  99200831.937 4     -1599.571          25.000  
G18  22555547.428 4 118530219.904 4     -2095.388          26.000  
G26  20732024.977 6 108947510.251 6     -2489.011          37.000  
G31  21548178.449 6 113236444.276 6     -3422.135          40.000  
> 2024 11 28  8 50 30.1930000  0  4                     
G16  18877363.887 4  99201152.075 4     -1600.709          25.000  
G18  22555626.216 4 118530638.964 4     -2095.341          26.000  
G26  20732119.767 6 108948008.043 6     -2489.383          37.000  
G31  21548308.837 6 113237128.596 6     -3421.681          40.000  
> 2024 11 28  8 50 30.3930000  0  4                     
G16  18877425.102 4  99201471.977 4     -1599.062          24.000  
G18  22555707.133 4 118531058.108 4     -2096.379          26.000  
G26  20732214.504 6 108948505.860 6     -2489.326          37.000  
G31  21548438.981 6 113237812.969 6     -3421.573          40.000  
> 2024 11 28  8 50 30.5930000  0  4                     
G16  18877485.428 4  99201792.168 4     -1601.240          24.000  
G18  22555787.369 4 118531477.088 4     -2094.824          26.000  
G26  20732309.119 6 108949003.633 6     -2488.948          37.000  
G31  21548569.212 6 113238497.327 6     -3421.975          40.000  
> 2024 11 28  8 50 30.7930000  0  4                     
G16  18877545.753 4               4     -1600.414          25.000  
G18  22555866.977 4 118531896.153 4     -2095.537          27.000  
G26  20732403.804 6 108949501.399 6     -2488.692          37.000  
G31  21548699.495 6 113239181.670 6     -3421.871          40.000  
> 2024 11 28  8 50 30.9930000  0  4                     
G16  18877606.951 4  99202432.146 4     -1600.063          25.000  
G18  22555946.916 4 118532315.247 4     -2095.214          27.000  
G26  20732498.594 6 108949999.207 6     -2488.999          38.000  
G31  21548829.674 6 113239866.025 6     -3421.803          40.000  
> 2024 11 28  8 50 31.1930000  0  4                     
G16  18877667.538 4  99202752.195 4     -1600.654          24.000  
G18  22556027.083 4 118532734.359 4     -2095.770          27.000  
G26  20732593.314 6 108950496.996 6     -2489.058          37.000  
G31  21548960.045 6 113240550.352 6     -3421.645          40.000  
> 2024 11 28  8 50 31.3930000  0  4                     
G16  18877727.165 4               4     -1599.709          24.000  
G18  22556105.277 4 118533153.447 4     -2095.363          27.000  
G26  20732687.911 6 108950994.694 6     -2488.754          37.000  
G31  21549090.328 6 113241234.653 6     -3421.361          40.000  
> 2024 11 28  8 50 31.5930000  0  4                     
G16  18877787.491 4               4     -1599.067          24.000  
G18  22556185.740 4 118533572.423 4     -2094.654          27.000  
G26  20732782.596 6 108951492.385 6     -2488.306          38.000  
G31  21549220.594 6 113241918.914 6     -3421.117          40.000  
> 2024 11 28  8 50 31.7930000  0  4                     
G16  18877847.938 4               4     -1607.105          24.000  
G18  22556265.156 4 118533991.488 4     -2095.651          27.000  
G26  20732877.368 6 108951990.010 6     -2488.161          38.000  
G31  21549350.807 6 113242603.117 6     -3420.589          40.000  
> 2024 11 28  8 50 31.9930000  0  4                     
G16  18877908.194 4               4     -1597.148          24.000  
G18  22556343.944 4 118534410.515 4     -2095.165          27.000  
G26  20732972.053 6 108952487.659 6     -2487.949          37.000  
G31  21549481.056 6 113243287.360 6     -3421.451          40.000  
> 2024 11 28  8 50 32.1930000  0  4                     
G16  18877968.921 4               4     -1599.524          24.000  
G18  22556423.185 4 118534829.480 4     -2094.750          27.000  
G26  20733066.755 6 108952985.294 6     -2488.267          37.000  
G31  21549611.182 6 113243971.532 6     -3420.696          40.000  
> 2024 11 28  8 50 32.3930000  0  4                     
G16  18878029.927 4               4     -1599.578          24.000  
G18  22556502.915 4 118535248.501 4     -2095.117          27.000  
G26  20733161.440 6 108953482.871 6     -2487.735          37.000  
G31  21549741.396 6 113244655.710 6     -3420.462          40.000  
> 2024 11 28  8 50 32.5930000  0  4                     
G16  18878090.584 4               4     -1598.690          24.000  
G18  22556581.842 4 118535667.463 4     -2094.817          27.000  
G26  20733256.230 6 108953980.402 6     -2487.505          37.000  
G31  21549871.626 6 113245339.849 6     -3420.586          40.000  
> 2024 11 28  8 50 32.7930000  0  4                     
G16  18878151.258 4               4     -1597.754          24.000  
G18  22556661.904 4 118536086.352 4     -2094.649          27.000  
G26  20733350.897 6 108954477.887 6     -2487.254          37.000  
G31  21550001.735 6 113246023.902 6     -3419.880          40.000  
> 2024 11 28  8 50 32.9930000  0  4                     
G16  18878212.997 4               4     -1601.720          24.000  
G18  22556741.198 4 118536505.287 4     -2094.374          27.000  
G26  20733445.652 6 108954975.331 6     -2487.365          37.000  
G31  21550131.949 6 113246707.947 6     -3420.295          40.000  
> 2024 11 28  8 50 33.1930000  0  4                     
G16  18878274.265 4               4     -1598.556          24.000  
G18  22556821.382 4 118536924.217 4     -2094.614          27.000  
G26  20733540.250 6 108955472.770 6     -2487.359          37.000  
G31  21550262.075 6 113247391.992 6     -3420.561          40.000  
> 2024 11 28  8 50 33.3930000  0  4                     
G16  18878334.730 4               4     -1598.421          24.000  
G18  22556901.356 4 118537343.094 4     -2094.572          27.000  
G26  20733634.830 6 108955970.133 6     -2486.808          37.000  
G31  21550392.254 6 113248075.934 6     -3419.628          40.000  
> 2024 11 28  8 50 33.5930000  0  4                     
G16  18878394.724 4               4     -1599.019          24.000  
G18  22556980.737 4 118537761.884 4     -2093.714          27.000  
G26  20733729.410 6 108956467.496 6     -2486.686          37.000  
G31  21550522.467 6 113248759.883 6     -3419.721          40.000  
> 2024 11 28  8 50 33.7930000  0  4                     
G16  18878454.979 3               3     -1598.384          23.000  
G18  22557059.333 4 118538180.777 4     -2094.448          28.000  
G26  20733824.235 6 108956964.862 6     -2487.103          37.000  
G31  21550652.698 6 113249443.831 6     -3419.722          40.000  
> 2024 11 28  8 50 33.9930000  0  4                     
G16  18878515.427 3               3     -1600.102          23.000  
G18  22557138.539 4 118538599.626 4     -2094.229          28.000  
G26  20733918.675 6 108957462.164 6     -2486.751          37.000  
G31  21550782.982 6 113250127.778 6     -3419.832          40.000  
> 2024 11 28  8 50 34.1930000  0  4                     
G16  18878576.485 4               4     -1597.059          24.000  
G18  22557217.536 4 118539018.515 4     -2094.396          28.000  
G26  20734013.238 6 108957959.446 6     -2485.783          37.000  
G31  21550913.038 6 113250811.679 6     -3419.391          40.000  
> 2024 11 28  8 50 34.3930000  0  4                     
G16  18878638.276 4               4     -1597.500          24.000  
G18  22557297.179 4 118539437.331 4     -2094.277          27.000  
G26  20734107.888 6 108958456.768 6     -2486.496          37.000  
G31  21551043.112 6 113251495.573 6     -3419.094          40.000  
> 2024 11 28  8 50 34.5930000  0  4                     
G16  18878698.340 4               4     -1597.129          24.000  
G18  22557376.944 4 118539856.162 4     -2094.275          27.000  
G26  20734202.381 6 108958954.034 6     -2486.445          37.000  
G31  21551173.291 6 113252179.469 6     -3419.576          40.000  
> 2024 11 28  8 50 34.7930000  0  4                     
G16  18878759.206 4               4     -1597.074          24.000  
G18  22557455.121 4 118540275.060 4     -2094.626          27.000  
G26  20734296.943 6 108959451.347 6     -2486.581          37.000  
G31  21551303.417 6 113252863.389 6     -3419.339          40.000  
> 2024 11 28  8 50 34.9930000  0  4                     
G16  18878821.172 4               4     -1599.516          24.000  
G18  22557535.165 4 118540694.018 4     -2094.910          27.000  
G26  20734391.646 6 108959948.669 6     -2486.801          37.000  
G31  21551433.630 6 113253547.325 6     -3419.435          40.000  
> 2024 11 28  8 50 35.1930000  0  4                     
G16  18878882.021 4               4     -1598.798          24.000  
G18  22557615.175 4 118541112.913 4     -2094.514          27.000  
G26  20734486.261 6 108960445.964 6     -2486.588          37.000  
G31  21551563.722 6 113254231.263 6     -3419.727          40.000  
> 2024 11 28  8 50 35.3930000  0  4                     
G16  18878942.050 4               4     -1598.538          24.000  
G18  22557695.079 4 118541531.857 4     -2094.766          28.000  
G26  20734580.859 6 108960943.244 6     -2486.176          37.000  
G31  21551693.970 6 113254915.185 6     -3419.919          40.000  
> 2024 11 28  8 50 35.5930000  0  4                     
G16  18879002.637 4               4     -1597.825          24.000  
G18  22557775.751 4 118541950.790 4     -2094.497          28.000  
G26  20734675.491 6 108961440.541 6     -2486.010          37.000  
G31  21551824.114 6 113255599.064 6     -3419.355          40.000  
> 2024 11 28  8 50 35.7930000  0  4                     
G16  18879064.009 4               4     -1598.564          24.000  
G18  22557855.115 4 118542369.724 4     -2094.759          27.000  
G26  20734769.984 6 108961937.821 6     -2486.618          37.000  
G31  21551954.310 6 113256282.965 6     -3419.620          40.000  
> 2024 11 28  8 50 35.9930000  0  4                     
G16  18879125.067 4               4     -1598.419          24.000  
G18  22557934.653 4 118542788.614 4     -2094.093          27.000  
G26  20734864.529 6 108962435.051 6     -2486.480          37.000  
G31  21552084.471 6 113256966.846 6     -3419.126          40.000  
> 2024 11 28  8 50 36.1930000  0  4                     
G16  18879186.562 4               4     -1597.845          24.000  
G18  22558014.244 4 118543207.560 4     -2094.951          27.000  
G26  20734959.144 6 108962932.280 6     -2485.973          37.000  
G31  21552214.702 6 113257650.738 6     -3419.730          40.000  
> 2024 11 28  8 50 36.3930000  0  4                     
G16  18879247.097 4               4     -1598.291          24.000  
G18  22558093.066 4 118543626.485 4     -2094.842          27.000  
G26  20735053.725 6 108963429.523 6     -2486.082          37.000  
G31  21552344.846 6 113258334.587 6     -3419.363          40.000  
> 2024 11 28  8 50 36.5930000  0  4                     
G16  18879308.469 4               4     -1597.227          24.000  
G18  22558171.959 4 118544045.377 4     -2094.455          28.000  
G26  20735148.357 6 108963926.742 6     -2486.261          37.000  
G31  21552474.990 6 113259018.484 6     -3419.693          40.000  
> 2024 11 28  8 50 36.7930000  0  4                     
G16  18879369.632 4               4     -1597.919          24.000  
G18  22558254.638 4 118544464.370 4     -2095.092          29.000  
G26  20735242.885 6 108964423.922 6     -2486.225          37.000  
G31  21552605.133 6 113259702.307 6     -3419.085          40.000  
> 2024 11 28  8 50 36.9930000  0  4                     
G16  18879430.952 4               4     -1598.241          24.000  
G18  22558333.443 4 118544883.235 4     -2094.032          29.000  
G26  20735337.395 6 108964921.136 6     -2485.958          39.000  
G31  21552735.294 6 113260386.175 6     -3419.264          40.000  
> 2024 11 28  8 50 37.1930000  0  4                     
G16  18879492.377 4               4     -1596.971          24.000  
G18  22558412.266 5 118545302.210 5     -2094.208          30.000  
G26  20735431.801 6 108965418.372 6     -2485.765          39.000  
G31  21552865.456 6 113261069.988 6     -3419.365          39.000  
> 2024 11 28  8 50 37.3930000  0  4                     
G16  18879552.371 4               4     -1596.845          24.000  
G18  22558492.257 5 118545721.093 5     -2094.279          31.000  
G26  20735526.294 6 108965915.554 6     -2486.110          39.000  
G31  21552995.582 6 113261753.873 6     -3419.577          41.000  
> 2024 11 28  8 50 37.5930000  0  4                     
G16  18879612.696 4               4     -1595.973          24.000  
G18  22558576.734 5 118546140.053 5     -2093.718          32.000  
G26  20735620.839 6 108966412.744 6     -2485.838          39.000  
G31  21553125.708 6 113262437.653 6     -3418.811          40.000  
> 2024 11 28  8 50 37.7930000  0  4                     
G16  18879672.830 4               4     -1596.414          24.000  
G18  22558656.621 5 118546559.024 5     -2094.886          32.000  
G26  20735715.454 6 108966909.889 6     -2486.325          39.000  
G31  21553255.887 6 113263121.466 6     -3419.210          40.000  
> 2024 11 28  8 50 37.9930000  0  4                     
G16  18879733.312 4               4     -1598.454          24.000  
G18  22558737.206 5 118546977.979 5     -2094.681          32.000  
G26  20735809.947 6 108967407.023 6     -2485.473          37.000  
G31  21553385.996 6 113263805.291 6     -3419.024          40.000  
> 2024 11 28  8 50 38.1930000  0  4                     
G16  18879793.934 4               4     -1599.321          24.000  
G18  22558817.076 5 118547397.010 5     -2095.504          32.000  
G26  20735904.632 6 108967904.195 6     -2485.924          37.000  
G31  21553516.296 6 113264489.136 6     -3419.338          40.000  
> 2024 11 28  8 50 38.3930000  0  4                     
G16  18879854.836 4               4     -1598.261          24.000  
G18  22558897.225 5 118547815.980 5     -2094.365          33.000  
G26  20735999.317 6 108968401.316 6     -2485.681          37.000  
G31  21553646.580 6 113265172.957 6     -3419.197          41.000  
> 2024 11 28  8 50 38.5930000  0  4                     
G16  18879915.196 4               4     -1597.988          24.000  
G18  22558974.529 5 118548235.031 5     -2095.571          33.000  
G26  20736093.880 6 108968898.449 6     -2485.345          38.000  
G31  21553776.671 6 113265856.736 6     -3418.849          40.000  
> 2024 11 28  8 50 38.7930000  0  4                     
G16  18879976.184 3               3     -1596.927          23.000  
G18  22559054.783 5 118548654.006 5     -2094.809          33.000  
G26  20736188.373 6 108969395.559 6     -2485.286          38.000  
G31  21553906.954 6 113266540.516 6     -3418.403          40.000  
> 2024 11 28  8 50 38.9930000  0  4                     
G16  18880036.231 3               3     -1593.171          23.000  
G18  22559134.391 5 118549072.948 5     -2094.451          33.000  
G26  20736282.900 6 108969892.666 6     -2485.836          38.000  
G31  21554037.028 6 113267224.273 6     -3418.496          40.000  
> 2024 11 28  8 50 39.1930000  0  4                     
G16  18880097.045 3               3     -1597.551          23.000  
G18  22559216.721 5 118549491.930 5     -2094.994          33.000  
G26  20736377.550 6 108970389.667 6     -2485.517          38.000  
G31  21554167.172 6 113267907.994 6     -3418.846          40.000  
> 2024 11 28  8 50 39.3930000  0  4                     
G16  18880157.545 3               3     -1597.551          22.000  
G18  22559295.613 5 118549910.851 5     -2094.659          33.000  
G26  20736472.078 6 108970886.666 6     -2485.074          38.000  
G31  21554297.263 6 113268591.686 6     -3418.599          40.000  
> 2024 11 28  8 50 39.5930000  0  4                     
G16  18880218.027 3               3     -1597.551          22.000  
G18  22559374.471 5 118550329.793 5     -2094.999          33.000  
G26  20736566.711 6 108971383.650 6     -2485.030          38.000  
G31  21554427.460 6 113269275.346 6     -3418.619          40.000  
> 2024 11 28  8 50 39.7930000  0  4                     
G16  18880279.277 3               3     -1600.882          22.000  
G18  22559454.340 5 118550748.675 5     -2094.429          33.000  
G26  20736661.291 6 108971880.627 6     -2484.825          38.000  
G31  21554557.586 6 113269958.996 6     -3418.540          40.000  
> 2024 11 28  8 50 39.9930000  0  4                     
G16  18880339.725 3               3     -1597.552          22.000  
G18  22559535.746 5 118551167.674 5     -2094.738          34.000  
G26  20736755.889 6 108972377.628 6     -2484.717          38.000  
G31  21554687.677 6 113270642.699 6     -3418.593          40.000  
> 2024 11 28  8 50 40.1930000  0  4                     
G16  18880400.312 3               3     -1597.552          21.000  
G18  22559616.331 5 118551586.645 5     -2095.083          34.000  
G26  20736850.608 6 108972874.620 6     -2484.972          38.000  
G31  21554817.873 6 113271326.368 6     -3418.588          40.000  
> 2024 11 28  8 50 40.3930000  0  4                     
G16  18880461.597 3               3     -1608.186          21.000  
G18  22559696.305 5 118552005.604 5     -2094.676          34.000  
G26  20736945.223 6 108973371.593 6     -2484.710          38.000  
G31  21554947.947 6 113272010.048 6     -3418.576          41.000  
> 2024 11 28  8 50 40.5930000  0  4                     
G16  18880522.167 3               3     -1591.741          21.000  
G18  22559777.396 5 118552424.679 5     -2095.248          34.000  
G26  20737039.769 6 108973868.638 6     -2485.034          38.000  
G31  21555078.073 6 113272693.786 6     -3418.745          41.000  
> 2024 11 28  8 50 40.7930000  0  4                     
G16  18880582.108 3               3     -1591.741          20.000  
G18  22559855.399 5 118552843.783 5     -2095.866          34.000  
G26  20737134.227 6 108974365.698 6     -2485.535          38.000  
G31  21555208.060 6 113273377.532 6     -3418.781          41.000  
> 2024 11 28  8 50 40.9930000  0  4                     
G16  18880642.678 3               3     -1600.523          20.000  
G18  22559934.797 5 118553262.826 5     -2095.585          34.000  
G26  20737228.912 6 108974862.695 6     -2484.817          39.000  
G31  21555338.256 6 113274061.279 6     -3418.948          41.000  
> 2024 11 28  8 50 41.1930000  0  4                     
G16  18880703.143 3               3     -1600.523          20.000  
G18  22560015.696 5 118553681.864 5     -2094.464          34.000  
G26  20737323.527 6 108975359.722 6     -2484.941          39.000  
G31  21555468.505 6 113274744.992 6     -3418.771          40.000  
> 2024 11 28  8 50 41.3930000  0  4                     
G16  18880763.119 3               3     -1600.523          20.000  
G18  22560096.247 5 118554101.014 5     -2095.980          34.000  
G26  20737418.107 6 108975856.742 6     -2485.060          39.000  
G31  21555598.666 6 113275428.689 6     -3418.452          40.000  
> 2024 11 28  8 50 41.5930000  0  4                     
G16  18880822.991 3               3     -1602.397          20.000  
G18  22560175.628 5 118554520.016 5     -2095.461          34.000  
G26  20737512.774 6 108976353.706 6     -2484.921          39.000  
G31  21555728.618 6 113276112.376 6     -3418.323          40.000  
> 2024 11 28  8 50 41.7930000  0  4                     
G16  18880884.939 3               3     -1602.397          20.000  
G18  22560255.148 5 118554939.028 5     -2094.359          34.000  
G26  20737607.250 6 108976850.633 6     -2484.269          39.000  
G31  21555858.761 6 113276796.035 6     -3418.349          40.000  
> 2024 11 28  8 50 41.9930000  0  4                     
G16  18880945.335 3               3     -1594.693          20.000  
G18  22560336.047 5 118555358.102 5     -2095.386          34.000  
G26  20737701.760 6 108977347.528 6     -2483.996          39.000  
G31  21555988.713 6 113277479.640 6     -3418.147          40.000  
> 2024 11 28  8 50 42.1930000  0  4                     
G16  18881004.962 3               3     -1590.575          20.000  
G18  22560415.533 5 118555777.054 5     -2095.392          34.000  
G26  20737796.340 6 108977844.416 6     -2484.524          39.000  
G31  21556118.752 6 113278163.230 6     -3418.197          40.000  
> 2024 11 28  8 50 42.3930000  0  4                     
G16  18881064.938 3               3     -1590.575          20.000  
G18  22560495.246 5 118556196.083 5     -2095.157          34.000  
G26  20737890.868 6 108978341.293 6     -2484.645          39.000  
G31  21556248.809 6 113278846.812 6     -3417.983          40.000  
> 2024 11 28  8 50 42.5930000  0  4                     
G16  18881126.730 3               3     -1592.595          20.000  
G18  22560575.412 5 118556615.167 5     -2095.896          34.000  
G26  20737985.361 6 108978838.152 6     -2484.446          39.000  
G31  21556378.900 6 113279530.406 6     -3417.680          40.000  
> 2024 11 28  8 50 42.7930000  0  4                     
G16  18881186.601 3               3     -1608.541          21.000  
G18  22560654.322 5 118557034.216 5     -2095.696          34.000  
G26  20738079.837 6 108979335.083 6     -2484.666          39.000  
G31  21556509.061 6 113280214.060 6     -3418.139          40.000  
> 2024 11 28  8 50 42.9930000  0  4                     
G16  18881248.619 3               3     -1593.904          20.000  
G18  22560734.226 5 118557453.296 5     -2094.815          34.000  
G26  20738174.417 6 108979831.999 6     -2484.702          39.000  
G31  21556639.048 6 113280897.710 6     -3418.275          40.000  
> 2024 11 28  8 50 43.1930000  0  4                     
G16  18881309.399 3               3     -1595.320          20.000  
G18  22560814.079 5 118557872.428 5     -2095.980          34.000  
G26  20738268.962 6 108980328.883 6     -2484.513          39.000  
G31  21556769.244 6 113281581.323 6     -3417.821          40.000  
> 2024 11 28  8 50 43.3930000  0  4                     
G16  18881369.846 3               3     -1595.320          20.000  
G18  22560893.372 5 118558291.452 5     -2094.955          34.000  
G26  20738363.472 6 108980825.707 6     -2483.930          39.000  
G31  21556899.283 6 113282264.894 6     -3417.829          40.000  
> 2024 11 28  8 50 43.5930000  0  4                     
G16  18881430.346 3               3     -1594.680          20.000  
G18  22560973.801 5 118558710.509 5     -2094.551          34.000  
G26  20738458.175 6 108981322.549 6     -2483.862          39.000  
G31  21557029.322 6 113282948.446 6     -3417.566          40.000  
> 2024 11 28  8 50 43.7930000  0  4                     
G16  18881491.422 3               3     -1592.795          21.000  
G18  22561052.902 5 118559129.611 5     -2095.528          34.000  
G26  20738552.772 6 108981819.352 6     -2483.956          39.000  
G31  21557159.483 6 113283632.005 6     -3417.638          40.000  
> 2024 11 28  8 50 43.9930000  0  4                     
G16  18881551.852 3               3     -1601.045          21.000  
G18  22561132.475 5 118559548.615 5     -2095.063          34.000  
G26  20738647.230 6 108982316.143 6     -2484.115          39.000  
G31  21557289.609 6 113284315.529 6     -3417.561          40.000  
> 2024 11 28  8 50 44.1930000  0  4                     
G16  18881613.381 3               3     -1597.759          21.000  
G18  22561212.415 5 118559967.640 5     -2094.828          34.000  
G26  20738741.846 6 108982812.875 6     -2483.698          39.000  
G31  21557419.701 6 113284999.027 6     -3417.691          40.000  
> 2024 11 28  8 50 44.3930000  0  4                     
G16  18881675.382 3               3     -1592.952          21.000  
G18  22561292.023 5 118560386.702 5     -2094.853          34.000  
G26  20738836.338 6 108983309.647 6     -2483.796          39.000  
G31  21557549.967 6 113285682.555 6     -3417.703          39.000  
> 2024 11 28  8 50 44.5930000  0  4                     
G16  18881737.557 3               3     -1596.409          21.000  
G18  22561371.596 5 118560805.780 5     -2095.334          34.000  
G26  20738930.866 6 108983806.433 6     -2483.811          39.000  
G31  21557680.058 6 113286366.071 6     -3417.534          39.000  
> 2024 11 28  8 50 44.7930000  0  4                     
G16  18881800.011 3               3     -1596.409          22.000  
G18  22561451.378 5 118561224.914 5     -2095.812          34.000  
G26  20739025.359 6 108984303.220 6     -2484.006          39.000  
G31  21557810.114 6 113287049.611 6     -3417.762          39.000  
> 2024 11 28  8 50 44.9930000  0  4                     
G16  18881859.761 3               3     -1600.283          22.000  
G18  22561531.108 5 118561644.031 5     -2095.267          34.000  
G26  20739119.887 6 108984800.037 6     -2483.906          39.000  
G31  21557940.223 6 113287733.178 6     -3417.762          39.000  
> 2024 11 28  8 50 45.1930000  0  4                     
G16  18881920.837 3               3     -1591.176          22.000  
G18  22561610.891 5 118562063.242 5     -2095.809          34.000  
G26  20739214.380 6 108985296.839 6     -2483.675          39.000  
G31  21558070.350 6 113288416.745 6     -3417.286          39.000  
> 2024 11 28  8 50 45.3930000  0  4                     
G16  18881982.017 3               3     -1591.772          22.000  
G18  22561690.708 5 118562482.393 5     -2095.812          34.000  
G26  20739308.768 6 108985793.653 6     -2484.204          39.000  
G31  21558200.528 6 113289100.323 6     -3417.754          40.000  
> 2024 11 28  8 50 45.5930000  0  4                     
G16  18882044.105 3               3     -1601.835          22.000  
G18  22561770.665 5 118562901.562 5     -2095.823          34.000  
G26  20739403.348 6 108986290.457 6     -2483.871          39.000  
G31  21558330.602 6 113289783.880 6     -3417.429          40.000  
> 2024 11 28  8 50 45.7930000  0  4                     
G16  18882104.884 3               3     -1593.552          22.000  
G18  22561850.377 5 118563320.688 5     -2095.258          34.000  
G26  20739497.929 6 108986787.194 6     -2483.500          39.000  
G31  21558460.693 6 113290467.403 6     -3417.295          40.000  
> 2024 11 28  8 50 45.9930000  0  4                     
G16  18882165.977 3               3     -1594.936          22.000  
G18  22561930.212 5 118563739.908 5     -2096.255          34.000  
G26  20739592.474 6 108987283.989 6     -2484.080          39.000  
G31  21558590.750 6 113291150.968 6     -3417.958          40.000  
> 2024 11 28  8 50 46.1930000  0  4                     
G16  18882227.071 3               3     -1601.988          22.000  
G18  22562010.082 5 118564159.090 5     -2096.277          34.000  
G26  20739686.984 6 108987780.746 6     -2483.565          39.000  
G31  21558720.806 6 113291834.511 6     -3417.657          40.000  
> 2024 11 28  8 50 46.3930000  0  4                     
G16  18882289.612 3               3     -1598.915          22.000  
G18  22562089.829 5 118564578.308 5     -2095.597          35.000  
G26  20739781.477 6 108988277.542 6     -2484.030          39.000  
G31  21558850.793 6 113292518.069 6     -3417.699          40.000  
> 2024 11 28  8 50 46.5930000  0  4                     
G16  18882351.857 3               3     -1598.589          23.000  
G18  22562169.664 5 118564997.589 5     -2096.961          35.000  
G26  20739875.988 6 108988774.353 6     -2484.398          39.000  
G31  21558980.954 6 113293201.665 6     -3418.335          40.000  
> 2024 11 28  8 50 46.7930000  0  4                     
G16  18882412.479 3               3     -1598.589          22.000  
G18  22562249.551 5 118565416.878 5     -2096.740          35.000  
G26  20739970.411 6 108989271.173 6     -2483.911          39.000  
G31  21559111.098 6 113293885.260 6     -3417.884          40.000  
> 2024 11 28  8 50 46.9930000  0  4                     
G16  18882473.729 3               3     -1602.552          23.000  
G18  22562329.386 5 118565836.183 5     -2096.574          35.000  
G26  20740064.869 6 108989768.008 6     -2483.929          38.000  
G31  21559241.259 6 113294568.893 6     -3418.195          40.000  
> 2024 11 28  8 50 47.1930000  0  4                     
G16  18882535.625 3               3     -1596.614          23.000  
G18  22562409.255 5 118566255.547 5     -2096.829          35.000  
G26  20740159.414 6 108990264.873 6     -2484.301          38.000  
G31  21559371.490 6 113295252.520 6     -3418.152          40.000  
> 2024 11 28  8 50 47.3930000  0  4                     
G16  18882597.451 3               3     -1599.999          23.000  
G18  22562489.090 5 118566674.903 5     -2096.792          35.000  
G26  20740253.994 6 108990761.735 6     -2484.357          38.000  
G31  21559501.529 6 113295936.166 6     -3418.133          40.000  
> 2024 11 28  8 50 47.5930000  0  5                     
G16  18882658.021 3               3     -1595.748          22.000  
G18  22562568.803 5 118567094.273 5     -2096.916          35.000  
G26  20740348.539 6 108991258.569 6     -2484.560          38.000  
G27  17804744.425 4               4      -500.510          25.000  
G31  21559631.655 6 113296619.809 6     -3418.275          40.000  
> 2024 11 28  8 50 47.7930000  0  5                     
G16  18882719.533 3               3     -1593.772          22.000  
G18  22562648.620 5 118567513.643 5     -2096.890          35.000  
G26  20740443.294 6 108991755.391 6     -2484.128          38.000  
G27  17804763.219 4               4      -501.394          25.000  
G31  21559761.729 6 113297303.450 6     -3418.369          40.000  
> 2024 11 28  8 50 47.9930000  0  5                     
G16  18882780.923 3               3     -1594.653          22.000  
G18  22562728.437 5 118567933.040 5     -2096.795          35.000  
G26  20740537.822 6 108992252.204 6     -2483.218          39.000  
G27  17804784.107 4               4      -500.035          25.000  
G31  21559891.856 6 113297987.074 6     -3418.109          40.000  
> 2024 11 28  8 50 48.1930000  0  5                     
G16  18882842.348 3               3     -1591.845          22.000  
G18  22562808.377 5 118568352.371 5     -2096.244          35.000  
G26  20740632.367 6 108992749.012 6     -2483.802          38.000  
G27  17804805.222 4               4      -500.717          25.000  
G31  21560021.930 6 113298670.642 6     -3417.663          40.000  
> 2024 11 28  8 50 48.3930000  0  5                     
G16  18882903.371 3               3     -1591.845          22.000  
G18  22562888.142 5 118568771.736 5     -2097.142          35.000  
G26  20740726.930 6 108993245.794 6     -2484.131          38.000  
G27  17804826.372 4               4      -500.910          25.000  
G31  21560152.073 6 113299354.233 6     -3418.247          40.000  
> 2024 11 28  8 50 48.5930000  0  5                     
G16  18882964.691 3               3     -1591.845          21.000  
G18  22562968.011 5 118569191.047 5     -2096.020          35.000  
G26  20740821.493 6 108993742.532 6     -2484.071          39.000  
G27  17804846.544 4               4      -501.708          25.000  
G31  21560282.182 6 113300037.771 6     -3417.985          40.000  
> 2024 11 28  8 50 48.7930000  0  5                     
G16  18883025.296 3               3     -1597.753          21.000  
G18  22563047.811 5 118569610.389 5     -2096.268          35.000  
G26  20740916.020 6 108994239.209 6     -2483.227          39.000  
G27  17804866.926 4               4      -499.416          25.000  
G31  21560412.326 6 113300721.262 6     -3417.043          40.000  
> 2024 11 28  8 50 48.9930000  0  5                     
G16  18883086.215 3               3     -1596.598          21.000  
G18  22563127.594 5 118570029.668 5     -2096.030          35.000  
G26  20741010.531 6 108994735.889 6     -2483.089          39.000  
G27  17804886.627 4               4      -501.069          25.000  
G31  21560542.382 6 113301404.772 6     -3417.876          40.000  
> 2024 11 28  8 50 49.1930000  0  5                     
G16  18883146.872 3               3     -1596.598          21.000  
G18  22563207.516 5 118570448.978 5     -2096.846          35.000  
G26  20741104.797 6 108995232.551 6     -2483.604          39.000  
G27  17804906.433 4               4      -500.317          25.000  
G31  21560672.282 6 113302088.217 6     -3417.335          40.000  
> 2024 11 28  8 50 49.3930000  0  5                     
G16  18883207.773 3               3     -1596.598          20.000  
G18  22563287.193 5 118570868.233 5     -2096.288          35.000  
G26  20741199.342 6 108995729.151 6     -2483.058          38.000  
G27  17804926.134 4               4      -500.962          25.000  
G31  21560802.233 6 113302771.635 6     -3417.214          40.000  
> 2024 11 28  8 50 49.5930000  0  5                     
G16  18883267.924 3               3     -1608.083          20.000  
G18  22563366.871 5 118571287.491 5     -2096.178          35.000  
G26  20741293.730 6 108996225.738 6     -2483.058          39.000  
G27  17804945.469 4               4      -501.141          25.000  
G31  21560932.325 6 113303455.047 6     -3417.109          40.000  
> 2024 11 28  8 50 49.7930000  0  5                     
G16  18883328.947 3               3     -1608.083          20.000  
G18  22563446.619 5 118571706.755 5     -2096.507          35.000  
G26  20741388.188 6 108996722.321 6     -2483.238          39.000  
G27  17804964.909 4               4      -501.349          25.000  
G31  21561062.242 6 113304138.436 6     -3416.887          40.000  
> 2024 11 28  8 50 49.9930000  0  5                     
G16  18883390.354 3               3     -1608.083          19.000  
G18  22563526.418 5 118572126.069 5     -2096.566          34.000  
G26  20741482.716 6 108997218.933 6     -2483.050          39.000  
G27  17804984.279 4               4      -493.761          25.000  
G31  21561192.490 6 113304821.864 6     -3416.953          40.000  
> 2024 11 28  8 50 50.1930000  0  6                     
G16  18883451.605 3               3     -1608.083          19.000  
G18  22563606.236 5 118572545.318 5     -2096.416          35.000  
G26  20741577.262 6 108997715.454 6     -2482.945          39.000  
G27  17805003.369 4               4      -501.300          25.000  
G31  21561322.582 6 113305505.218 6     -3416.618          40.000  
R14 317883771.024 5               5      -987.879          32.000  
> 2024 11 28  8 50 50.3930000  0  6                     
G16  18883513.256 3               3     -1608.083          18.000  
G18  22563685.966 5 118572964.531 5     -2096.350          35.000  
G26  20741671.720 6 108998211.934 6     -2482.560          39.000  
G27  17805021.256 4               4      -500.854          25.000  
G31  21561452.463 6 113306188.545 6     -3416.868          40.000  
R14  18091351.886 5  96437026.304 5      -987.286          32.000  
> 2024 11 28  8 50 50.5930000  0  6                     
G16  18883574.088 3               3     -1608.083          18.000  
G18  22563765.748 5 118573383.705 5     -2095.955          34.000  
G26  20741766.265 6 108998708.388 6     -2482.042          39.000  
G27  17805039.404 4               4      -498.375          24.000  
G31  21561582.450 6 113306871.816 6     -3416.327          40.000  
R14  18091389.125 5  96437223.777 5      -986.710          32.000  
> 2024 11 28  8 50 50.7930000  0  6                     
G16  18883634.989 3               3     -1608.083          18.000  
G18  22563845.513 5 118573802.874 5     -2095.721          35.000  
G26  20741860.915 6 108999204.808 6     -2482.476          39.000  
G27  17805057.971 4               4      -500.832          24.000  
G31  21561712.437 6 113307555.061 6     -3416.212          40.000  
R14  18091428.213 5  96437421.257 5      -987.311          32.000  
> 2024 11 28  8 50 50.9930000  0  6                     
G16  18883695.855 2               2     -1608.083          17.000  
G18  22563925.330 5 118574222.052 5     -2095.451          34.000  
G26  20741955.251 6 108999701.200 6     -2482.080          39.000  
G27  17805075.927 4               4      -500.926          24.000  
G31  21561842.458 6 113308238.308 6     -3416.198          40.000  
R14  18091463.480 5  96437618.746 5      -987.520          32.000  
> 2024 11 28  8 50 51.1930000  0  6                     
G16  18883756.285 2               2     -1608.083          16.000  
G18  22564005.113 5 118574641.194 5     -2095.685          35.000  
G26  20742049.744 6 109000197.546 6     -2481.655          39.000  
G27  17805094.529 4               4      -500.423          24.000  
G31  21561972.236 6 113308921.513 6     -3415.992          40.000  
R14  18091499.078 5  96437816.211 5      -987.624          32.000  
> 2024 11 28  8 50 51.3930000  0  6                     
G16  18883817.169 2               2     -1608.083          15.000  
G18  22564084.721 5 118575060.358 5     -2095.862          34.000  
G26  20742144.097 6 109000693.906 6     -2481.498          39.000  
G27  17805112.555 4               4      -498.837          24.000  
G31  21562102.257 6 113309604.707 6     -3416.238          40.000  
R14  18091535.724 5  96438013.621 5      -987.437          32.000  
> 2024 11 28  8 50 51.5930000  0  6                     
G16  18883878.193 2               2     -1608.083          15.000  
G18  22564164.520 5 118575479.545 5     -2096.133          35.000  
G26  20742238.415 6 109001190.254 6     -2481.774          39.000  
G27  17805131.471 4               4      -499.210          24.000  
G31  21562232.261 6 113310287.897 6     -3416.128          40.000  
R14  18091575.283 5  96438211.071 5      -987.378          32.000  
> 2024 11 28  8 50 51.7930000  0  6                     
G16  18883939.111 2               2     -1608.083          14.000  
G18  22564244.355 5 118575898.690 5     -2095.870          35.000  
G26  20742332.769 6 109001686.621 6     -2482.014          39.000  
G27  17805150.038 3               3      -500.885          23.000  
G31  21562362.405 6 113310971.081 6     -3415.863          40.000  
R14  18091611.615 5  96438408.519 5      -987.157          32.000  
> 2024 11 28  8 50 51.9930000  0  6                     
G16  18883999.995 2               2     -1593.953          14.000  
G18  22564324.138 5 118576317.876 5     -2095.769          34.000  
G26  20742427.244 6 109002182.902 6     -2481.340          39.000  
G27  17805168.117 3               3      -500.794          23.000  
G31  21562492.462 6 113311654.233 6     -3415.414          40.000  
R14  18091647.859 5  96438605.959 5      -987.103          32.000  
> 2024 11 28  8 50 52.1930000  0  6                     
G16  18884060.356 2               2     -1593.953          13.000  
G18  22564403.833 5 118576737.000 5     -2095.487          35.000  
G26  20742521.842 6 109002679.194 6     -2481.198          39.000  
G27  17805186.352 3               3      -498.929          23.000  
G31  21562622.413 6 113312337.390 6     -3415.667          40.000  
R14  18091684.661 5  96438803.385 5      -987.370          32.000  
> 2024 11 28  8 50 52.3930000  0  6                     
G16  18884120.873 2               2     -1593.953          12.000  
G18  22564483.615 5 118577156.145 5     -2096.108          35.000  
G26  20742616.317 6 109003175.455 6     -2481.216          39.000  
G27  17805204.151 3               3      -500.258          23.000  
G31  21562752.365 6 113313020.488 6     -3415.572          40.000  
R14  18091719.614 5  96439000.733 5      -986.392          32.000  
> 2024 11 28  8 50 52.5930000  0  6                     
G16  18884180.971 2               2     -1593.953          12.000  
G18  22564563.398 5 118577575.232 5     -2095.532          35.000  
G26  20742710.706 6 109003671.673 6     -2481.333          39.000  
G27  17805222.980 3               3      -498.544          23.000  
G31  21562882.387 6 113313703.568 6     -3415.375          40.000  
R14  18091755.719 5  96439198.169 5      -987.395          32.000  
> 2024 11 28  8 50 52.7930000  0  6                     
G16  18884242.082 2               2     -1593.953          12.000  
G18  22564643.128 5 118577994.350 5     -2095.352          35.000  
G26  20742805.129 6 109004167.864 6     -2480.575          39.000  
G27  17805240.587 3               3      -500.298          23.000  
G31  21563012.426 6 113314386.633 6     -3415.005          40.000  
R14  18091793.498 5  96439395.495 5      -986.790          31.000  
> 2024 11 28  8 50 52.9930000  0  6                     
G16  18884303.786 1               1     -1593.953          11.000  
G18  22564722.875 5 118578413.406 5     -2094.838          35.000  
G26  20742899.499 6 109004664.054 6     -2481.031          39.000  
G27  17805258.840 3               3      -499.210          23.000  
G31  21563142.482 6 113315069.678 6     -3415.135          40.000  
R14  18091831.034 5  96439592.830 5      -986.110          31.000  
> 2024 11 28  8 50 53.1930000  0  6                     
G16  18884364.007 1               1     -1593.953          10.000  
G18  22564802.658 5 118578832.524 5     -2095.553          35.000  
G26  20742993.958 6 109005160.173 6     -2480.463          39.000  
G27  17805277.146 3               3      -498.075          23.000  
G31  21563272.434 6 113315752.681 6     -3415.120          40.000  
R14  18091867.784 5  96439790.180 5      -987.174          31.000  
> 2024 11 28  8 50 53.3930000  0  6                     
G16  18884425.083 1               1     -1593.953          10.000  
G18  22564882.265 5 118579251.585 5     -2095.479          34.000  
G26  20743088.241 6 109005656.301 6     -2480.413          39.000  
G27  17805295.311 3               3      -498.116          23.000  
G31  21563402.438 6 113316435.670 6     -3415.115          40.000  
R14  18091906.454 5  96439987.467 5      -986.017          31.000  
> 2024 11 28  8 50 53.5930000  0  6                     
G16  18884485.356 1               1     -1593.953          11.000  
G18  22564962.100 5 118579670.673 5     -2095.632          34.000  
G26  20743182.577 6 109006152.444 6     -2481.071          39.000  
G27  17805313.861 3               3      -500.648          23.000  
G31  21563532.425 6 113317118.662 6     -3414.954          40.000  
R14  18091944.181 5  96440184.784 5      -986.700          31.000  
> 2024 11 28  8 50 53.7930000  0  6                     
G16  18884544.407 1               1     -1593.953          11.000  
G18  22565041.865 5 118580089.812 5     -2096.005          34.000  
G26  20743276.895 6 109006648.574 6     -2480.496          39.000  
G27  17805333.039 3               3      -500.697          23.000  
G31  21563662.429 6 113317801.677 6     -3414.638          39.000  
R14  18091980.146 5  96440382.113 5      -985.615          31.000  
> 2024 11 28  8 50 53.9930000  0  6                     
G16  18884604.628 1               1     -1593.953          11.000  
G18  22565121.647 5 118580508.911 5     -2095.802          35.000  
G26  20743371.266 6 109007144.688 6     -2480.350          39.000  
G27  17805352.094 3               3      -501.010          23.000  
G31  21563792.398 6 113318484.686 6     -3414.496          39.000  
R14  18092016.704 5  96440579.555 5      -987.494          31.000  
> 2024 11 28  8 50 54.1930000  0  6                     
G16  18884666.000 1               1     -1593.953          11.000  
G18  22565201.447 5 118580928.035 5     -2095.398          34.000  
G26  20743465.567 6 109007640.822 6     -2480.427          39.000  
G27  17805370.993 3               3      -500.435          23.000  
G31  21563922.437 6 113319167.700 6     -3414.990          40.000  
R14  18092052.338 5  96440776.873 5      -987.191          31.000  
> 2024 11 28  8 50 54.3930000  0  6                     
G16  18884726.797 1               1     -1605.889          11.000  
G18  22565281.125 5 118581347.166 5     -2096.105          35.000  
G26  20743559.973 6 109008136.905 6     -2480.353          39.000  
G27  17805390.153 3               3      -499.548          23.000  
G31  21564052.441 6 113319850.678 6     -3414.836          39.000  
R14  18092088.704 5  96440974.183 5      -986.342          31.000  
> 2024 11 28  8 50 54.5930000  0  6                     
G16  18884787.838 1               1     -1605.889          11.000  
G18  22565360.733 5 118581766.205 5     -2095.358          35.000  
G26  20743654.309 6 109008632.946 6     -2480.379          39.000  
G27  17805409.837 3               3      -499.111          23.000  
G31  21564182.410 6 113320533.593 6     -3414.755          39.000  
R14  18092124.878 5  96441171.435 5      -986.208          31.000  
> 2024 11 28  8 50 54.7930000  0  6                     
G16  18884849.053 1               1     -1605.889          11.000  
G18  22565440.637 5 118582185.320 5     -2095.316          35.000  
G26  20743748.679 6 109009128.965 6     -2480.158          39.000  
G27  17805428.875 3               3      -499.240          23.000  
G31  21564312.223 6 113321216.507 6     -3414.311          39.000  
R14  18092161.785 5  96441368.740 5      -986.638          32.000  
> 2024 11 28  8 50 54.9930000  0  6                     
G16  18884911.193 1               1     -1605.889          11.000  
G18  22565520.420 5 118582604.382 5     -2095.764          35.000  
G26  20743842.876 6 109009624.985 6     -2479.792          39.000  
G27  17805448.681 3               3      -503.759          23.000  
G31  21564442.139 6 113321899.417 6     -3414.397          39.000  
R14  18092199.460 5  96441565.994 5      -985.976          31.000  
> 2024 11 28  8 50 55.1930000  0  6                     
G16  18884973.142 2               2     -1605.889          12.000  
G18  22565600.290 5 118583023.478 5     -2095.583          35.000  
G26  20743937.194 6 109010121.002 6     -2480.052          39.000  
G27  17805469.918 3               3      -500.065          23.000  
G31  21564572.126 6 113322582.318 6     -3414.312          39.000  
R14  18092236.507 5  96441763.307 5      -986.810          32.000  
> 2024 11 28  8 50 55.3930000  0  6                     
G16  18885033.781 2               2     -1605.889          12.000  
G18  22565680.020 5 118583442.544 5     -2095.470          35.000  
G26  20744031.530 6 109010617.001 6     -2480.303          39.000  
G27  17805490.021 3               3      -498.658          23.000  
G31  21564702.113 6 113323265.210 6     -3414.355          39.000  
R14  18092274.112 5  96441960.528 5      -986.002          32.000  
> 2024 11 28  8 50 55.5930000  0  6                     
G16  18885095.380 2               2     -1605.889          13.000  
G18  22565759.750 5 118583861.632 5     -2095.458          35.000  
G26  20744125.901 6 109011112.953 6     -2479.952          39.000  
G27  17805509.443 3               3      -499.881          23.000  
G31  21564831.977 6 113323948.086 6     -3414.337          39.000  
R14  18092310.374 5  96442157.805 5      -986.809          32.000  
> 2024 11 28  8 50 55.7930000  0  6                     
G16  18885156.596 2               2     -1605.889          12.000  
G18  22565839.584 5 118584280.705 5     -2095.710          35.000  
G26  20744220.254 6 109011608.875 6     -2479.122          39.000  
G27  17805529.668 3               3      -498.756          23.000  
G31  21564961.929 6 113324630.925 6     -3414.178          39.000  
R14  18092347.665 5  96442354.994 5      -985.885          33.000  
> 2024 11 28  8 50 55.9930000  0  6                     
G16  18885216.624 2               2     -1605.889          12.000  
G18  22565919.384 5 118584699.711 5     -2095.097          35.000  
G26  20744314.590 6 109012104.775 6     -2479.614          39.000  
G27  17805548.776 3               3      -499.280          23.000  
G31  21565091.863 6 113325313.699 6     -3414.150          39.000  
R14  18092384.694 5  96442552.190 5      -986.035          33.000  
> 2024 11 28  8 50 56.1930000  0  6                     
G16  18885277.246 2               2     -1605.889          12.000  
G18  22565999.306 5 118585118.751 5     -2095.108          35.000  
G26  20744409.013 6 109012600.658 6     -2479.205          39.000  
G27  17805569.035 3               3      -498.106          23.000  
G31  21565221.780 6 113325996.499 6     -3413.892          39.000  
R14  18092421.375 5  96442749.395 5      -985.904          33.000  
> 2024 11 28  8 50 56.3930000  0  7                     
G16  18885338.916 2               2     -1605.889          12.000  
G18  22566078.949 5 118585537.791 5     -2095.430          35.000  
G26  20744503.366 6 109013096.511 6     -2479.318          39.000  
G27  17805588.929 3               3      -498.973          23.000  
G31  21565351.645 6 113326679.269 6     -3413.478          39.000  
R14  18092458.369 5  96442946.581 5      -986.576          33.000  
R17  18173901.173 4  97252188.796 4      2923.085          28.000  
> 2024 11 28  8 50 56.5930000  0  7                     
G16  18885400.550 2               2     -1605.889          12.000  
G18  22566158.731 5 118585956.752 5     -2094.137          35.000  
G26  20744597.702 6 109013592.319 6     -2478.768          39.000  
G27  17805608.961 3               3      -497.753          23.000  
G31  21565481.614 6 113327362.002 6     -3413.247          39.000  
R14  18092495.660 5  96443143.667 5      -985.793          33.000  
R17  18173791.830 4  97251604.320 4      2922.431          28.000  
> 2024 11 28  8 50 56.7930000  0  7                     
G16  18885461.660 1               1     -1595.205          11.000  
G18  22566238.601 5 118586375.770 5     -2094.831          35.000  
G26  20744692.213 6 109014088.132 6     -2478.838          39.000  
G27  17805627.860 3               3      -500.419          23.000  
G31  21565611.548 6 113328044.677 6     -3412.997          40.000  
R14  18092532.602 5  96443340.802 5      -985.427          34.000  
R17  18173680.533 4  97251019.754 4      2922.525          28.000  
> 2024 11 28  8 50 56.9930000  0  7                     
G16  18885522.527 2               2     -1595.205          12.000  
G18  22566318.314 5 118586794.690 5     -2094.338          35.000  
G26  20744786.479 6 109014583.876 6     -2478.717          39.000  
G27  17805646.497 4               4      -497.214          24.000  
G31  21565741.413 6 113328727.357 6     -3413.150          39.000  
R14  18092570.051 5  96443537.819 5      -984.727          34.000  
R17  18173568.101 4  97250435.140 4      2923.073          28.000  
> 2024 11 28  8 50 57.1930000  0  7                     
G16  18885583.568 1               1     -1595.205          11.000  
G18  22566398.061 5 118587213.598 5     -2093.816          34.000  
G26  20744880.832 6 109015079.539 6     -2478.233          39.000  
G27  17805666.931 3               3      -500.334          23.000  
G31  21565871.295 6 113329409.919 6     -3412.684          39.000  
R14  18092607.167 5  96443734.905 5      -985.152          34.000  
R17  18173456.786 4  97249850.502 4      2923.141          28.000  
> 2024 11 28  8 50 57.3930000  0  7                     
G16  18885645.184 1               1     -1595.205          11.000  
G18  22566477.721 5 118587632.505 5     -2094.681          34.000  
G26  20744975.168 6 109015575.128 6     -2478.033          40.000  
G27  17805685.446 4               4      -500.409          24.000  
G31  21566001.194 6 113330092.507 6     -3413.230          39.000  
R14  18092644.162 5  96443931.935 5      -986.434          34.000  
R17  18173348.403 4  97249265.901 4      2922.393          28.000  
> 2024 11 28  8 50 57.5930000  0  6                     
G18  22566557.399 5 118588051.372 5     -2093.790          33.000  
G26  20745069.486 6 109016070.741 6     -2477.743          40.000  
G27  17805704.920 3               3      -499.973          23.000  
G31  21566131.041 6 113330775.056 6     -3412.583          39.000  
R14  18092681.086 5  96444128.891 5      -984.965          34.000  
R17  18173237.681 4  97248681.212 4      2923.665          28.000  
> 2024 11 28  8 50 57.7930000  0  6                     
G18  22566637.164 5 118588470.329 5     -2095.124          33.000  
G26  20745163.892 6 109016566.384 6     -2478.166          38.000  
G27  17805724.011 3               3      -499.116          23.000  
G31  21566260.871 6 113331457.617 6     -3412.910          39.000  
R14  18092717.976 5  96444325.913 5      -985.494          34.000  
R17  18173128.809 4  97248096.697 4      2922.012          28.000  
> 2024 11 28  8 50 57.9930000  0  6                     
G18  22566716.911 4 118588889.206 4     -2094.807          29.000  
G26  20745258.176 6 109017062.042 6     -2478.429          38.000  
G27  17805743.450 3               3      -498.856          23.000  
G31  21566390.736 6 113332140.193 6     -3412.953          40.000  
R14  18092754.988 5  96444522.945 5      -985.263          34.000  
R17  18173019.937 4  97247512.034 4      2923.012          28.000  
> 2024 11 28  8 50 58.1930000  0  6                     
G18  22566796.746 4 118589308.177 4     -2095.031          29.000  
G26  20745352.477 6 109017557.694 6     -2478.016          38.000  
G27  17805762.349 3               3      -497.735          23.000  
G31  21566520.670 6 113332822.821 6     -3413.203          40.000  
R14  18092792.105 5  96444720.058 5      -985.289          34.000  
R17  18172909.408 4  97246927.505 4      2922.363          28.000  
> 2024 11 28  8 50 58.3930000  0  6                     
G18  22566876.197 4 118589727.226 4     -2095.397          28.000  
G26  20745446.586 6 109018053.413 6     -2478.475          38.000  
G27  17805781.457 3               3      -498.702          23.000  
G31  21566650.604 6 113333505.430 6     -3413.198          41.000  
R14  18092829.239 5  96444917.179 5      -985.857          34.000  
R17  18172801.740 4  97246343.042 4      2922.096          27.000  
> 2024 11 28  8 50 58.5930000  0  6                     
G18  22566955.910 4 118590146.158 4     -2094.827          29.000  
G26  20745540.834 6 109018549.096 6     -2478.393          38.000  
G27  17805799.989 3               3      -500.768          23.000  
G31  21566780.521 6 113334188.068 6     -3413.068          41.000  
R14  18092866.286 5  96445114.303 5      -985.131          34.000  
R17  18172693.374 4  97245758.567 4      2922.578          27.000  
> 2024 11 28  8 50 58.7930000  0  6                     
G18  22567036.425 4 118590565.225 4     -2095.309          29.000  
G26  20745635.170 6 109019044.823 6     -2478.787          36.000  
G27  17805818.259 3               3      -494.392          23.000  
G31  21566910.420 6 113334870.713 6     -3413.068          40.000  
R14  18092903.385 5  96445311.451 5      -985.583          34.000  
R17  18172583.333 4  97245174.196 4      2922.174          27.000  
> 2024 11 28  8 50 58.9930000  0  5                     
G18  22567117.638 4 118590984.293 4     -2095.219          29.000  
G26  20745729.523 6 109019540.490 6     -2478.467          36.000  
G31  21567040.215 6 113335553.361 6     -3413.282          39.000  
R14  18092940.501 5  96445508.613 5      -985.667          34.000  
R17  18172472.995 4  97244589.755 4      2921.834          27.000  
> 2024 11 28  8 50 59.1930000  0  5                     
G18  22567197.665 5 118591403.355 5     -2096.657          30.000  
G26  20745823.824 6 109020036.135 6     -2478.195          36.000  
G31  21567170.167 6 113336235.953 6     -3413.032          40.000  
R14  18092977.478 5  96445705.734 5      -985.727          34.000  
R17  18172362.849 4  97244005.273 4      2922.755          27.000  
> 2024 11 28  8 50 59.3930000  0  5                     
G18  22567276.488 5 118591822.347 5     -2095.405          30.000  
G26  20745918.178 6 109020531.821 6     -2478.765          37.000  
G31  21567300.084 6 113336918.571 6     -3413.123          40.000  
R14  18093014.612 5  96445902.879 5      -985.579          34.000  
R17  18172252.843 4  97243420.875 4      2922.575          27.000  
> 2024 11 28  8 50 59.5930000  0  5                     
G18  22567354.542 5 118592241.463 5     -2095.787          30.000  
G26  20746012.566 6 109021027.474 6     -2478.281          37.000  
G31  21567429.931 6 113337601.190 6     -3412.937          40.000  
R14  18093051.642 5  96446100.024 5      -985.366          34.000  
R17  18172143.797 4  97242836.513 4      2922.095          27.000  
> 2024 11 28  8 50 59.7930000  0  5                     
G18  22567432.876 5 118592660.507 5     -2096.038          31.000  
G26  20746107.059 6 109021523.101 6     -2478.190          37.000  
G31  21567559.813 6 113338283.788 6     -3413.044          40.000  
R14  18093088.566 5  96446297.175 5      -985.600          34.000  
R17  18172034.785 4  97242252.136 4      2922.023          27.000  
> 2024 11 28  8 50 59.9930000  0  5                     
G18  22567515.154 5 118593079.523 5     -2094.554          31.000  
G26  20746201.447 6 109022018.790 6     -2478.501          37.000  
G31  21567689.677 6 113338966.414 6     -3413.043          40.000  
R14  18093125.491 5  96446494.371 5      -986.256          33.000  
R17  18171924.744 4  97241667.846 4      2921.372          26.000  
> 2024 11 28  8 51  0.1930000  0  5                     
G18  22567592.773 5 118593498.653 5     -2094.972          31.000  
G26  20746295.818 6 109022514.415 6     -2478.243          37.000  
G31  21567819.542 6 113339649.026 6     -3412.865          40.000  
R14  18093162.573 5  96446691.530 5      -985.672          33.000  
R17  18171814.703 4  97241083.488 4      2922.103          26.000  
> 2024 11 28  8 51  0.3930000  0  5                     
G18  22567671.875 5 118593917.744 5     -2095.076          31.000  
G26  20746390.171 6 109023010.046 6     -2478.039          38.000  
G31  21567949.476 6 113340331.609 6     -3412.823          40.000  
R14  18093199.620 5  96446888.685 5      -986.347          33.000  
R17  18171704.435 4  97240499.183 4      2921.324          26.000  
> 2024 11 28  8 51  0.5930000  0  5                     
G18  22567753.821 5 118594336.770 5     -2094.199          31.000  
G26  20746484.402 6 109023505.619 6     -2477.912          38.000  
G31  21568079.358 6 113341014.147 6     -3412.388          40.000  
R14  18093236.736 5  96447085.786 5      -985.544          33.000  
R17  18171595.459 4  97239914.775 4      2922.250          26.000  
> 2024 11 28  8 51  0.7930000  0  5                     
G18  22567835.139 5 118594755.880 5     -2094.683          31.000  
G26  20746578.721 6 109024001.185 6     -2477.621          38.000  
G31  21568209.188 6 113341696.712 6     -3412.403          40.000  
R14  18093273.766 5  96447282.931 5      -986.076          33.000  
R17  18171486.534 4  97239330.422 4      2922.214          26.000  
> 2024 11 28  8 51  0.9930000  0  5                     
G18  22567913.490 5 118595174.902 5     -2095.578          31.000  
G26  20746672.952 6 109024496.711 6     -2477.809          38.000  
G31  21568339.035 6 113342379.222 6     -3412.876          40.000  
R14  18093310.743 5  96447479.989 5      -985.795          34.000  
R17  18171377.104 4  97238746.095 4      2921.760          26.000  
> 2024 11 28  8 51  1.1930000  0  5                     
G18  22567992.802 5 118595593.960 5     -2095.658          32.000  
G26  20746767.288 6 109024992.224 6     -2477.226          38.000  
G31  21568469.022 6 113343061.704 6     -3412.520          40.000  
R14  18093347.615 5  96447677.094 5      -985.652          34.000  
R17  18171268.110 4  97238161.738 4      2921.960          26.000  
> 2024 11 28  8 51  1.3930000  0  5                     
G18  22568070.507 5 118596012.926 5     -2095.076          32.000  
G26  20746861.589 6 109025487.727 6     -2476.988          38.000  
G31  21568598.904 6 113343744.164 6     -3412.096          40.000  
R14  18093384.540 5  96447874.114 5      -985.000          34.000  
R17  18171158.767 4               4      2919.851          25.000  
> 2024 11 28  8 51  1.5930000  0  5                     
G18  22568148.946 5 118596431.969 5     -2095.904          32.000  
G26  20746955.872 6 109025983.181 6     -2477.282          38.000  
G31  21568728.681 6 113344426.620 6     -3412.392          40.000  
R14  18093421.604 5  96448071.172 5      -985.601          33.000  
R17  18171049.773 4               4      2920.668          25.000  
> 2024 11 28  8 51  1.7930000  0  5                     
G18  22568227.542 5 118596850.936 5     -2094.323          32.000  
G26  20747050.156 6 109026478.619 6     -2477.039          38.000  
G31  21568858.423 6 113345109.042 6     -3412.332          40.000  
R14  18093458.616 5  96448268.212 5      -985.267          33.000  
R17  18170940.151 4               4      2922.374          25.000  
> 2024 11 28  8 51  1.9930000  0  5                     
G18  22568307.324 5 118597269.952 5     -2095.149          31.000  
G26  20747144.405 6 109026974.038 6     -2477.063          38.000  
G31  21568988.183 6 113345791.435 6     -3412.031          40.000  
R14  18093495.575 5  96448465.188 5      -984.769          33.000  
R17  18170830.528 4               4      2922.094          25.000  
> 2024 11 28  8 51  2.1930000  0  5                     
G18  22568386.915 5 118597688.951 5     -2094.844          31.000  
G26  20747238.740 6 109027469.434 6     -2476.862          38.000  
G31  21569118.117 6 113346473.836 6     -3412.105          40.000  
R14  18093532.587 5  96448662.197 5      -984.407          33.000  
R17  18170721.150 4               4      2922.288          25.000  
> 2024 11 28  8 51  2.3930000  0  5                     
G18  22568467.186 5 118598107.981 5     -2095.318          31.000  
G26  20747332.989 6 109027964.892 6     -2477.206          38.000  
G31  21569247.912 6 113347156.277 6     -3412.578          40.000  
R14  18093569.582 5  96448859.253 5      -984.940          33.000  
R17  18170611.127 4               4      2920.238          25.000  
> 2024 11 28  8 51  2.5930000  0  5                     
G18  22568548.748 5 118598527.020 5     -2094.869          31.000  
G26  20747427.220 6 109028460.315 6     -2477.176          38.000  
G31  21569377.689 6 113347838.668 6     -3411.666          40.000  
R14  18093606.611 5  96449056.328 5      -985.519          33.000  
R17  18170501.330 4               4      2923.159          24.000  
> 2024 11 28  8 51  2.7930000  0  5                     
G18  22568630.398 5 118598946.013 5     -2094.635          31.000  
G26  20747521.539 6 109028955.688 6     -2476.961          38.000  
G31  21569507.624 6 113348521.066 6     -3412.081          40.000  
R14  18093643.414 5  96449253.306 5      -984.896          33.000  
R17  18170391.341 4               4      2921.523          24.000  
> 2024 11 28  8 51  2.9930000  0  5                     
G18  22568710.093 5 118599365.105 5     -2095.381          31.000  
G26  20747615.752 6 109029451.076 6     -2476.510          38.000  
G31  21569637.453 6 113349203.454 6     -3411.815          40.000  
R14  18093680.408 5  96449450.345 5      -984.357          33.000  
R17  18170281.911 4               4      2922.241          24.000  
> 2024 11 28  8 51  3.1930000  0  5                     
G18  22568788.497 5 118599784.111 5     -2095.160          31.000  
G26  20747710.001 6 109029946.427 6     -2477.083          37.000  
G31  21569767.370 6 113349885.800 6     -3411.583          40.000  
R14  18093717.402 5  96449647.353 5      -984.718          32.000  
R17  18170171.538 4               4      2921.673          24.000  
> 2024 11 28  8 51  3.3930000  0  5                     
G18  22568868.000 5 118600203.078 5     -2095.635          31.000  
G26  20747804.302 6 109030441.699 6     -2476.213          37.000  
G31  21569897.182 6 113350568.094 6     -3411.506          40.000  
R14  18093754.449 5  96449844.337 5      -985.274          32.000  
R17  18170061.584 4               4      2921.716          24.000  
> 2024 11 28  8 51  3.5930000  0  5                     
G18  22568947.852 5 118600622.049 5     -2095.120          31.000  
G26  20747898.516 6 109030937.001 6     -2476.548          37.000  
G31  21570027.082 6 113351250.394 6     -3411.624          40.000  
R14  18093791.391 5  96450041.288 5      -985.158          32.000  
R17  18169951.596 4               4      2921.755          24.000  
> 2024 11 28  8 51  3.7930000  0  5                     
G18  22569027.774 5 118601041.086 5     -2095.113          31.000  
G26  20747992.764 6 109031432.317 6     -2476.317          37.000  
G31  21570156.876 6 113351932.725 6     -3411.727          40.000  
R14  18093828.438 5  96450238.281 5      -984.899          32.000  
R17  18169842.410 4               4      2919.829          24.000  
> 2024 11 28  8 51  3.9930000  0  5                     
G18  22569107.609 5 118601460.141 5     -2094.879          30.000  
G26  20748087.013 6 109031927.662 6     -2476.781          37.000  
G31  21570286.723 6 113352615.083 6     -3411.687          40.000  
R14  18093865.328 5  96450435.271 5      -984.785          35.000  
R17  18169730.833 4               4      2918.872          24.000  
> 2024 11 28  8 51  4.1930000  0  5                     
G18  22569187.147 5 118601879.168 5     -2095.027          30.000  
G26  20748181.296 6 109032422.960 6     -2476.491          37.000  
G31  21570416.518 6 113353297.434 6     -3412.219          40.000  
R14  18093902.357 5  96450632.316 5      -984.985          35.000  
R17  18169621.123 4               4      2922.151          24.000  
> 2024 11 28  8 51  4.3930000  0  5                     
G18  22569265.446 5 118602298.326 5     -2096.233          30.000  
G26  20748275.406 6 109032918.350 6     -2477.018          37.000  
G31  21570546.261 6 113353979.806 6     -3412.341          40.000  
R14  18093939.422 5  96450829.405 5      -985.866          35.000  
R17  18169511.396 4               4      2921.723          24.000  
> 2024 11 28  8 51  4.5930000  0  5                     
G18  22569342.838 5 118602717.446 5     -2095.643          30.000  
G26  20748369.637 6 109033413.699 6     -2476.914          37.000  
G31  21570676.143 6 113354662.190 6     -3412.043          40.000  
R14  18093976.433 5  96451026.513 5      -985.804          34.000  
R17  18169400.762 3               3      2919.920          23.000  
> 2024 11 28  8 51  4.7930000  0  5                     
G18  22569423.632 5 118603136.564 5     -2095.427          30.000  
G26  20748463.990 6 109033909.088 6     -2477.049          37.000  
G31  21570806.007 6 113355344.595 6     -3412.000          40.000  
R14  18094013.498 5  96451223.592 5      -985.020          34.000  
R17  18169291.157 3               3      2921.804          23.000  
> 2024 11 28  8 51  4.9930000  0  5                     
G18  22569504.880 5 118603555.777 5     -2096.252          30.000  
G26  20748558.256 6 109034404.472 6     -2477.043          37.000  
G31  21570935.854 6 113356027.021 6     -3412.257          40.000  
R14  18094050.597 5  96451420.738 5      -985.387          34.000  
R17  18169181.186 3               3      2919.655          23.000  
> 2024 11 28  8 51  5.1930000  0  5                     
G18  22569583.825 5 118603975.006 5     -2096.087          30.000  
G26  20748652.470 6 109034899.861 6     -2477.116          37.000  
G31  21571065.788 6 113356709.426 6     -3412.339          40.000  
R14  18094087.487 5  96451617.927 5      -986.083          33.000  
R17  18169071.407 3               3      2920.983          23.000  
> 2024 11 28  8 51  5.3930000  0  5                     
G18  22569663.154 5 118604394.144 5     -2095.698          30.000  
G26  20748746.841 6 109035395.216 6     -2477.251          37.000  
G31  21571195.618 6 113357391.804 6     -3411.908          40.000  
R14  18094124.464 5  96451815.002 5      -985.216          33.000  
R17  18168961.139 4               4      2919.561          24.000  
> 2024 11 28  8 51  5.5930000  0  5                     
G18  22569745.275 5 118604813.320 5     -2095.935          30.000  
G26  20748841.037 6 109035890.523 6     -2476.585          37.000  
G31  21571325.430 6 113358074.156 6     -3411.515          40.000  
R14  18094161.598 5  96452012.150 5      -985.370          33.000  
R17  18168851.255 4               4      2920.915          24.000  
> 2024 11 28  8 51  5.7930000  0  5                     
G18  22569826.453 5 118605232.473 5     -2094.886          30.000  
G26  20748935.216 6 109036385.868 6     -2476.929          37.000  
G31  21571455.417 6 113358756.551 6     -3412.000          40.000  
R14  18094198.592 5  96452209.258 5      -985.399          33.000  
R17  18168741.947 4               4      2920.613          24.000  
> 2024 11 28  8 51  5.9930000  0  5                     
G18  22569905.520 5 118605651.664 5     -2095.118          30.000  
G26  20749029.342 6 109036881.180 6     -2476.579          37.000  
G31  21571585.212 6 113359438.899 6     -3411.786          40.000  
R14  18094235.604 5  96452406.401 5      -985.496          33.000  
R17  18168633.528 4               4      2920.729          24.000  
> 2024 11 28  8 51  6.1930000  0  5                     
G18  22569984.727 5 118606070.914 5     -2096.399          30.000  
G26  20749123.678 6 109037376.503 6     -2476.581          38.000  
G31  21571715.041 6 113360121.267 6     -3411.620          40.000  
R14  18094272.581 5  96452603.535 5      -985.563          33.000  
R17  18168524.325 4               4      2917.909          24.000  
> 2024 11 28  8 51  6.3930000  0  5                     
G18  22570065.696 5 118606490.121 5     -2096.922          30.000  
G26  20749217.962 6 109037871.808 6     -2476.597          38.000  
G31  21571844.871 6 113360803.637 6     -3412.051          40.000  
R14  18094309.576 5  96452800.691 5      -986.505          33.000  
R17  18168414.528 4               4      2919.599          24.000  
> 2024 11 28  8 51  6.5930000  0  5                     
G18  22570146.281 5 118606909.342 5     -2096.467          30.000  
G26  20749312.350 6 109038367.133 6     -2476.633          38.000  
G31  21571974.700 6 113361486.019 6     -3412.162          40.000  
R14  18094346.657 5  96452997.796 5      -985.665          33.000  
R17  18168305.377 4               4      2919.977          24.000  
> 2024 11 28  8 51  6.7930000  0  5                     
G18  22570224.929 5 118607328.586 5     -2095.904          31.000  
G26  20749406.598 6 109038862.457 6     -2476.716          38.000  
G31  21572104.548 6 113362168.371 6     -3411.583          40.000  
R14  18094383.617 5  96453194.967 5      -985.367          33.000  
R17  18168195.476 4               4      2920.236          24.000  
> 2024 11 28  8 51  6.9930000  0  5                     
G18  22570305.898 5 118607747.848 5     -2096.254          31.000  
G26  20749500.882 6 109039357.774 6     -2476.831          38.000  
G31  21572234.395 6 113362850.751 6     -3411.817          41.000  
R14  18094420.629 5  96453392.123 5      -985.597          33.000  
R17  18168086.098 4               4      2919.193          25.000  
> 2024 11 28  8 51  7.1930000  0  5                     
G18  22570384.982 5 118608167.071 5     -2096.438          31.000  
G26  20749595.078 6 109039853.048 6     -2476.579          38.000  
G31  21572364.242 6 113363533.061 6     -3411.271          41.000  
R14  18094457.536 5  96453589.249 5      -985.768          33.000  
R17  18167976.981 4               4      2920.415          25.000  
> 2024 11 28  8 51  7.3930000  0  5                     
G18  22570465.916 5 118608586.265 5     -2095.885          32.000  
G26  20749689.397 6 109040348.272 6     -2475.763          39.000  
G31  21572494.176 6 113364215.382 6     -3411.493          41.000  
R14  18094494.461 5  96453786.338 5      -984.492          33.000  
R17  18167868.563 4               4      2920.042          25.000  
> 2024 11 28  8 51  7.5930000  0  5                     
G18  22570546.240 5 118609005.492 5     -2096.417          32.000  
G26  20749783.680 6 109040843.505 6     -2476.267          39.000  
G31  21572624.023 6 113364897.653 6     -3411.482          41.000  
R14  18094531.490 5  96453983.438 5      -985.026          33.000  
R17  18167758.644 4               4      2919.105          25.000  
> 2024 11 28  8 51  7.7930000  0  5                     
G18  22570626.825 5 118609424.612 5     -2095.810          32.000  
G26  20749878.016 6 109041338.642 6     -2475.495          39.000  
G31  21572753.870 6 113365579.880 6     -3411.152          41.000  
R14  18094568.519 5  96454180.499 5      -985.111          33.000  
R17  18167649.546 4               4      2919.068          25.000  
> 2024 11 28  8 51  7.9930000  0  5                     
G18  22570703.885 5 118609843.738 5     -2095.502          32.000  
G26  20749972.212 6 109041833.775 6     -2475.336          39.000  
G31  21572883.735 6 113366262.061 6     -3410.976          41.000  
R14  18094605.374 5  96454377.515 5      -985.079          33.000  
R17  18167540.394 4               4      2920.014          24.000  
> 2024 11 28  8 51  8.1930000  0  5                     
G18  22570780.875 5 118610262.896 5     -2095.931          32.000  
G26  20750066.461 6 109042328.873 6     -2475.468          39.000  
G31  21573013.652 6 113366944.221 6     -3410.681          41.000  
R14  18094642.212 5  96454574.491 5      -984.765          34.000  
R17  18167431.645 4               4      2919.563          25.000  
> 2024 11 28  8 51  8.3930000  0  5                     
G18  22570861.216 5 118610682.000 5     -2095.707          32.000  
G26  20750160.570 6 109042823.936 6     -2475.100          39.000  
G31  21573143.499 6 113367626.371 6     -3410.879          41.000  
R14  18094679.171 5  96454771.492 5      -984.996          34.000  
R17  18167322.145 4               4      2919.912          24.000  
> 2024 11 28  8 51  8.5930000  0  5                     
G18  22570943.162 5 118611101.089 5     -2095.434          32.000  
G26  20750254.819 6 109043318.991 6     -2475.271          39.000  
G31  21573273.293 6 113368308.498 6     -3410.421          41.000  
R14  18094716.131 5  96454968.449 5      -984.908          34.000  
R17  18167213.028 4               4      2920.217          24.000  
> 2024 11 28  8 51  8.7930000  0  5                     
G18  22571023.922 5 118611520.286 5     -2096.322          32.000  
G26  20750349.050 6 109043814.061 6     -2475.213          39.000  
G31  21573403.088 6 113368990.640 6     -3410.655          41.000  
R14  18094753.055 5  96455165.447 5      -984.806          34.000  
R17  18167104.366 4               4      2914.385          24.000  
> 2024 11 28  8 51  8.9930000  0  5                     
G18  22571104.315 5 118611939.363 5     -2095.932          32.000  
G26  20750443.194 6 109044309.095 6     -2475.112          39.000  
G31  21573532.900 6 113369672.745 6     -3410.530          41.000  
R14  18094790.085 5  96455362.454 5      -985.220          34.000  
R17  18166994.412 4               4      2919.641          25.000  
> 2024 11 28  8 51  9.1930000  0  5                     
G18  22571183.155 5 118612358.516 5     -2096.737          32.000  
G26  20750537.460 6 109044804.116 6     -2475.181          38.000  
G31  21573662.730 6 113370354.867 6     -3410.528          41.000  
R14  18094827.027 5  96455559.411 5      -984.765          34.000  
R17  18166884.929 4               4      2915.886          24.000  
> 2024 11 28  8 51  9.3930000  0  5                     
G18  22571263.112 5 118612777.608 5     -2095.823          31.000  
G26  20750631.586 6 109045299.132 6     -2475.030          38.000  
G31  21573792.437 6 113371036.957 6     -3410.411          41.000  
R14  18094863.952 5  96455756.367 5      -984.512          33.000  
R17  18166776.686 4               4      2920.257          24.000  
> 2024 11 28  8 51  9.5930000  0  5                     
G18  22571343.296 5 118613196.739 5     -2095.974          31.000  
G26  20750725.695 6 109045794.134 6     -2475.178          38.000  
G31  21573922.197 6 113371719.038 6     -3410.309          41.000  
R14  18094900.754 5  96455953.346 5      -984.862          33.000  
R17  18166668.704 4               4      2920.656          24.000  
> 2024 11 28  8 51  9.7930000  0  5                     
G18  22571423.968 5 118613615.855 5     -2095.358          31.000  
G26  20750819.926 6 109046289.132 6     -2475.419          38.000  
G31  21574051.992 6 113372401.132 6     -3410.517          41.000  
R14  18094937.557 5  96456150.339 5      -985.154          33.000  
R17  18166559.587 4               4      2921.025          24.000  
> 2024 11 28  8 51  9.9930000  0  5                     
G18  22571504.379 5 118614035.076 5     -2095.768          31.000  
G26  20750914.123 6 109046784.167 6     -2475.257          38.000  
G31  21574181.717 6 113373083.240 6     -3410.318          41.000  
R14  18094974.481 5  96456347.382 5      -985.596          33.000  
R17  18166451.239 4               4      2920.224          24.000  
> 2024 11 28  8 51 10.1930000  0  5                     
G18  22571582.957 5 118614454.315 5     -2096.453          31.000  
G26  20751008.267 6 109047279.220 6     -2475.804          38.000  
G31  21574311.511 6 113373765.427 6     -3410.833          41.000  
R14  18095011.563 5  96456544.415 5      -985.273          34.000  
R17  18166342.873 4               4      2919.140          24.000  
> 2024 11 28  8 51 10.3930000  0  5                     
G18  22571662.198 5 118614873.597 5     -2096.845          31.000  
G26  20751102.480 6 109047774.279 6     -2475.127          38.000  
G31  21574441.324 6 113374447.633 6     -3411.411          41.000  
R14  18095048.575 5  96456741.545 5      -985.543          33.000  
R17  18166233.931 4               4      2918.937          24.000  
> 2024 11 28  8 51 10.5930000  0  5                     
G18  22571742.888 5 118615292.932 5     -2097.871          31.000  
G26  20751196.677 6 109048269.419 6     -2476.059          38.000  
G31  21574571.258 6 113375129.824 6     -3411.394          41.000  
R14  18095085.482 5  96456938.709 5      -986.361          33.000  
R17  18166124.309 4               4      2918.993          24.000  
> 2024 11 28  8 51 10.7930000  0  5                     
G18  22571822.950 5 118615712.249 5     -2096.937          31.000  
G26  20751290.960 6 109048764.547 6     -2475.808          38.000  
G31  21574701.018 6 113375812.076 6     -3411.212          41.000  
R14  18095122.407 5  96457135.846 5      -985.408          34.000  
R17  18166015.525 4               4      2917.184          25.000  
> 2024 11 28  8 51 10.9930000  0  5                     
G18  22571902.488 5 118616131.604 5     -2096.551          32.000  
G26  20751385.209 6 109049259.685 6     -2475.980          38.000  
G31  21574831.004 6 113376494.313 6     -3411.249          41.000  
R14  18095159.454 5  96457333.032 5      -985.678          34.000  
R17  18165906.653 4               4      2916.320          25.000  
> 2024 11 28  8 51 11.1930000  0  5                     
G18  22571983.283 5 118616550.972 5     -2095.765          32.000  
G26  20751479.440 6 109049754.800 6     -2475.420          38.000  
G31  21574960.817 6 113377176.558 6     -3411.256          41.000  
R14  18095196.308 5  96457530.241 5      -985.728          34.000  
R17  18165798.653 4               4      2918.444          25.000  
> 2024 11 28  8 51 11.3930000  0  5                     
G18  22572062.245 5 118616970.355 5     -2096.440          31.000  
G26  20751573.584 6 109050249.908 6     -2475.017          38.000  
G31  21575090.664 6 113377858.759 6     -3410.566          41.000  
R14  18095233.320 5  96457727.371 5      -984.793          34.000  
R17  18165689.938 4               4      2918.440          25.000  
> 2024 11 28  8 51 11.5930000  0  5                     
G18  22572141.905 5 118617389.693 5     -2096.034          31.000  
G26  20751667.763 6 109050744.949 6     -2475.424          38.000  
G31  21575220.458 6 113378540.913 6     -3410.711          41.000  
R14  18095270.315 5  96457924.558 5      -985.776          34.000  
R17  18165581.067 4               4      2917.751          25.000  
> 2024 11 28  8 51 11.7930000  0  5                     
G18  22572221.112 5 118617808.970 5     -2095.746          31.000  
G26  20751761.872 6 109051239.926 6     -2474.653          38.000  
G31  21575350.428 6 113379223.023 6     -3410.436          41.000  
R14  18095307.222 5  96458121.604 5      -985.059          34.000  
R17  18165471.374 4               4      2919.153          25.000  
> 2024 11 28  8 51 11.9930000  0  5                     
G18  22572299.812 5 118618228.244 5     -2096.767          31.000  
G26  20751855.998 6 109051734.892 6     -2474.901          38.000  
G31  21575480.257 6 113379905.083 6     -3410.211          41.000  
R14  18095344.269 5  96458318.662 5      -984.703          34.000  
R17  18165360.810 4               4      2918.406          25.000  
> 2024 11 28  8 51 12.1930000  0  5                     
G18  22572379.559 5 118618647.471 5     -2096.247          31.000  
G26  20751950.264 6 109052229.828 6     -2474.654          38.000  
G31  21575610.087 6 113380587.149 6     -3410.346          41.000  
R14  18095381.316 5  96458515.688 5      -985.026          34.000  
R17  18165251.624 4               4      2919.379          25.000  
> 2024 11 28  8 51 12.3930000  0  5                     
G18  22572459.778 5 118619066.717 5     -2096.077          31.000  
G26  20752044.513 6 109052724.691 6     -2474.194          38.000  
G31  21575739.794 6 113381269.172 6     -3409.811          41.000  
R14  18095418.223 5  96458712.723 5      -985.506          34.000  
R17  18165142.700 4               4      2918.899          25.000  
> 2024 11 28  8 51 12.5930000  0  5                     
G18  22572539.665 5 118619485.917 5     -2096.121          31.000  
G26  20752138.639 6 109053219.532 6     -2473.795          38.000  
G31  21575869.641 6 113381951.154 6     -3410.148          41.000  
R14  18095455.130 5  96458909.658 5      -984.692          34.000  
R17  18165034.020 4               4      2919.055          25.000  
> 2024 11 28  8 51 12.7930000  0  5                     
G18  22572619.552 5 118619905.104 5     -2096.188          31.000  
G26  20752232.731 6 109053714.390 6     -2474.142          38.000  
G31  21575999.436 6 113382633.125 6     -3409.857          40.000  
R14  18095492.124 5  96459106.644 5      -985.106          34.000  
R17  18164925.514 4               4      2919.433          25.000  
> 2024 11 28  8 51 12.9930000  0  5                     
G18  22572699.823 5 118620324.260 5     -2095.811          31.000  
G26  20752327.049 6 109054209.174 6     -2473.819          38.000  
G31  21576129.179 6 113383315.028 6     -3409.220          41.000  
R14  18095528.910 5  96459303.548 5      -984.541          34.000  
R17  18164817.567 4               4      2920.568          25.000  
> 2024 11 28  8 51 13.1930000  0  5                     
G18  22572779.972 5 118620743.454 5     -2096.172          31.000  
G26  20752421.228 6 109054703.940 6     -2473.488          38.000  
G31  21576258.834 6 113383996.948 6     -3409.366          40.000  
R14  18095565.817 5  96459500.491 5      -984.600          34.000  
R17  18164709.795 4               4      2920.252          26.000  
> 2024 11 28  8 51 13.3930000  0  5                     
G18  22572859.632 5 118621162.565 5     -2095.552          31.000  
G26  20752515.425 6 109055198.703 6     -2473.476          38.000  
G31  21576388.454 6 113384678.830 6     -3409.604          40.000  
R14  18095602.776 5  96459697.380 5      -984.726          34.000  
R17  18164601.760 4               4      2919.744          26.000  
> 2024 11 28  8 51 13.5930000  0  5                     
G18  22572939.293 5 118621581.792 5     -2095.700          31.000  
G26  20752609.603 6 109055693.459 6     -2473.963          38.000  
G31  21576518.161 6 113385360.736 6     -3409.564          40.000  
R14  18095639.875 5  96459894.273 5      -984.559          34.000  
R17  18164493.534 4               4      2918.799          26.000  
> 2024 11 28  8 51 13.7930000  0  5                     
G18  22573019.110 5 118622001.008 5     -2096.942          31.000  
G26  20752703.712 6 109056188.224 6     -2473.953          38.000  
G31  21576647.973 6 113386042.645 6     -3409.775          40.000  
R14  18095676.957 5  96460091.231 5      -985.226          34.000  
R17  18164383.807 4               4      2917.812          26.000  
> 2024 11 28  8 51 13.9930000  0  5                     
G18  22573098.840 5 118622420.204 5     -2095.933          31.000  
G26  20752797.804 6 109056682.966 6     -2473.521          38.000  
G31  21576777.908 6 113386724.555 6     -3409.373          40.000  
R14  18095713.987 5  96460288.137 5      -984.361          34.000  
R17  18164274.691 4               4      2918.576          26.000  
> 2024 11 28  8 51 14.1930000  0  5                     
G18  22573178.727 5 118622839.473 5     -2096.457          31.000  
G26  20752892.070 6 109057177.751 6     -2473.636          38.000  
G31  21576907.633 6 113387406.494 6     -3410.032          40.000  
R14  18095750.964 5  96460485.124 5      -984.526          34.000  
R17  18164166.238 4               4      2919.121          26.000  
> 2024 11 28  8 51 14.3930000  0  5                     
G18  22573258.527 5 118623258.772 5     -2097.374          31.000  
G26  20752986.249 6 109057672.588 6     -2473.865          38.000  
G31  21577037.218 6 113388088.482 6     -3410.115          40.000  
R14  18095788.080 5  96460682.190 5      -985.145          35.000  
R17  18164056.633 4               4      2917.012          26.000  
> 2024 11 28  8 51 14.5930000  0  5                     
G18  22573339.461 5 118623678.058 5     -2096.896          31.000  
G26  20753080.463 6 109058167.430 6     -2474.672          38.000  
G31  21577166.978 6 113388770.480 6     -3410.226          40.000  
R14  18095825.162 5  96460879.204 5      -985.500          35.000  
R17  18163947.778 4  97198928.12434      2918.162          26.000  
> 2024 11 28  8 51 14.7930000  0  5                     
G18  22573417.411 5 118624097.391 5     -2096.407          32.000  
G26  20753174.729 6 109058662.235 6     -2474.178          38.000  
G31  21577296.860 6 113389452.444 6     -3410.025          40.000  
R14  18095862.244 5  96461076.266 5      -985.596          35.000  
R17  18163840.146 4               4      2917.865          26.000  
> 2024 11 28  8 51 14.9930000  0  5                     
G18  22573497.735 5 118624516.742 5     -2096.385          32.000  
G26  20753268.960 6 109059157.084 6     -2474.595          38.000  
G31  21577426.550 6 113390134.447 6     -3409.991          40.000  
R14  18095899.308 5  96461273.304 5      -985.128          35.000  
R17  18163730.994 4  97197760.94824      2918.559          26.000  
> 2024 11 28  8 51 15.1930000  0  5                     
G18  22573576.959 5 118624936.135 5     -2096.853          32.000  
G26  20753363.156 6 109059651.893 6     -2474.288          38.000  
G31  21577556.397 6 113390816.428 6     -3409.833          40.000  
R14  18095936.372 5  96461470.383 5      -985.747          35.000  
R17  18163622.280 4               4      2918.408          26.000  
> 2024 11 28  8 51 15.3930000  0  5                     
G18  22573660.248 5 118625355.502 5     -2097.430          32.000  
G26  20753457.283 6 109060146.709 6     -2474.270          38.000  
G31  21577686.192 6 113391498.411 6     -3409.882          40.000  
R14  18095973.244 5  96461667.438 5      -985.241          34.000  
R17  18163513.669 4  97196593.87224      2917.329          26.000  
> 2024 11 28  8 51 15.5930000  0  5                     
G18  22573737.309 5 118625774.834 5     -2096.159          31.000  
G26  20753551.461 6 109060641.505 6     -2473.741          38.000  
G31  21577815.882 6 113392180.381 6     -3409.630          40.000  
R14  18096010.274 5  96461864.509 5      -985.760          34.000  
R17  18163405.461 4               4      2918.498          26.000  
> 2024 11 28  8 51 15.7930000  0  5                     
G18  22573817.614 5 118626194.243 5     -2097.109          32.000  
G26  20753645.553 6 109061136.290 6     -2474.022          38.000  
G31  21577945.589 6 113392862.330 6     -3409.679          40.000  
R14  18096047.338 5  96462061.530 5      -984.888          34.000  
R17  18163296.519 4               4      2917.696          26.000  
> 2024 11 28  8 51 15.9930000  0  5                     
G18  22573897.763 5 118626613.609 5     -2097.240          32.000  
G26  20753739.767 6 109061631.072 6     -2474.135          38.000  
G31  21578075.262 6 113393544.282 6     -3409.859          40.000  
R14  18096084.402 5  96462258.619 5      -985.607          35.000  
R17  18163188.205 4               4      2917.893          26.000  
> 2024 11 28  8 51 16.1930000  0  5                     
G18  22573978.750 5 118627032.997 5     -2097.798          32.000  
G26  20753833.980 6 109062125.828 6     -2474.011          38.000  
G31  21578204.917 6 113394226.246 6     -3410.125          40.000  
R14  18096121.519 5  96462455.697 5      -985.830          34.000  
R17  18163079.857 4               4      2917.147          26.000  
> 2024 11 28  8 51 16.3930000  0  5                     
G18  22574059.265 5 118627452.382 5     -2097.365          32.000  
G26  20753928.089 6 109062620.620 6     -2473.964          38.000  
G31  21578334.642 6 113394908.202 6     -3410.143          40.000  
R14  18096158.566 5  96462652.780 5      -986.145          34.000  
R17  18162971.247 4               4      2917.600          27.000  
> 2024 11 28  8 51 16.5930000  0  5                     
G18  22574138.960 5 118627871.820 5     -2097.142          31.000  
G26  20754022.286 6 109063115.463 6     -2473.875          38.000  
G31  21578464.402 6 113395590.209 6     -3410.048          40.000  
R14  18096195.613 5  96462849.908 5      -985.911          34.000  
R17  18162861.712 4               4      2916.234          27.000  
> 2024 11 28  8 51 16.7930000  0  5                     
G18  22574218.533 5 118628291.314 5     -2096.730          31.000  
G26  20754116.499 6 109063610.301 6     -2474.451          38.000  
G31  21578594.022 6 113396272.250 6     -3410.354          40.000  
R14  18096232.555 5  96463047.059 5      -985.808          34.000  
R17  18162752.753 4  97192528.42434      2916.805          27.000  
> 2024 11 28  8 51 16.9930000  0  6                     
G18  22574296.553 5 118628710.926 5     -2097.947          31.000  
G26  20754210.696 6 109064105.198 6     -2474.363          38.000  
G27  17807574.519 3               3      -491.380          21.000  
G31  21578723.816 6 113396954.326 6     -3410.623          40.000  
R14  18096269.619 5  96463244.289 5      -985.539          35.000  
R17  18162643.689 4  97191945.06324      2916.703          27.000  
> 2024 11 28  8 51 17.1930000  0  6                     
G18  22574377.103 5 118629130.518 5     -2097.615          31.000  
G26  20754304.909 6 109064600.135 6     -2474.687          38.000  
G27  17807590.608 3               3      -491.380          21.000  
G31  21578853.524 6 113397636.454 6     -3410.700          40.000  
R14  18096306.596 5  96463441.592 5      -986.946          35.000  
R17  18162534.503 4  97191361.88824      2915.949          27.000  
> 2024 11 28  8 51 17.3930000  0  6                     
G18  22574457.252 5 118629550.230 5     -2098.356          31.000  
G26  20754399.018 6 109065095.103 6     -2474.875          38.000  
G27  17807611.112 3               3      -511.399          20.000  
G31  21578983.266 6 113398318.604 6     -3410.588          40.000  
R14  18096343.643 5  96463638.915 5      -986.036          35.000  
R17  18162425.055 4  97190778.69724      2915.174          27.000  
> 2024 11 28  8 51 17.5930000  0  6                     
G18  22574535.482 5 118629969.933 5     -2098.760          31.000  
G26  20754493.232 6 109065590.117 6     -2475.311          38.000  
G27  17807624.479 3               3      -485.643          20.000  
G31  21579113.131 6 113399000.834 6     -3411.132          40.000  
R14  18096380.864 5  96463836.287 5      -986.908          35.000  
R17  18162315.677 4  97190195.54724      2915.857          26.000  
> 2024 11 28  8 51 17.7930000  0  5                     
G18  22574614.601 5 118630389.717 5     -2099.092          31.000  
G26  20754587.568 6 109066085.125 6     -2475.038          38.000  
G31  21579242.873 6 113399683.034 6     -3411.173          40.000  
R14  18096417.893 5  96464033.664 5      -986.529          35.000  
R17  18162206.910 4  97189612.49424      2915.078          26.000  
> 2024 11 28  8 51 17.9930000  0  5                     
G18  22574694.505 5 118630809.451 5     -2099.261          31.000  
G26  20754681.886 6 109066580.140 6     -2475.252          38.000  
G31  21579372.685 6 113400365.253 6     -3411.233          40.000  
R14  18096454.923 5  96464231.076 5      -987.020          35.000  
R17  18162098.230 4  97189029.35424      2915.967          26.000  
> 2024 11 28  8 51 18.1930000  0  5                     
G18  22574773.712 5 118631229.214 5     -2098.641          31.000  
G26  20754776.048 6 109067075.189 6     -2475.187          38.000  
G31  21579502.463 6 113401047.505 6     -3411.347          40.000  
R14  18096491.970 5  96464428.550 5      -987.430          35.000  
R17  18161988.608 4  97188446.40424      2914.649          26.000  
> 2024 11 28  8 51 18.3930000  0  5                     
G18  22574854.105 5 118631648.975 5     -2098.619          31.000  
G26  20754870.244 6 109067570.164 6     -2475.043          38.000  
G31  21579632.188 6 113401729.681 6     -3411.211          40.000  
R14  18096529.104 5  96464625.932 5      -987.015          35.000  
R17  18161879.265 4  97187863.37624      2915.175          26.000  
> 2024 11 28  8 51 18.5930000  0  5                     
G18  22574934.324 5 118632068.710 5     -2098.093          31.000  
G26  20754964.388 6 109068065.148 6     -2474.878          38.000  
G31  21579762.104 6 113402411.894 6     -3411.178          40.000  
R14  18096566.185 5  96464823.338 5      -987.008          35.000  
R17  18161771.457 4  97187280.29424      2915.490          26.000  
> 2024 11 28  8 51 18.7930000  0  5                     
G18  22575014.979 5 118632488.518 5     -2098.045          31.000  
G26  20755058.672 6 109068560.105 6     -2474.601          38.000  
G31  21579892.109 6 113403094.073 6     -3410.790          39.000  
R14  18096603.302 5  96465020.745 5      -986.539          35.000  
R17  18161663.440 4  97186697.31924      2914.792          27.000  
> 2024 11 28  8 51 18.9930000  0  5                     
G18  22575094.569 5 118632908.294 5     -2098.888          32.000  
G26  20755152.868 6 109069055.054 6     -2474.595          38.000  
G31  21580021.973 6 113403776.202 6     -3410.244          40.000  
R14  18096640.454 5  96465218.121 5      -987.007          35.000  
R17  18161555.598 4  97186114.21724      2915.823          27.000  
> 2024 11 28  8 51 19.1930000  0  5                     
G18  22575173.496 5 118633327.988 5     -2098.877          32.000  
G26  20755246.959 6 109069549.944 6     -2474.454          38.000  
G31  21580151.576 6 113404458.334 6     -3410.410          40.000  
R14  18096677.588 5  96465415.444 5      -986.435          35.000  
R17  18161448.244 4  97185531.17824      2915.247          27.000  
> 2024 11 28  8 51 19.3930000  0  5                     
G18  22575254.204 5 118633747.679 5     -2098.243          32.000  
G26  20755341.121 6 109070044.780 6     -2474.536          38.000  
G31  21580281.231 6 113405140.389 6     -3410.568          40.000  
R14  18096714.774 5  96465612.723 5      -985.937          35.000  
R17  18161339.268 4  97184948.08224      2915.466          27.000  
> 2024 11 28  8 51 19.5930000  0  5                     
G18  22575332.957 5 118634167.352 5     -2098.583          32.000  
G26  20755435.352 6 109070539.550 6     -2473.802          38.000  
G31  21580410.973 6 113405822.378 6     -3409.963          40.000  
R14  18096751.751 5  96465809.990 5      -986.260          35.000  
R17  18161231.268 4  97184364.98624      2915.248          27.000  
> 2024 11 28  8 51 19.7930000  0  5                     
G18  22575412.268 5 118634586.970 5     -2098.295          32.000  
G26  20755529.636 6 109071034.321 6     -2473.786          38.000  
G31  21580540.628 6 113406504.356 6     -3409.566          40.000  
R14  18096788.815 5  96466007.221 5      -986.324          35.000  
R17  18161122.815 4  97183781.84724      2915.544          27.000  
> 2024 11 28  8 51 19.9930000  0  5                     
G18  22575491.736 5 118635006.614 5     -2098.360          32.000  
G26  20755623.849 6 109071529.076 6     -2473.878          38.000  
G31  21580670.406 6 113407186.369 6     -3410.262          40.000  
R14  18096825.757 5  96466204.461 5      -986.298          35.000  
R17  18161014.275 4  97183198.66324      2915.937          27.000  
> 2024 11 28  8 51 20.1930000  0  5                     
G18  22575572.199 5 118635426.316 5     -2099.130          32.000  
G26  20755717.993 6 109072023.872 6     -2474.308          38.000  
G31  21580800.218 6 113407868.393 6     -3410.718          40.000  
R14  18096862.839 5  96466401.732 5      -987.068          35.000  
R17  18160904.932 4  97182615.67724      2914.733          27.000  
> 2024 11 28  8 51 20.3930000  0  5                     
G18  22575651.301 5 118635846.046 5     -2099.292          32.000  
G26  20755812.085 6 109072518.662 6     -2473.846          38.000  
G31  21580929.960 6 113408550.407 6     -3409.762          40.000  
R14  18096899.851 5  96466599.023 5      -986.219          35.000  
R17  18160795.571 4  97182032.60724      2915.613          27.000  
> 2024 11 28  8 51 20.5930000  0  5                     
G18  22575731.223 5 118636265.721 5     -2098.661          32.000  
G26  20755906.124 6 109073013.433 6     -2473.884          38.000  
G31  21581059.685 6 113409232.414 6     -3409.775          39.000  
R14  18096936.880 5  96466796.342 5      -987.130          35.000  
R17  18160687.223 4  97181449.59224      2915.022          27.000  
> 2024 11 28  8 51 20.7930000  0  5                     
G18  22575811.651 5 118636685.361 5     -2097.955          32.000  
G26  20756000.373 6 109073508.191 6     -2473.761          39.000  
G31  21581189.340 6 113409914.417 6     -3410.331          39.000  
R14  18096973.980 5  96466993.588 5      -986.663          35.000  
R17  18160578.525 4  97180866.57124      2915.140          27.000  
> 2024 11 28  8 51 20.9930000  0  5                     
G18  22575892.114 5 118637105.061 5     -2097.566          33.000  
G26  20756094.482 6 109074002.878 6     -2473.470          39.000  
G31  21581319.100 6 113410596.340 6     -3409.410          40.000  
R14  18097011.026 5  96467190.821 5      -986.572          35.000  
R17  18160469.845 4  97180283.50824      2915.472          28.000  
> 2024 11 28  8 51 21.1930000  0  5                     
G18  22575971.582 5 118637524.782 5     -2098.567          33.000  
G26  20756188.678 6 109074497.571 6     -2473.073          39.000  
G31  21581448.773 6 113411278.291 6     -3409.358          39.000  
R14  18097048.073 5  96467388.046 5      -986.426          35.000  
R17  18160362.439 4  97179700.40424      2915.534          28.000  
> 2024 11 28  8 51 21.3930000  0  5                     
G18  22576051.731 5 118637944.400 5     -2098.650          33.000  
G26  20756282.822 6 109074992.231 6     -2473.249          39.000  
G31  21581578.585 6 113411960.190 6     -3409.454          40.000  
R14  18097085.068 5  96467585.211 5      -985.708          35.000  
R17  18160253.690 4  97179117.35824      2915.354          28.000  
> 2024 11 28  8 51 21.5930000  0  5                     
G18  22576131.932 5 118638363.971 5     -2098.157          33.000  
G26  20756377.036 6 109075486.792 6     -2472.082          38.000  
G31  21581708.257 6 113412642.033 6     -3409.681          39.000  
R14  18097121.957 5  96467782.347 5      -985.437          35.000  
R17  18160144.556 4  97178534.20324      2915.955          28.000  
> 2024 11 28  8 51 21.7930000  0  5                     
G18  22576211.959 5 118638783.515 5     -2098.015          32.000  
G26  20756471.197 6 109075981.365 6     -2472.547          38.000  
G31  21581838.052 6 113413323.801 6     -3408.604          39.000  
R14  18097158.865 5  96467979.444 5      -985.138          35.000  
R17  18160037.394 4  97177951.14324      2914.657          28.000  
> 2024 11 28  8 51 21.9930000  0  5                     
G18  22576291.863 5 118639203.015 5     -2097.038          33.000  
G26  20756565.358 6 109076475.812 6     -2471.951          38.000  
G31  21581967.620 6 113414005.530 6     -3408.440          39.000  
R14  18097195.685 5  96468176.497 5      -985.219          35.000  
R17  18159928.609 4  97177367.93424      2915.606          28.000  
> 2024 11 28  8 51 22.1930000  0  5                     
G18  22576371.803 5 118639622.464 5     -2096.767          33.000  
G26  20756659.502 6 109076970.212 6     -2471.829          38.000  
G31  21582097.205 6 113414687.192 6     -3408.196          39.000  
R14  18097232.522 5  96468373.470 5      -984.566          35.000  
R17  18159822.634 4  97176784.14914      2916.737          28.000  
> 2024 11 28  8 51 22.3930000  0  5                     
G18  22576451.830 5 118640041.921 5     -2097.641          33.000  
G26  20756753.611 6 109077464.585 6     -2471.564          38.000  
G31  21582227.000 6 113415368.814 6     -3408.483          39.000  
R14  18097269.569 5  96468570.401 5      -984.556          35.000  
R17  18159712.209 4  97176200.926 4      2915.790          28.000  
> 2024 11 28  8 51 22.5930000  0  5                     
G18  22576531.647 5 118640461.315 5     -2096.855          33.000  
G26  20756847.563 6 109077958.931 6     -2471.527          38.000  
G31  21582356.725 6 113416050.425 6     -3407.989          39.000  
R14  18097306.616 5  96468767.374 5      -985.146          35.000  
R17  18159605.693 4  97175617.660 4      2916.406          28.000  
> 2024 11 28  8 51 22.7930000  0  5                     
G18  22576611.534 5 118640880.747 5     -2097.057          33.000  
G26  20756941.602 6 109078453.276 6     -2471.800          38.000  
G31  21582486.398 6 113416732.023 6     -3408.046          39.000  
R14  18097343.662 5  96468964.299 5      -984.298          35.000  
R17  18159498.601 4  97175034.448 4      2914.537          28.000  
> 2024 11 28  8 51 22.9930000  0  5                     
G18  22576691.334 5 118641300.168 5     -2096.796          33.000  
G26  20757035.520 6 109078947.604 6     -2472.048          38.000  
G31  21582616.070 6 113417413.598 6     -3408.004          39.000  
R14  18097380.535 5  96469161.230 5      -984.830          35.000  
R17  18159387.740 4  97174451.167 4      2915.976          28.000  
> 2024 11 28  8 51 23.1930000  0  5                     
G18  22576771.169 5 118641719.621 5     -2097.483          33.000  
G26  20757129.419 6 109079441.939 6     -2471.937          38.000  
G31  21582745.795 6 113418095.201 6     -3408.180          39.000  
R14  18097417.477 5  96469358.211 5      -985.235          35.000  
R17  18159278.135 4  97173867.894 4      2916.240          29.000  
> 2024 11 28  8 51 23.3930000  0  5                     
G18  22576851.038 5 118642139.067 5     -2098.156          33.000  
G26  20757223.511 6 109079936.227 6     -2471.917          38.000  
G31  21582875.468 6 113418776.756 6     -3407.839          39.000  
R14  18097454.367 5  96469555.090 5      -984.260          35.000  
R17  18159169.385 4  97173284.728 4      2915.700          28.000  
> 2024 11 28  8 51 23.5930000  0  5                     
G18  22576930.890 5 118642558.481 5     -2096.959          32.000  
G26  20757317.567 6 109080430.528 6     -2471.285          38.000  
G31  21583005.105 6 113419458.349 6     -3407.737          39.000  
R14  18097491.396 5  96469752.064 5      -984.959          35.000  
R17  18159058.856 4  97172701.496 4      2916.089          28.000  
> 2024 11 28  8 51 23.7930000  0  5                     
G18  22577010.760 5 118642977.981 5     -2097.654          32.000  
G26  20757411.676 6 109080924.849 6     -2471.777          38.000  
G31  21583134.725 6 113420139.938 6     -3407.948          39.000  
R14  18097528.303 5  96469949.018 5      -984.468          35.000  
R17  18158950.804 4  97172118.426 4      2914.956          28.000  
> 2024 11 28  8 51 23.9930000  0  5                     
G18  22577090.665 5 118643397.423 5     -2097.215          32.000  
G26  20757505.733 6 109081419.092 6     -2471.419          38.000  
G31  21583264.468 6 113420821.477 6     -3407.673          39.000  
R14  18097565.228 5  96470145.960 5      -984.569          35.000  
R17  18158841.025 4  97171535.163 4      2916.213          28.000  
> 2024 11 28  8 51 24.1930000  0  5                     
G18  22577170.552 5 118643816.843 5     -2097.003          32.000  
G26  20757599.860 6 109081913.261 6     -2471.017          38.000  
G31  21583394.088 6 113421502.956 6     -3407.157          39.000  
R14  18097602.205 5  96470342.856 5      -984.638          35.000  
R17  18158729.588 4  97170951.989 4      2915.899          28.000  
> 2024 11 28  8 51 24.3930000  0  5                     
G18  22577250.369 5 118644236.238 5     -2097.295          33.000  
G26  20757693.759 6 109082407.413 6     -2470.628          38.000  
G31  21583523.621 6 113422184.432 6     -3407.350          39.000  
R14  18097639.199 5  96470539.701 5      -984.302          35.000  
R17  18158619.686 4  97170368.647 4      2916.928          28.000  
> 2024 11 28  8 51 24.5930000  0  5                     
G18  22577330.274 5 118644655.497 5     -2096.926          33.000  
G26  20757787.694 6 109082901.506 6     -2470.549          40.000  
G31  21583653.206 6 113422865.751 6     -3406.370          39.000  
R14  18097676.159 5  96470736.474 5      -984.151          35.000  
R17  18158509.226 4  97169785.387 4      2916.462          28.000  
> 2024 11 28  8 51 24.7930000  0  5                     
G18  22577410.108 6 118645074.742 6     -2095.818          36.000  
G26  20757881.628 7 109083395.585 7     -2470.299          42.000  
G31  21583782.844 6 113423547.121 6     -3406.688          41.000  
R14  18097713.031 5  96470933.255 5      -984.060          35.000  
R17  18158400.791 4  97169202.128 4      2916.488          28.000  
> 2024 11 28  8 51 24.9930000  0  5                     
G18  22577489.908 5 118645493.972 5     -2095.627          34.000  
G26  20757975.598 6 109083889.579 6     -2470.252          40.000  
G31  21583912.394 6 113424228.404 6     -3406.317          39.000  
R14  18097749.903 5  96471129.921 5      -983.294          34.000  
R17  18158289.528 4  97168618.693 4      2917.329          28.000  
> 2024 11 28  8 51 25.1930000  0  5                     
G18  22577569.656 6 118645913.227 6     -2095.884          36.000  
G26  20758069.637 6 109084383.514 6     -2469.197          39.000  
G31  21584041.997 6 113424909.644 6     -3405.818          39.000  
R14  18097786.758 5  96471326.641 5      -983.251          34.000  
R17  18158180.255 4  97168035.403 4      2916.569          28.000  
> 2024 11 28  8 51 25.3930000  0  5                     
G18  22577649.438 6 118646332.436 6     -2096.521          36.000  
G26  20758163.519 6 109084877.431 6     -2469.737          40.000  
G31  21584171.565 6 113425590.890 6     -3405.894          41.000  
R14  18097823.613 5  96471523.320 5      -983.556          34.000  
R17  18158071.453 4  97167452.064 4      2916.778          28.000  
> 2024 11 28  8 51 25.5930000  0  5                     
G18  22577729.395 6 118646751.715 6     -2096.784          36.000  
G26  20758257.401 6 109085371.359 6     -2469.920          41.000  
G31  21584301.150 6 113426272.164 6     -3406.268          41.000  
R14  18097860.363 5  96471720.000 5      -983.445          34.000  
R17  18157962.022 4  97166868.638 4      2916.822          28.000  
> 2024 11 28  8 51 25.7930000  0  5                     
G18  22577809.160 6 118647170.975 6     -2096.709          38.000  
G26  20758351.440 7 109085865.317 7     -2469.840          43.000  
G31  21584430.666 6 113426953.381 6     -3406.308          40.000  
R14  18097897.340 5  96471916.716 5      -983.526          34.000  
R17  18157854.913 4  97166285.377 4      2916.663          28.000  
> 2024 11 28  8 51 25.9930000  0  5                     
G18  22577888.925 6 118647590.276 6     -2096.598          38.000  
G26  20758445.358 6 109086359.290 6     -2469.245          41.000  
G31  21584560.286 6 113427634.632 6     -3405.941          40.000  
R14  18097934.160 5  96472113.443 5      -983.259          34.000  
R17  18157744.401 4  97165702.095 4      2916.204          29.000  
> 2024 11 28  8 51 26.1930000  0  6                     
G18  22577968.829 6 118648009.553 6     -2096.270          38.000  
G26  20758539.135 6 109086853.271 6     -2469.540          40.000  
G31  21584689.959 6 113428315.925 6     -3406.575          41.000  
R14  18097971.120 5  96472310.198 5      -983.755          34.000  
R17  18157637.850 4  97165118.876 4      2915.973          29.000  
R24  18093877.185 5  96756143.403 5     -1389.461          31.000  
> 2024 11 28  8 51 26.3930000  0  8                     
G18  22578048.647 6 118648428.830 6     -2096.198          37.000  
G26  20758633.087 6 109087347.179 6     -2469.599          40.000  
G31  21584819.544 6 113428997.159 6     -3406.203          41.000  
R14  18098007.957 5  96472506.922 5      -984.111          34.000  
R17  18157532.049 4  97164535.563 4      2916.741          29.000  
R23  22219693.567 5 118860350.55815     -4219.958          30.000  
R24  18093931.071 5  96756421.122 5     -1388.713          31.000  
E10  23312414.630 7 122507575.319 7      1735.177          46.000  
> 2024 11 28  8 51 26.5930000  0  8                     
G18  22578128.569 6 118648848.184 6     -2097.005          38.000  
G26  20758727.074 6 109087841.111 6     -2469.315          40.000  
G31  21584949.199 6 113429678.424 6     -3406.169          41.000  
R14  18098044.864 5  96472703.639 5      -983.723          34.000  
R17  18157423.439 4  97163952.361 4      2915.834          29.000  
R23  22219852.765 5 118861194.626 5     -4220.864          30.000  
R24  18093985.359 5  96756698.928 5     -1389.170          32.000  
E10  23312348.773 7 122507228.321 7      1735.000          45.000  
> 2024 11 28  8 51 26.7930000  0  8                     
G18  22578208.299 6 118649267.476 6     -2096.543          38.000  
G26  20758821.113 6 109088335.075 6     -2469.682          40.000  
G31  21585078.802 6 113430359.690 6     -3406.463          41.000  
R14  18098081.894 5  96472900.373 5      -983.427          34.000  
R17  18157314.741 5  97163369.107 5      2916.268          30.000  
R23  22220010.184 5 118862038.661 5     -4220.709          30.000  
R24  18094037.989 5  96756976.787 5     -1389.822          32.000  
E10  23312282.828 7 122506881.329 7      1734.789          45.000  
> 2024 11 28  8 51 26.9930000  0  9                     
G18  22578288.133 6 118649686.882 6     -2097.135          38.000  
G26  20758915.135 6 109088829.011 6     -2469.493          38.000  
G27  17808524.282 4               4      -508.939          25.000  
G31  21585208.370 6 113431040.978 6     -3406.207          41.000  
R14  18098118.888 5  96473097.135 5      -983.636          34.000  
R17  18157204.281 4  97162785.969 4      2915.290          29.000  
R23  22220169.783 5 118862882.731 5     -4220.519          30.000  
R24  18094091.334 5  96757254.645 5     -1389.903          32.000  
E10  23312218.856 7 122506534.368 7      1734.866          45.000  
> 2024 11 28  8 51 27.1930000  0  9                     
G18  22578368.021 6 118650106.285 6     -2097.384          38.000  
G26  20759009.104 6 109089323.029 6     -2470.216          38.000  
G27  17808545.257 4               4      -508.939          25.000  
G31  21585337.955 6 113431722.315 6     -3406.647          39.000  
R14  18098155.778 5  96473293.984 5      -983.931          34.000  
R17  18157097.678 4  97162202.833 4      2915.629          29.000  
R23  22220326.539 4 118863726.981 4     -4222.135          29.000  
R24  18094144.644 5  96757532.579 5     -1389.549          31.000  
E10  23312154.744 7 122506187.464 7      1734.504          44.000  
> 2024 11 28  8 51 27.3930000  0 10                     
G18  22578447.873 6 118650525.739 6     -2097.942          38.000  
G26  20759103.056 6 109089817.017 6     -2470.203          38.000  
G27  17808562.760 4               4      -508.939          24.000  
G31  21585467.540 6 113432403.644 6     -3406.683          39.000  
R14  18098192.738 5  96473490.820 5      -984.394          33.000  
R17  18156986.189 4  97161619.753 4      2915.111          29.000  
R23  22220482.509 4 118864571.036 4     -4220.810          29.000  
R24  18094195.704 5  96757810.579 5     -1390.336          31.000  
E10  23312087.107 7 122505840.574 7      1734.288          44.000  
E12  23672938.519 6 124402141.139 6       544.516          36.000  
> 2024 11 28  8 51 27.5930000  0 10                     
G18  22578527.655 6 118650945.165 6     -2097.171          38.000  
G26  20759196.938 6 109090311.032 6     -2469.803          38.000  
G27  17808587.277 4               4      -508.939          24.000  
G31  21585597.161 6 113433084.982 6     -3406.543          39.000  
R14  18098229.680 5  96473687.697 5      -984.474          33.000  
R17  18156880.318 4  97161036.676 4      2915.294          29.000  
R23  22220640.398 4 118865415.171 4     -4220.811          29.000  
R24  18094248.142 5  96758088.580 5     -1389.813          31.000  
E10  23312018.074 7 122505493.689 7      1734.434          43.000  
E12  23672918.608 6 124402032.276 6       544.629          37.000  
> 2024 11 28  8 51 27.7930000  0 10                     
G18  22578607.403 6 118651364.646 6     -2097.338          38.000  
G26  20759290.908 6 109090805.055 6     -2470.133          38.000  
G27  17808609.177 4               4      -508.939          24.000  
G31  21585726.746 6 113433766.341 6     -3406.390          39.000  
R14  18098266.674 5  96473884.568 5      -983.924          33.000  
R17  18156771.795 4  97160453.643 4      2915.322          29.000  
R23  22220800.853 4 118866259.334 4     -4220.852          29.000  
R24  18094301.923 5  96758366.625 5     -1390.329          31.000  
E10  23311952.443 7 122505146.837 7      1734.275          43.000  
E12  23672898.192 6 124401923.432 6       544.211          37.000  
> 2024 11 28  8 51 27.9930000  0 10                     
G18  22578687.342 6 118651784.113 6     -2097.419          38.000  
G26  20759384.895 6 109091299.024 6     -2469.516          38.000  
G27  17808627.535 4               4      -508.939          24.000  
G31  21585856.488 6 113434447.691 6     -3406.647          39.000  
R14  18098303.547 5  96474081.439 5      -985.191          33.000  
R17  18156665.244 4  97159870.568 4      2915.566          29.000  
R23  22220956.614 4 118867103.453 4     -4220.529          29.000  
R24  18094356.455 5  96758644.643 5     -1388.407          31.000  
E10  23311889.029 7 122504799.945 7      1734.510          43.000  
E12  23672878.054 6 124401814.543 6       544.596          37.000  
> 2024 11 28  8 51 28.1930000  0 10                     
G18  22578767.212 6 118652203.616 6     -2097.587          38.000  
G26  20759478.847 6 109091793.062 6     -2470.295          38.000  
G27  17808648.004 4               4      -508.939          24.000  
G31  21585986.143 6 113435129.015 6     -3406.415          39.000  
R14  18098340.576 5  96474278.317 5      -984.638          33.000  
R17  18156553.510 4  97159287.662 4      2914.380          29.000  
R23  22221113.421 4 118867947.611 4     -4220.952          28.000  
R24  18094407.567 5  96758922.828 5     -1391.088          31.000  
E10  23311822.509 7 122504453.093 7      1734.230          43.000  
E12  23672857.777 6 124401705.728 6       543.978          37.000  
> 2024 11 28  8 51 28.3930000  0 10                     
G18  22578847.186 6 118652623.114 6     -2097.702          38.000  
G26  20759572.799 6 109092287.056 6     -2469.779          38.000  
G27  17808668.543 4               4      -508.939          24.000  
G31  21586115.781 6 113435810.394 6     -3406.677          39.000  
R14  18098377.326 5  96474475.204 5      -984.604          33.000  
R17  18156445.651 4  97158704.613 4      2915.384          29.000  
R23  22221272.201 4 118868791.748 4     -4220.594          28.000  
R24  18094457.980 5  96759200.956 5     -1390.970          31.000  
E10  23311758.467 7 122504106.250 7      1734.275          43.000  
E12  23672838.233 6 124401596.890 6       544.133          37.000  
> 2024 11 28  8 51 28.5930000  0 10                     
G18  22578927.003 6 118653042.595 6     -2097.418          38.000  
G26  20759666.785 6 109092781.033 6     -2469.375          38.000  
G27  17808689.309 4               4      -508.939          24.000  
G31  21586245.297 6 113436491.714 6     -3406.738          39.000  
R14  18098414.303 5  96474672.076 5      -984.091          33.000  
R17  18156336.622 4  97158121.657 4      2914.718          29.000  
R23  22221430.527 4 118869635.903 4     -4220.740          28.000  
R24  18094511.518 5  96759479.087 5     -1390.614          30.000  
E10  23311690.952 7 122503759.388 7      1734.394          43.000  
E12  23672815.966 6 124401488.056 6       544.378          37.000  
> 2024 11 28  8 51 28.7930000  0  9                     
G18  22579006.873 6 118653462.071 6     -2096.905          38.000  
G26  20759760.772 6 109093275.005 6     -2470.025          38.000  
G31  21586374.969 6 113437173.013 6     -3406.549          39.000  
R14  18098451.263 5  96474868.959 5      -984.579          33.000  
R17  18156226.965 4  97157538.634 4      2915.361          29.000  
R23  22221587.439 4 118870479.998 4     -4220.440          28.000  
R24  18094567.515 5  96759757.226 5     -1391.299          31.000  
E10  23311624.938 7 122503412.517 7      1734.255          43.000  
E12  23672795.235 6 124401379.213 6       543.922          37.000  
> 2024 11 28  8 51 28.9930000  0  9                     
G18  22579086.795 6 118653881.590 6     -2097.875          38.000  
G26  20759854.846 6 109093768.934 6     -2469.702          38.000  
G31  21586504.485 6 113437854.307 6     -3406.744          39.000  
R14  18098488.135 5  96475065.798 5      -984.256          33.000  
R17  18156118.128 4  97156955.686 4      2914.799          29.000  
R23  22221745.259 4 118871324.077 4     -4220.301          28.000  
R24  18094618.435 5  96760035.350 5     -1390.376          30.000  
E10  23311559.098 7 122503065.629 7      1734.471          43.000  
E12  23672773.649 6 124401270.317 6       544.715          37.000  
> 2024 11 28  8 51 29.1930000  0  9                     
G18  22579166.542 6 118654301.088 6     -2097.552          38.000  
G26  20759948.798 6 109094262.893 6     -2469.350          38.000  
G31  21586634.157 6 113438535.615 6     -3406.342          39.000  
R14  18098525.129 5  96475262.689 5      -984.285          33.000  
R17  18156008.383 4  97156372.745 4      2915.102          29.000  
R23  22221902.730 4 118872168.205 4     -4220.534          28.000  
R24  18094673.456 5  96760313.573 5     -1391.487          31.000  
E10  23311493.154 7 122502718.777 7      1734.319          43.000  
E12  23672754.105 6 124401161.526 6       544.368          37.000  
> 2024 11 28  8 51 29.3930000  0  9                     
G18  22579246.395 6 118654720.614 6     -2097.823          38.000  
G26  20760042.820 6 109094756.869 6     -2469.943          38.000  
G31  21586763.690 6 113439216.904 6     -3406.427          39.000  
R14  18098561.949 5  96475459.565 5      -984.515          33.000  
R17  18155902.094 5  97155789.808 5      2914.507          30.000  
R23  22222060.672 4 118873012.366 4     -4220.772          28.000  
R24  18094726.609 5  96760591.785 5     -1391.622          31.000  
E10  23311426.756 7 122502371.926 7      1734.163          43.000  
E12  23672733.113 6 124401052.733 6       543.852          37.000  
> 2024 11 28  8 51 29.5930000  0  9                     
G18  22579326.299 6 118655140.192 6     -2098.059          38.000  
G26  20760136.685 6 109095250.868 6     -2470.002          38.000  
G31  21586893.293 6 113439898.253 6     -3406.701          39.000  
R14  18098598.996 5  96475656.510 5      -984.702          33.000  
R17  18155794.147 5  97155206.953 5      2914.279          30.000  
R23  22222217.933 4 118873856.489 4     -4220.752          28.000  
R24  18094778.541 5  96760870.052 5     -1391.303          31.000  
E10  23311360.968 7 122502025.130 7      1733.849          43.000  
E12  23672712.783 6 124400943.972 6       543.713          37.000  
> 2024 11 28  8 51 29.7930000  0  9                     
G18  22579406.134 6 118655559.739 6     -2097.482          37.000  
G26  20760230.742 6 109095744.855 6     -2469.985          38.000  
G31  21587022.931 6 113440579.576 6     -3406.781          39.000  
R14  18098636.043 5  96475853.462 5      -984.590          33.000  
R17  18155687.770 5  97154624.143 5      2914.632          30.000  
R23  22222374.845 4 118874700.661 4     -4220.979          28.000  
R24  18094830.473 5  96761148.358 5     -1391.789          31.000  
E10  23311295.390 7 122501678.318 7      1733.996          43.000  
E12  23672692.105 6 124400835.213 6       543.993          37.000  
> 2024 11 28  8 51 29.9930000  0  9                     
G18  22579486.004 6 118655979.390 6     -2098.135          37.000  
G26  20760324.694 6 109096238.861 6     -2469.888          38.000  
G31  21587152.673 6 113441260.936 6     -3406.812          39.000  
R14  18098673.055 5  96476050.426 5      -984.855          33.000  
R17  18155577.415 4  97154041.332 4      2914.280          29.000  
R23  22222532.403 4 118875544.812 4     -4220.626          28.000  
R24  18094883.452 5  96761426.711 5     -1391.969          31.000  
E10  23311228.451 7 122501331.548 7      1733.952          43.000  
E12  23672671.182 6 124400726.490 6       543.667          37.000  
> 2024 11 28  8 51 30.1930000  0  9                     
G18  22579565.873 6 118656398.974 6     -2098.170          37.000  
G26  20760418.611 6 109096732.811 6     -2469.702          38.000  
G31  21587282.241 6 113441942.283 6     -3406.891          40.000  
R14  18098709.962 5  96476247.337 5      -984.267          33.000  
R17  18155468.404 4  97153458.505 4      2914.383          29.000  
R23  22222690.014 4 118876388.944 4     -4220.620          28.000  
R24  18094935.645 5  96761705.076 5     -1392.388          31.000  
E10  23311162.542 7 122500984.741 7      1733.978          43.000  
E12  23672651.533 6 124400617.736 6       543.887          37.000  
> 2024 11 28  8 51 30.3930000  0  9                     
G18  22579645.743 6 118656818.512 6     -2097.580          37.000  
G26  20760512.563 6 109097226.714 6     -2469.339          38.000  
G31  21587411.879 6 113442623.561 6     -3406.732          40.000  
R14  18098746.869 5  96476444.251 5      -984.549          33.000  
R17  18155359.985 4  97152875.671 4      2913.910          29.000  
R23  22222847.310 4 118877233.108 4     -4220.749          28.000  
R24  18094987.350 5  96761983.348 5     -1391.686          31.000  
E10  23311096.318 7 122500637.887 7      1734.441          44.000  
E12  23672630.139 6 124400508.939 6       544.146          37.000  
> 2024 11 28  8 51 30.5930000  0  9                     
G18  22579725.613 6 118657238.054 6     -2097.508          37.000  
G26  20760606.445 6 109097720.614 6     -2469.313          38.000  
G31  21587541.412 6 113443304.818 6     -3406.372          40.000  
R14  18098783.742 5  96476641.153 5      -984.706          33.000  
R17  18155252.265 4  97152292.793 4      2914.044          29.000  
R23  22223004.868 4 118878077.135 4     -4220.103          29.000  
R24  18095039.300 5  96762261.671 5     -1391.060          31.000  
E10  23311030.287 7 122500291.047 7      1734.318          44.000  
E12  23672609.076 6 124400400.179 6       543.886          37.000  
> 2024 11 28  8 51 30.7930000  0  9                     
G18  22579805.325 6 118657657.646 6     -2098.076          37.000  
G26  20760700.257 6 109098214.523 6     -2469.672          38.000  
G31  21587671.014 6 113443986.072 6     -3406.012          40.000  
R14  18098820.736 5  96476838.012 5      -983.890          34.000  
R17  18155144.824 4  97151709.985 4      2913.417          29.000  
R23  22223162.740 4 118878921.251 4     -4220.788          28.000  
R24  18095092.907 5  96762540.052 5     -1392.093          31.000  
E10  23310964.517 7 122499944.209 7      1734.298          44.000  
E12  23672588.572 6 124400291.402 6       543.782          37.000  
> 2024 11 28  8 51 30.9930000  0  9                     
G18  22579885.090 6 118658077.138 6     -2097.455          37.000  
G26  20760794.087 6 109098708.346 6     -2468.740          38.000  
G31  21587800.582 6 113444667.268 6     -3405.713          40.000  
R14  18098857.661 5  96477034.906 5      -984.519          34.000  
R17  18155032.654 4  97151127.095 4      2914.590          29.000  
R23  22223320.159 4 118879765.233 4     -4219.630          28.000  
R24  18095147.299 5  96762818.367 5     -1391.329          31.000  
E10  23310898.206 7 122499597.313 7      1734.682          44.000  
E12  23672566.987 6 124400182.572 6       544.179          37.000  
> 2024 11 28  8 51 31.1930000  0  9                     
G18  22579964.785 6 118658496.653 6     -2097.449          36.000  
G26  20760888.022 6 109099202.187 6     -2469.090          39.000  
G31  21587930.237 6 113445348.459 6     -3405.688          39.000  
R14  18098894.655 5  96477231.713 5      -983.920          34.000  
R17  18154922.002 5  97150544.243 5      2914.015          30.000  
R23  22223477.874 4 118880609.263 4     -4220.051          29.000  
R24  18095198.254 5  96763096.654 5     -1391.065          31.000  
E10  23310832.279 7 122499250.420 7      1734.417          44.000  
E12  23672546.727 6 124400073.760 6       543.950          37.000  
> 2024 11 28  8 51 31.3930000  0  9                     
G18  22580044.620 6 118658916.136 6     -2097.768          36.000  
G26  20760981.939 6 109099695.952 6     -2468.768          39.000  
G31  21588059.770 6 113446029.609 6     -3405.762          38.000  
R14  18098931.580 5  96477428.549 5      -984.681          34.000  
R17  18154810.635 4  97149961.382 4      2913.269          29.000  
R23  22223635.693 4 118881453.276 4     -4220.060          29.000  
R24  18095248.877 5  96763374.984 5     -1391.318          30.000  
E10  23310766.143 7 122498903.497 7      1734.476          44.000  
E12  23672526.188 6 124399964.917 6       544.131          37.000  
> 2024 11 28  8 51 31.5930000  0  9                     
G18  22580124.455 6 118659335.648 6     -2097.286          37.000  
G26  20761075.960 6 109100189.722 6     -2468.561          39.000  
G31  21588189.443 6 113446710.808 6     -3404.785          39.000  
R14  18098968.539 5  96477625.359 5      -983.852          34.000  
R17  18154699.809 5  97149378.458 5      2915.450          30.000  
R23  22223793.426 4 118882297.249 4     -4219.768          28.000  
R24  18095300.756 5  96763653.359 5     -1391.108          30.000  
E10  23310700.041 7 122498556.594 7      1734.957          44.000  
E12  23672505.405 6 124399856.086 6       544.583          37.000  
> 2024 11 28  8 51 31.7930000  0  9                     
G18  22580204.255 6 118659755.245 6     -2098.270          37.000  
G26  20761169.947 6 109100683.546 6     -2469.218          37.000  
G31  21588318.889 6 113447391.998 6     -3406.531          38.000  
R14  18099005.534 5  96477822.200 5      -984.125          34.000  
R17  18154590.029 5  97148795.699 5      2913.540          30.000  
R23  22223951.298 4 118883141.194 4     -4219.657          28.000  
R24  18095352.845 5  96763931.799 5     -1392.377          30.000  
E10  23310634.027 7 122498209.698 7      1734.216          44.000  
E12  23672485.093 6 124399747.268 6       544.173          38.000  
> 2024 11 28  8 51 31.9930000  0  9                     
G18  22580284.020 5 118660174.819 5     -2097.535          34.000  
G26  20761263.917 6 109101177.354 6     -2468.511          40.000  
G31  21588448.491 6 113448073.179 6     -3406.366          38.000  
R14  18099042.459 5  96478019.070 5      -984.128          34.000  
R17  18154482.466 5  97148212.915 5      2913.330          30.000  
R23  22224109.502 4 118883985.285 4     -4221.099          28.000  
R24  18095404.602 5  96764210.274 5     -1392.968          30.000  
E10  23310568.153 7 122497862.851 7      1734.330          44.000  
E12  23672464.798 6 124399638.505 6       543.943          38.000  
> 2024 11 28  8 51 32.1930000  0  9                     
G18  22580363.959 5 118660594.368 5     -2097.671          30.000  
G26  20761357.799 6 109101671.145 6     -2469.385          39.000  
G31  21588578.112 6 113448754.346 6     -3405.170          40.000  
R14  18099079.418 5  96478215.963 5      -984.148          34.000  
R17  18154371.134 5  97147630.099 5      2913.846          30.000  
R23  22224267.583 4 118884829.117 4     -4219.095          28.000  
R24  18095456.482 5  96764488.688 5     -1392.042          31.000  
E10  23310502.208 7 122497515.965 7      1734.286          44.000  
E12  23672443.753 6 124399529.735 6       543.750          38.000  
> 2024 11 28  8 51 32.3930000  0  9                     
G18  22580443.776 5 118661013.919 5     -2098.437          34.000  
G26  20761451.821 6 109102164.964 6     -2468.962          39.000  
G31  21588707.836 6 113449435.561 6     -3406.549          40.000  
R14  18099116.290 5  96478412.894 5      -985.332          34.000  
R17  18154261.948 5  97147047.384 5      2912.592          30.000  
R23  22224425.630 4 118885673.214 4     -4220.782          27.000  
R24  18095508.414 5  96764767.181 5     -1392.755          31.000  
E10  23310436.299 7 122497169.123 7      1734.181          44.000  
E12  23672423.109 6 124399420.981 6       543.493          38.000  
> 2024 11 28  8 51 32.5930000  0  9                     
G18  22580523.524 6 118661433.531 6     -2098.355          37.000  
G26  20761545.790 6 109102658.750 6     -2469.025          38.000  
G31  21588837.352 6 113450116.705 6     -3405.664          38.000  
R14  18099153.320 5  96478609.739 5      -984.239          34.000  
R17  18154153.844 5  97146464.601 5      2913.803          30.000  
R23  22224583.991 4 118886517.062 4     -4218.936          27.000  
R24  18095558.147 5  96765045.717 5     -1392.724          31.000  
E10  23310370.110 7 122496822.282 7      1733.908          42.000  
E12  23672402.344 6 124399312.216 6       543.795          38.000  
> 2024 11 28  8 51 32.7930000  0  9                     
G18  22580603.446 6 118661853.026 6     -2096.933          37.000  
G26  20761639.655 6 109103152.551 6     -2469.058          39.000  
G31  21588967.059 6 113450797.949 6     -3405.566          38.000  
R14  18099190.332 5  96478806.625 5      -984.229          34.000  
R17  18154047.014 5  97145881.902 5      2914.158          30.000  
R23  22224741.845 2               2     -4224.173          15.000  
R24  18095609.660 5  96765324.238 5     -1392.952          31.000  
E10  23310304.113 7 122496475.420 7      1734.699          44.000  
E12  23672381.595 6 124399203.478 6       543.619          38.000  
> 2024 11 28  8 51 32.9930000  0  9                     
G18  22580683.141 6 118662272.646 6     -2097.851          37.000  
G26  20761733.642 6 109103646.342 6     -2468.884          39.000  
G31  21589096.732 6 113451479.103 6     -3405.505          38.000  
R14  18099227.221 5  96479003.564 5      -984.488          34.000  
R17  18153935.437 5  97145299.271 5      2912.799          30.000  
R23  22224899.630 2               2     -4224.173          13.000  
R24  18095661.103 5  96765602.837 5     -1393.238          31.000  
E10  23310238.274 7 122496128.585 7      1733.943          43.000  
E12  23672360.882 6 124399094.775 6       543.538          37.000  
> 2024 11 28  8 51 33.1930000  0 10                     
G 8  18455073.120 3               3      1717.436          23.000  
G18  22580762.923 6 118662692.260 6     -2098.673          39.000  
G26  20761827.629 6 109104140.136 6     -2469.018          39.000  
G31  21589226.387 6 113452160.344 6     -3406.384          38.000  
R14  18099264.146 5  96479200.524 5      -985.159          34.000  
R17  18153824.960 5  97144716.587 5      2913.262          30.000  
R23  22225057.432 2               2     -4224.173          14.000  
R24  18095712.721 5  96765881.422 5     -1393.302          32.000  
E10  23310172.434 7 122495781.799 7      1733.845          43.000  
E12  23672340.203 6 124398986.071 6       543.498          38.000  
> 2024 11 28  8 51 33.3930000  0 10                     
G 8  18455007.420 3               3      1717.436          23.000  
G18  22580842.776 6 118663111.887 6     -2098.137          40.000  
G26  20761921.493 6 109104633.918 6     -2468.806          39.000  
G31  21589356.060 6 113452841.571 6     -3406.116          38.000  
R14  18099301.158 5  96479397.441 5      -984.839          35.000  
R17  18153714.866 5  97144133.924 5      2912.866          30.000  
R23  22225215.322 2               2     -4222.827          16.000  
R24  18095766.101 5  96766160.050 5     -1392.823          32.000  
E10  23310106.385 7 122495434.994 7      1734.171          43.000  
E12  23672319.420 6 124398877.387 6       543.346          38.000  
> 2024 11 28  8 51 33.5930000  0 10                     
G 8  18454941.126 3               3      1717.436          22.000  
G18  22580922.540 6 118663531.562 6     -2097.997          40.000  
G26  20762015.428 6 109105127.740 6     -2468.734          38.000  
G31  21589485.628 6 113453522.798 6     -3406.354          38.000  
R14  18099338.275 5  96479594.384 5      -984.564          35.000  
R17  18153607.146 5  97143551.319 5      2912.711          31.000  
R23  22225373.648 3               3     -4219.104          20.000  
R24  18095817.876 5  96766438.774 5     -1393.604          32.000  
E10  23310040.441 7 122495088.218 7      1734.067          43.000  
E12  23672298.602 6 124398768.741 6       543.285          37.000  
> 2024 11 28  8 51 33.7930000  0 10                     
G 8  18454874.746 3               3      1717.436          22.000  
G18  22581002.323 6 118663951.261 6     -2098.648          41.000  
G26  20762109.502 6 109105621.542 6     -2469.017          38.000  
G31  21589615.265 6 113454203.991 6     -3406.054          39.000  
R14  18099375.356 5  96479791.344 5      -984.866          35.000  
R17  18153498.902 5  97142968.729 5      2912.032          31.000  
R23  22225530.909 3               3     -4220.547          21.000  
R24  18095869.441 5  96766717.432 5     -1393.742          32.000  
E10  23309974.391 7 122494741.424 7      1733.828          43.000  
E12  23672277.906 6 124398660.051 6       543.378          37.000  
> 2024 11 28  8 51 33.9930000  0 10                     
G 8  18454802.327 3               3      1717.436          22.000  
G18  22581082.140 6 118664370.941 6     -2098.517          40.000  
G26  20762203.332 6 109106115.316 6     -2468.972          36.000  
G31  21589744.973 6 113454885.183 6     -3406.335          38.000  
R14  18099412.351 5  96479988.255 5      -984.333          35.000  
R17  18153390.414 5  97142386.127 5      2912.904          31.000  
R23  22225688.589 3               3     -4220.152          22.000  
R24  18095921.443 5  96766996.115 5     -1393.315          32.000  
E10  23309908.307 7 122494394.616 7      1733.843          43.000  
E12  23672257.332 6 124398551.407 6       543.440          37.000  
> 2024 11 28  8 51 34.1930000  0 11                     
G 8  18454734.010 3               3      1717.436          22.000  
G18  22581162.027 6 118664790.645 6     -2098.261          40.000  
G26  20762297.284 6 109106609.089 6     -2468.376          36.000  
G27  17809201.124 4               4      -506.323          26.000  
G31  21589874.663 6 113455566.360 6     -3405.957          39.000  
R14  18099449.380 5  96480185.234 5      -984.181          35.000  
R17  18153280.705 5  97141803.484 5      2913.230          31.000  
R23  22225847.578 3               3     -4219.528          23.000  
R24  18095972.973 5  96767274.885 5     -1394.518          32.000  
E10  23309842.573 7 122494047.836 7      1734.097          43.000  
E12  23672236.532 6 124398442.769 6       543.296          37.000  
> 2024 11 28  8 51 34.3930000  0 11                     
G 8  18454666.390 3               3      1717.436          22.000  
G18  22581241.792 6 118665210.359 6     -2098.825          40.000  
G26  20762391.166 6 109107102.865 6     -2468.920          36.000  
G27  17809219.656 4               4      -507.194          26.000  
G31  21590004.248 6 113456247.529 6     -3405.768          39.000  
R14  18099486.218 5  96480382.198 5      -985.014          35.000  
R17  18153172.601 5  97141220.903 5      2913.608          31.000  
R23  22226006.009 4               4     -4219.511          24.000  
R24  18096025.691 5  96767553.587 5     -1393.813          32.000  
E10  23309776.680 7 122493701.047 7      1733.963          44.000  
E12  23672216.080 6 124398334.126 6       542.829          37.000  
> 2024 11 28  8 51 34.5930000  0 11                     
G 8  18454600.393 3               3      1717.436          21.000  
G18  22581321.609 6 118665630.034 6     -2098.589          40.000  
G26  20762485.083 6 109107596.620 6     -2468.978          37.000  
G27  17809240.142 4               4      -507.348          26.000  
G31  21590133.921 6 113456928.694 6     -3405.725          39.000  
R14  18099523.195 5  96480579.105 5      -984.829          35.000  
R17  18153062.402 5  97140638.338 5      2913.163          31.000  
R23  22226162.973 4               4     -4220.193          24.000  
R24  18096077.727 5  96767832.344 5     -1393.651          32.000  
E10  23309710.719 7 122493354.227 7      1734.084          44.000  
E12  23672195.436 6 124398225.430 6       543.368          37.000  
> 2024 11 28  8 51 34.7930000  0 11                     
G 8  18454533.838 3               3      1717.436          22.000  
G18  22581401.549 6 118666049.768 6     -2098.567          40.000  
G26  20762578.930 6 109108090.352 6     -2468.792          36.000  
G27  17809260.140 4               4      -508.100          26.000  
G31  21590263.471 6 113457609.919 6     -3406.201          39.000  
R14  18099560.206 5  96480776.089 5      -985.079          35.000  
R17  18152953.304 5  97140055.814 5      2912.387          31.000  
R23  22226319.153 4               4     -4220.167          25.000  
R24  18096129.694 5  96768111.134 5     -1393.926          32.000  
E10  23309644.582 7 122493007.472 7      1733.622          44.000  
E12  23672174.758 6 124398116.814 6       542.889          37.000  
> 2024 11 28  8 51 34.9930000  0 11                     
G 8  18454465.957 3               3      1717.436          22.000  
G18  22581481.541 6 118666469.498 6     -2098.992          40.000  
G26  20762672.777 6 109108584.124 6     -2469.283          37.000  
G27  17809279.091 4               4      -507.795          26.000  
G31  21590392.899 6 113458291.085 6     -3406.219          39.000  
R14  18099597.218 5  96480973.046 5      -984.978          35.000  
R17  18152841.814 5  97139473.287 5      2912.413          31.000  
R23  22226477.566 4               4     -4220.078          26.000  
R24  18096181.975 5  96768389.987 5     -1394.043          32.000  
E10  23309578.638 7 122492660.684 7      1733.764          44.000  
E12  23672154.149 6 124398008.175 6       543.123          37.000  
> 2024 11 28  8 51 35.1930000  0 11                     
G 8  18454398.250 3               3      1717.436          21.000  
G18  22581561.480 6 118666889.199 6     -2098.121          40.000  
G26  20762766.607 6 109109077.835 6     -2468.662          36.000  
G27  17809298.915 4               4      -507.440          26.000  
G31  21590522.485 6 113458972.242 6     -3405.493          39.000  
R14  18099634.318 5  96481169.983 5      -984.827          35.000  
R17  18152733.169 5  97138890.743 5      2913.073          31.000  
R23  22226635.386 4 118897490.68534     -4219.720          26.000  
R24  18096234.517 5  96768668.816 5     -1394.351          32.000  
E10  23309512.624 7 122492313.898 7      1734.147          44.000  
E12  23672133.663 6 124397899.539 6       543.515          37.000  
> 2024 11 28  8 51 35.3930000  0 11                     
G 8  18454331.834 3               3      1717.436          21.000  
G18  22581641.315 6 118667308.955 6     -2098.651          40.000  
G26  20762860.664 6 109109571.587 6     -2468.871          36.000  
G27  17809318.110 4               4      -506.444          26.000  
G31  21590652.105 6 113459653.425 6     -3406.036          39.000  
R14  18099671.312 5  96481366.950 5      -984.605          35.000  
R17  18152623.547 5  97138308.242 5      2913.363          31.000  
R23  22226791.932 4 118898334.72324     -4220.116          26.000  
R24  18096286.292 5  96768947.605 5     -1394.394          32.000  
E10  23309446.505 7 122491967.132 7      1733.567          44.000  
E12  23672113.141 6 124397790.947 6       542.772          37.000  
> 2024 11 28  8 51 35.5930000  0 11                     
G 8  18454265.436 3               3      1717.436          21.000  
G18  22581721.219 6 118667728.681 6     -2098.313          40.000  
G26  20762954.494 6 109110065.305 6     -2468.362          37.000  
G27  17809337.584 4               4      -506.462          26.000  
G31  21590781.777 6 113460334.569 6     -3405.804          39.000  
R14  18099708.167 5  96481563.943 5      -984.809          34.000  
R17  18152512.878 5  97137725.781 5      2912.787          31.000  
R23  22226949.647 4 118899178.72424     -4219.824          27.000  
R24  18096338.468 5  96769226.521 5     -1394.463          32.000  
E10  23309380.473 7 122491620.340 7      1734.159          44.000  
E12  23672092.323 6 124397682.336 6       543.107          37.000  
> 2024 11 28  8 51 35.7930000  0 11                     
G 8  18454200.155 3               3      1717.436          21.000  
G18  22581801.002 6 118668148.486 6     -2098.981          40.000  
G26  20763048.341 6 109110559.065 6     -2468.743          37.000  
G27  17809357.408 4               4      -508.872          26.000  
G31  21590911.624 6 113461015.748 6     -3406.280          39.000  
R14  18099745.144 5  96481760.939 5      -985.112          34.000  
R17  18152403.709 5  97137143.310 5      2912.641          31.000  
R23  22227107.589 4 118900022.70124     -4219.814          27.000  
R24  18096390.487 5  96769505.404 5     -1394.776          32.000  
E10  23309314.459 7 122491273.603 7      1733.634          44.000  
E12  23672071.470 6 124397573.750 6       542.760          37.000  
> 2024 11 28  8 51 35.9930000  0 11                     
G 8  18454132.570 3               3      1717.436          21.000  
G18  22581880.854 6 118668568.248 6     -2098.794          40.000  
G26  20763142.293 6 109111052.789 6     -2469.179          37.000  
G27  17809378.016 4               4      -506.271          26.000  
G31  21591041.245 6 113461696.893 6     -3405.774          39.000  
R14  18099782.226 5  96481957.908 5      -984.637          34.000  
R17  18152293.860 5  97136560.888 5      2911.885          31.000  
R23  22227264.850 4 118900866.73624     -4220.352          27.000  
R24  18096442.768 5  96769784.290 5     -1394.207          32.000  
E10  23309248.550 7 122490926.848 7      1733.748          44.000  
E12  23672050.966 6 124397465.155 6       543.030          37.000  
> 2024 11 28  8 51 36.1930000  0 11                     
G 8  18454065.876 3               3      1717.436          21.000  
G18  22581960.724 6 118668987.994 6     -2098.565          40.000  
G26  20763236.228 6 109111546.452 6     -2468.566          37.000  
G27  17809397.561 4               4      -508.070          26.000  
G31  21591170.795 6 113462378.010 6     -3405.408          39.000  
R14  18099819.150 5  96482154.845 5      -984.407          34.000  
R17  18152186.471 5  97135978.388 5      2912.617          31.000  
R23  22227422.652 4 118901710.68124     -4219.521          27.000  
R24  18096494.892 5  96770063.201 5     -1393.772          32.000  
E10  23309182.361 7 122490580.066 7      1733.853          44.000  
E12  23672030.375 6 124397356.558 6       542.944          37.000  
> 2024 11 28  8 51 36.3930000  0 10                     
G18  22582040.611 6 118669407.729 6     -2098.397          40.000  
G26  20763330.022 6 109112040.084 6     -2467.849          37.000  
G27  17809417.611 4               4      -506.606          26.000  
G31  21591300.363 6 113463059.105 6     -3405.328          39.000  
R14  18099856.057 5  96482351.802 5      -984.377          34.000  
R17  18152074.807 5  97135395.912 5      2912.853          31.000  
R23  22227580.472 4 118902554.56524     -4219.484          27.000  
R24  18096547.155 5  96770342.109 5     -1394.157          32.000  
E10  23309116.486 7 122490233.261 7      1734.155          44.000  
E12  23672009.592 6 124397247.928 6       543.447          37.000  
> 2024 11 28  8 51 36.5930000  0 10                     
G18  22582120.323 6 118669827.447 6     -2098.511          40.000  
G26  20763423.974 6 109112533.723 6     -2467.813          37.000  
G27  17809438.307 4               4      -506.457          26.000  
G31  21591430.088 6 113463740.180 6     -3405.194          39.000  
R14  18099893.069 5  96482548.701 5      -984.235          34.000  
R17  18151965.220 5  97134813.420 5      2913.083          31.000  
R23  22227738.693 4 118903398.55824     -4219.997          27.000  
R24  18096599.314 5  96770621.054 5     -1394.911          32.000  
E10  23309050.315 7 122489886.434 7      1734.236          44.000  
E12  23671989.035 6 124397139.306 6       543.008          37.000  
> 2024 11 28  8 51 36.7930000  0 10                     
G18  22582200.123 6 118670247.114 6     -2098.394          40.000  
G26  20763517.822 6 109113027.283 6     -2467.817          37.000  
G27  17809458.305 4               4      -506.140          26.000  
G31  21591559.673 6 113464421.184 6     -3405.133          39.000  
R14  18099930.116 5  96482745.552 5      -983.750          34.000  
R17  18151856.348 5  97134230.922 5      2912.950          31.000  
R23  22227896.548 4 118904242.31824     -4218.335          27.000  
R24  18096651.560 5  96770899.893 5     -1394.205          32.000  
E10  23308984.371 7 122489539.556 7      1734.661          44.000  
E12  23671968.374 6 124397030.585 6       543.704          37.000  
> 2024 11 28  8 51 36.9930000  0 10                     
G18  22582280.010 6 118670666.769 6     -2098.324          40.000  
G26  20763611.529 6 109113520.824 6     -2468.114          36.000  
G27  17809478.495 4               4      -505.565          26.000  
G31  21591689.381 6 113465102.164 6     -3404.871          39.000  
R14  18099967.023 5  96482942.400 5      -984.087          34.000  
R17  18151748.733 5  97133648.377 5      2912.776          31.000  
R23  22228054.385 4 118905086.17824     -4218.943          27.000  
R24  18096703.701 5  96771178.761 5     -1394.290          32.000  
E10  23308918.426 7 122489192.672 7      1734.314          44.000  
E12  23671947.766 6 124396921.884 6       543.817          37.000  
> 2024 11 28  8 51 37.1930000  0 10                     
G18  22582359.950 6 118671086.401 6     -2098.213          40.000  
G26  20763705.359 6 109114014.287 6     -2467.104          37.000  
G27  17809498.737 4               4      -506.316          26.000  
G31  21591818.861 6 113465783.095 6     -3404.822          38.000  
R14  18100004.018 5  96483139.200 5      -983.574          34.000  
R17  18151638.552 5  97133065.885 5      2912.262          31.000  
R23  22228211.646 4 118905929.98524     -4219.112          27.000  
R24  18096755.843 5  96771457.615 5     -1394.168          32.000  
E10  23308852.569 7 122488845.738 7      1734.648          44.000  
E12  23671927.104 6 124396813.172 6       543.385          37.000  
> 2024 11 28  8 51 37.3930000  0 10                     
G18  22582439.750 6 118671506.058 6     -2097.819          40.000  
G26  20763799.189 6 109114507.822 6     -2467.388          36.000  
G27  17809518.281 4               4      -505.779          26.000  
G31  21591948.481 6 113466464.073 6     -3404.694          38.000  
R14  18100040.960 5  96483336.077 5      -984.045          34.000  
R17  18151530.587 5  97132483.376 5      2911.644          31.000  
R23  22228369.309 4 118906773.77424     -4218.845          27.000  
R24  18096808.001 5  96771736.555 5     -1394.497          31.000  
E10  23308786.573 7 122488498.841 7      1734.603          44.000  
E12  23671906.478 6 124396704.463 6       543.873          37.000  
> 2024 11 28  8 51 37.5930000  0 10                     
G18  22582519.637 6 118671925.702 6     -2098.482          40.000  
G26  20763893.054 6 109115001.276 6     -2467.452          36.000  
G27  17809538.681 4               4      -506.790          26.000  
G31  21592078.102 6 113467144.983 6     -3404.761          38.000  
R14  18100077.815 5  96483532.901 5      -985.123          34.000  
R17  18151420.616 5  97131900.805 5      2912.425          31.000  
R23  22228527.129 4 118907617.54824     -4218.582          27.000  
R24  18096860.125 5  96772015.422 5     -1394.917          32.000  
E10  23308720.471 7 122488151.905 7      1734.637          44.000  
E12  23671885.817 6 124396595.744 6       543.592          37.000  
> 2024 11 28  8 51 37.7930000  0 10                     
G18  22582599.471 6 118672345.310 6     -2097.841          40.000  
G26  20763986.971 6 109115494.716 6     -2466.800          36.000  
G27  17809557.963 4               4      -507.095          26.000  
G31  21592207.670 6 113467825.883 6     -3403.955          38.000  
R14  18100114.740 5  96483729.669 5      -984.202          34.000  
R17  18151311.657 5  97131318.248 5      2912.898          31.000  
R23  22228684.076 4 118908461.27124     -4218.354          27.000  
R24  18096912.493 5  96772294.275 5     -1393.798          32.000  
E10  23308654.509 7 122487804.948 7      1735.108          44.000  
E12  23671865.313 6 124396486.990 6       544.074          37.000  
> 2024 11 28  8 51 37.9930000  0 10                     
G18  22582679.324 6 118672764.949 6     -2098.253          40.000  
G26  20764080.993 6 109115988.180 6     -2467.552          36.000  
G27  17809576.844 4               4      -506.821          26.000  
G31  21592337.203 6 113468506.808 6     -3404.815          39.000  
R14  18100151.647 5  96483926.453 5      -983.834          34.000  
R17  18151202.227 5  97130735.790 5      2912.024          31.000  
R23  22228842.280 4 118909305.06224     -4219.048          27.000  
R24  18096964.565 5  96772573.245 5     -1394.847          32.000  
E10  23308588.338 7 122487458.028 7      1734.503          44.000  
E12  23671844.495 6 124396378.277 6       543.654          37.000  
> 2024 11 28  8 51 38.1930000  0 10                     
G18  22582759.211 6 118673184.574 6     -2098.069          40.000  
G26  20764174.875 6 109116481.585 6     -2467.499          36.000  
G27  17809595.568 4               4      -506.468          26.000  
G31  21592466.718 6 113469187.674 6     -3404.431          39.000  
R14  18100188.589 5  96484123.262 5      -984.613          34.000  
R17  18151095.885 5  97130153.230 5      2912.198          31.000  
R23  22228999.925 4 118910148.79724     -4218.808          27.000  
R24  18097016.706 5  96772852.157 5     -1394.613          32.000  
E10  23308522.306 7 122487111.045 7      1735.080          44.000  
E12  23671823.799 6 124396269.553 6       543.443          37.000  
> 2024 11 28  8 51 38.3930000  0 10                     
G18  22582839.063 6 118673604.219 6     -2097.933          40.000  
G26  20764268.617 6 109116974.976 6     -2466.369          37.000  
G27  17809615.322 4               4      -505.561          26.000  
G31  21592596.373 6 113469868.558 6     -3404.065          39.000  
R14  18100225.513 5  96484320.041 5      -984.361          34.000  
R17  18150988.584 5  97129570.736 5      2912.498          31.000  
R23  22229157.501 4 118910992.46624     -4218.126          27.000  
R24  18097068.934 5  96773131.084 5     -1394.226          32.000  
E10  23308456.414 7 122486764.123 7      1734.878          44.000  
E12  23671803.068 6 124396160.804 6       544.127          37.000  
> 2024 11 28  8 51 38.5930000  0 10                     
G18  22582918.933 6 118674023.828 6     -2097.910          40.000  
G26  20764362.569 6 109117468.399 6     -2467.029          36.000  
G27  17809635.093 4               4      -506.250          26.000  
G31  21592725.993 6 113470549.428 6     -3404.480          39.000  
R14  18100262.525 5  96484516.814 5      -984.009          34.000  
R17  18150879.206 5  97128988.244 5      2912.237          31.000  
R23  22229315.024 4 118911836.21224     -4218.310          27.000  
R24  18097121.145 5  96773410.062 5     -1394.662          32.000  
E10  23308390.365 7 122486417.163 7      1734.910          44.000  
E12  23671782.372 6 124396052.082 6       543.471          37.000  
> 2024 11 28  8 51 38.7930000  0 10                     
G18  22582998.698 6 118674443.468 6     -2098.101          40.000  
G26  20764456.451 6 109117961.755 6     -2467.071          37.000  
G27  17809654.131 4               4      -506.098          26.000  
G31  21592855.579 6 113471230.274 6     -3404.254          39.000  
R14  18100299.520 5  96484713.581 5      -984.261          34.000  
R17  18150771.154 5  97128405.705 5      2913.078          31.000  
R23  22229473.158 4 118912679.85224     -4218.194          27.000  
R24  18097173.426 5  96773689.052 5     -1395.202          32.000  
E10  23308324.351 7 122486070.196 7      1734.754          44.000  
E12  23671761.589 6 124395943.334 6       543.681          37.000  
> 2024 11 28  8 51 38.9930000  0 10                     
G18  22583078.567 6 118674863.128 6     -2097.795          40.000  
G26  20764550.211 6 109118455.138 6     -2466.614          37.000  
G27  17809673.030 4               4      -505.512          26.000  
G31  21592985.234 6 113471911.144 6     -3404.254          39.000  
R14  18100336.357 5  96484910.377 5      -983.997          34.000  
R17  18150661.410 5  97127823.269 5      2912.472          31.000  
R23  22229632.129 4 118913523.58224     -4218.406          27.000  
R24  18097225.707 5  96773968.042 5     -1394.798          32.000  
E10  23308258.372 7 122485723.265 7      1734.779          44.000  
E12  23671740.963 6 124395834.638 6       543.422          37.000  
> 2024 11 28  8 51 39.1930000  0 10                     
G18  22583158.350 6 118675282.784 6     -2098.331          40.000  
G26  20764644.059 6 109118948.499 6     -2466.598          37.000  
G27  17809692.155 4               4      -506.930          26.000  
G31  21593114.906 6 113472591.992 6     -3404.285          39.000  
R14  18100373.299 5  96485107.184 5      -984.597          34.000  
R17  18150553.009 5  97127240.806 5      2912.272          31.000  
R23  22229790.211 4 118914367.26824     -4218.352          27.000  
R24  18097277.796 5  96774247.039 5     -1394.854          32.000  
E10  23308192.358 7 122485376.313 7      1734.825          44.000  
E12  23671720.162 6 124395725.903 6       543.804          37.000  
> 2024 11 28  8 51 39.3930000  0 10                     
G18  22583238.149 6 118675702.472 6     -2098.818          40.000  
G26  20764737.819 6 109119441.903 6     -2467.112          37.000  
G27  17809710.321 4               4      -506.605          26.000  
G31  21593244.492 6 113473272.880 6     -3404.858          39.000  
R14  18100410.294 5  96485303.985 5      -984.619          34.000  
R17  18150444.940 5  97126658.440 5      2911.166          32.000  
R23  22229947.594 4 118915210.95224     -4218.646          27.000  
R24  18097329.972 5  96774526.162 5     -1395.720          32.000  
E10  23308126.448 7 122485029.413 7      1734.215          44.000  
E12  23671699.397 6 124395617.268 6       542.843          37.000  
> 2024 11 28  8 51 39.5930000  0 10                     
G18  22583318.037 6 118676122.186 6     -2098.503          40.000  
G26  20764831.718 6 109119935.327 6     -2466.589          37.000  
G27  17809730.022 4               4      -508.882          26.000  
G31  21593374.234 6 113473953.760 6     -3404.248          39.000  
R14  18100447.271 5  96485500.807 5      -983.576          34.000  
R17  18150336.591 5  97126076.009 5      2912.277          31.000  
R23  22230105.327 4 118916054.74624     -4218.650          27.000  
R24  18097382.218 5  96774805.256 5     -1395.322          32.000  
E10  23308060.382 7 122484682.526 7      1734.436          44.000  
E12  23671678.875 6 124395508.609 6       543.114          37.000  
> 2024 11 28  8 51 39.7930000  0 10                     
G18  22583397.644 6 118676541.965 6     -2098.955          40.000  
G26  20764925.566 6 109120428.782 6     -2467.550          37.000  
G27  17809749.252 4               4      -509.156          25.000  
G31  21593503.715 6 113474634.717 6     -3404.865          39.000  
R14  18100484.248 5  96485697.747 5      -985.207          34.000  
R17  18150228.487 5  97125493.690 5      2912.023          32.000  
R23  22230263.199 4 118916898.52324     -4219.033          27.000  
R24  18097434.534 5  96775084.473 5     -1396.207          32.000  
E10  23307994.368 7 122484335.683 7      1734.087          44.000  
E12  23671658.249 6 124395400.025 6       542.670          37.000  
> 2024 11 28  8 51 39.9930000  0 10                     
G18  22583477.444 6 118676961.760 6     -2098.478          40.000  
G26  20765019.518 6 109120922.247 6     -2467.354          37.000  
G27  17809768.919 4               4      -508.294          25.000  
G31  21593633.335 6 113475315.669 6     -3404.358          39.000  
R14  18100521.225 5  96485894.654 5      -984.237          34.000  
R17  18150120.784 5  97124911.413 5      2911.817          32.000  
R23  22230420.792 4 118917742.31124     -4218.388          26.000  
R24  18097486.658 5  96775363.705 5     -1395.800          32.000  
E10  23307928.336 7 122483988.876 7      1734.276          44.000  
E12  23671637.605 6 124395291.437 6       543.240          37.000  
> 2024 11 28  8 51 40.1930000  0 10                     
G18  22583557.279 6 118677381.595 6     -2098.616          40.000  
G26  20765113.435 6 109121415.715 6     -2467.358          37.000  
G27  17809788.027 4               4      -507.108          25.000  
G31  21593762.920 6 113475996.645 6     -3404.797          39.000  
R14  18100558.272 5  96486091.618 5      -985.042          34.000  
R17  18150011.476 5  97124329.203 5      2911.498          32.000  
R23  22230579.152 4 118918586.12324     -4219.107          26.000  
R24  18097538.973 5  96775642.998 5     -1396.355          32.000  
E10  23307862.287 7 122483642.098 7      1733.686          44.000  
E12  23671616.805 6 124395182.925 6       542.418          37.000  
> 2024 11 28  8 51 40.3930000  0 10                     
G18  22583637.166 6 118677801.459 6     -2099.569          40.000  
G26  20765207.282 6 109121909.201 6     -2468.025          37.000  
G27  17809807.868 4               4      -508.746          25.000  
G31  21593892.488 6 113476677.632 6     -3405.426          39.000  
R14  18100595.196 5  96486288.583 5      -985.051          34.000  
R17  18149902.744 5  97123746.991 5      2910.656          32.000  
R23  22230736.239 4 118919429.97524     -4219.226          26.000  
R24  18097591.115 5  96775922.285 5     -1396.510          32.000  
E10  23307796.377 7 122483295.299 7      1733.742          44.000  
E12  23671596.126 6 124395074.378 6       542.585          37.000  
> 2024 11 28  8 51 40.5930000  0 10                     
G18  22583717.071 6 118678221.374 6     -2099.407          40.000  
G26  20765301.304 6 109122402.730 6     -2467.523          37.000  
G27  17809827.552 4               4      -508.794          25.000  
G31  21594022.108 6 113477358.638 6     -3404.803          38.000  
R14  18100632.226 5  96486485.605 5      -984.902          34.000  
R17  18149794.221 5  97123164.821 5      2911.517          32.000  
R23  22230895.158 4 118920273.91324     -4219.926          26.000  
R24  18097643.291 5  96776201.673 5     -1396.503          32.000  
E10  23307730.503 7 122482948.598 7      1733.740          44.000  
E12  23671575.500 6 124394965.942 6       542.262          37.000  
> 2024 11 28  8 51 40.7930000  0 10                     
G18  22583796.836 6 118678641.255 6     -2099.442          40.000  
G26  20765395.203 6 109122896.219 6     -2467.641          37.000  
G27  17809846.014 4               4      -508.346          25.000  
G31  21594151.711 6 113478039.624 6     -3404.577          38.000  
R14  18100669.255 5  96486682.623 5      -985.839          34.000  
R17  18149685.087 5  97122582.686 5      2910.809          32.000  
R23  22231053.414 4 118921117.64324     -4218.531          26.000  
R24  18097695.607 5  96776481.089 5     -1397.343          32.000  
E10  23307664.489 7 122482601.845 7      1733.844          44.000  
E12  23671554.926 6 124394857.433 6       542.868          37.000  
> 2024 11 28  8 51 40.9930000  0 10                     
G18  22583876.758 6 118679061.163 6     -2099.378          40.000  
G26  20765488.998 6 109123389.693 6     -2467.373          37.000  
G27  17809865.471 4               4      -508.110          25.000  
G31  21594281.419 6 113478720.640 6     -3405.023          38.000  
R14  18100706.162 5  96486879.599 5      -985.012          34.000  
R17  18149576.041 5  97122000.537 5      2910.423          32.000  
R23  22231210.815 4 118921961.55424     -4219.593          26.000  
R24  18097747.835 5  96776760.466 5     -1396.841          31.000  
E10  23307598.544 7 122482255.113 7      1733.655          44.000  
E12  23671534.318 6 124394748.986 6       542.329          37.000  
> 2024 11 28  8 51 41.1930000  0 10                     
G18  22583956.540 6 118679481.083 6     -2099.272          40.000  
G26  20765582.811 6 109123883.185 6     -2467.098          37.000  
G27  17809884.753 4               4      -508.685          25.000  
G31  21594411.091 6 113479401.623 6     -3404.694          38.000  
R14  18100743.139 5  96487076.625 5      -984.871          34.000  
R17  18149467.204 5  97121418.398 5      2911.189          32.000  
R23  22231369.089 4 118922805.41624     -4219.379          26.000  
R24  18097800.029 5  96777039.897 5     -1397.121          31.000  
E10  23307532.530 7 122481908.388 7      1733.892          44.000  
E12  23671513.622 6 124394640.543 6       542.179          37.000  
> 2024 11 28  8 51 41.3930000  0 10                     
G18  22584036.445 6 118679900.981 6     -2099.648          40.000  
G26  20765676.588 6 109124376.648 6     -2467.103          38.000  
G27  17809903.879 4               4      -507.376          25.000  
G31  21594540.711 6 113480082.582 6     -3404.791          38.000  
R14  18100780.099 5  96487273.610 5      -985.090          34.000  
R17  18149358.227 5  97120836.270 5      2910.443          32.000  
R23  22231527.729 4 118923649.22024     -4219.149          26.000  
R24  18097852.170 5  96777319.329 5     -1397.234          31.000  
E10  23307466.533 7 122481561.632 7      1733.733          44.000  
E12  23671493.030 6 124394532.057 6       542.641          37.000  
> 2024 11 28  8 51 41.5930000  0 10                     
G18  22584116.297 6 118680320.835 6     -2099.009          40.000  
G26  20765770.348 6 109124870.076 6     -2467.203          38.000  
G27  17809924.139 4               4      -507.971          25.000  
G31  21594670.332 6 113480763.522 6     -3404.761          38.000  
R14  18100817.041 5  96487470.573 5      -985.029          35.000  
R17  18149249.163 5  97120254.109 5      2910.181          32.000  
R23  22231685.269 4 118924492.93224     -4218.229          26.000  
R24  18097904.433 5  96777598.741 5     -1396.552          31.000  
E10  23307400.519 7 122481214.848 7      1733.996          44.000  
E12  23671472.160 6 124394423.555 6       542.945          37.000  
> 2024 11 28  8 51 41.7930000  0 10                     
G18  22584196.236 6 118680740.736 6     -2099.465          40.000  
G26  20765864.300 6 109125363.468 6     -2466.997          38.000  
G27  17809943.508 4               4      -507.757          25.000  
G31  21594799.952 6 113481444.428 6     -3404.504          38.000  
R14  18100854.070 5  96487667.525 5      -984.366          34.000  
R17  18149140.414 5  97119671.988 5      2910.440          32.000  
R23  22231843.246 4 118925336.73424     -4218.196          26.000  
R24  18097956.662 5  96777878.229 5     -1397.700          31.000  
E10  23307334.435 7 122480868.069 7      1733.958          43.000  
E12  23671451.534 6 124394315.078 6       542.451          37.000  
> 2024 11 28  8 51 41.9930000  0 10                     
G18  22584276.088 6 118681160.657 6     -2099.589          40.000  
G26  20765958.113 6 109125856.884 6     -2466.595          38.000  
G27  17809962.913 4               4      -506.512          25.000  
G31  21594929.415 6 113482125.400 6     -3404.926          38.000  
R14  18100891.047 5  96487864.522 5      -985.444          34.000  
R17  18149031.699 5  97119089.887 5      2910.326          32.000  
R23  22232000.560 4 118926180.63924     -4219.522          26.000  
R24  18098008.803 5  96778157.643 5     -1397.666          31.000  
E10  23307268.456 7 122480521.332 7      1733.627          43.000  
E12  23671430.820 6 124394206.599 6       542.500          37.000  
> 2024 11 28  8 51 42.1930000  0 10                     
G18  22584355.906 6 118681580.557 6     -2099.745          40.000  
G26  20766052.187 6 109126350.301 6     -2466.452          38.000  
G27  17809982.021 4               4      -505.865          25.000  
G31  21595058.965 6 113482806.303 6     -3404.406          38.000  
R14  18100928.059 5  96488061.482 5      -984.703          34.000  
R17  18148922.949 5  97118507.809 5      2910.117          32.000  
R23  22232157.036 4 118927024.347 4     -4218.576          26.000  
R24  18098060.246 5  96778437.112 5     -1396.755          31.000  
E10  23307202.372 7 122480174.545 7      1733.939          44.000  
E12  23671410.316 6 124394098.136 6       542.487          37.000  
> 2024 11 28  8 51 42.3930000  0 10                     
G18  22584435.740 6 118682000.452 6     -2099.580          40.000  
G26  20766146.139 6 109126843.720 6     -2467.344          38.000  
G27  17810002.403 4               4      -507.842          25.000  
G31  21595188.603 6 113483487.214 6     -3404.315          38.000  
R14  18100965.106 5  96488258.451 5      -984.697          34.000  
R17  18148816.311 5  97117925.670 5      2910.819          32.000  
R23  22232314.629 4 118927868.219 4     -4219.593          26.000  
R24  18098110.189 5  96778716.631 5     -1397.368          30.000  
E10  23307136.271 7 122479827.773 7      1734.105          43.000  
E12  23671389.725 6 124393989.671 6       542.600          37.000  
> 2024 11 28  8 51 42.5930000  0 10                     
G18  22584515.662 6 118682420.339 6     -2099.241          40.000  
G26  20766240.038 6 109127337.060 6     -2467.636          38.000  
G27  17810022.087 4               4      -508.720          24.000  
G31  21595318.188 6 113484168.123 6     -3404.913          38.000  
R14  18101002.118 5  96488455.409 5      -985.150          34.000  
R17  18148708.905 5  97117343.593 5      2909.829          32.000  
R23  22232472.187 4 118928711.776 4     -4217.636          26.000  
R24  18098165.384 5  96778996.145 5     -1397.692          30.000  
E10  23307070.152 7 122479480.978 7      1734.078          44.000  
E12  23671369.081 6 124393881.197 6       542.171          37.000  
> 2024 11 28  8 51 42.7930000  0 10                     
G18  22584595.637 6 118682840.252 6     -2099.641          40.000  
G26  20766334.043 6 109127830.402 6     -2466.345          38.000  
G27  17810041.038 4               4      -508.909          24.000  
G31  21595447.774 6 113484849.017 6     -3404.809          38.000  
R14  18101039.112 5  96488652.359 5      -984.758          35.000  
R17  18148598.637 5  97116761.491 5      2910.454          32.000  
R23  22232629.204 4 118929555.682 4     -4219.018          26.000  
R24  18098216.513 5  96779275.636 5     -1397.570          30.000  
E10  23307004.364 7 122479134.221 7      1733.882          44.000  
E12  23671348.612 6 124393772.734 6       542.376          37.000  
> 2024 11 28  8 51 42.9930000  0 10                     
G18  22584675.454 6 118683260.156 6     -2099.460          40.000  
G26  20766427.785 6 109128323.766 6     -2466.721          38.000  
G27  17810060.337 4               4      -508.482          24.000  
G31  21595577.481 6 113485529.883 6     -3404.486          38.000  
R14  18101076.089 5  96488849.335 5      -985.219          34.000  
R17  18148490.725 5  97116179.434 5      2910.590          33.000  
R23  22232787.198 4 118930399.389 4     -4218.710          26.000  
R24  18098267.799 5  96779555.206 5     -1398.035          30.000  
E10  23306938.455 7 122478787.444 7      1733.916          44.000  
E12  23671328.143 6 124393664.252 6       542.420          37.000  
> 2024 11 28  8 51 43.1930000  0 10                     
G18  22584755.394 6 118683680.041 6     -2099.447          40.000  
G26  20766521.667 6 109128817.080 6     -2466.904          38.000  
G27  17810079.184 4               4      -507.861          24.000  
G31  21595707.119 6 113486210.710 6     -3404.230          38.000  
R14  18101113.101 5  96489046.237 5      -984.859          34.000  
R17  18148382.586 5  97115597.354 5      2910.681          32.000  
R23  22232944.634 4 118931243.115 4     -4218.583          26.000  
R24  18098317.550 5  96779834.693 5     -1397.416          30.000  
E10  23306872.528 7 122478440.632 7      1733.983          44.000  
E12  23671307.203 6 124393555.751 6       542.702          37.000  
> 2024 11 28  8 51 43.3930000  0 10                     
G18  22584835.298 6 118684099.926 6     -2099.213          40.000  
G26  20766615.497 6 109129310.377 6     -2466.043          38.000  
G27  17810097.821 4               4      -509.142          24.000  
G31  21595836.756 6 113486891.548 6     -3403.857          39.000  
R14  18101150.148 5  96489243.157 5      -984.483          35.000  
R17  18148273.400 5  97115015.302 5      2909.708          33.000  
R23  22233103.047 4 118932086.753 4     -4218.259          26.000  
R24  18098368.976 5  96780114.287 5     -1397.945          30.000  
E10  23306806.636 7 122478093.826 7      1734.268          44.000  
E12  23671286.542 6 124393447.283 6       542.547          37.000  
> 2024 11 28  8 51 43.5930000  0 10                     
G18  22584915.063 6 118684519.841 6     -2099.673          40.000  
G26  20766709.379 6 109129803.701 6     -2466.708          38.000  
G27  17810116.963 4               4      -508.702          24.000  
G31  21595966.569 6 113487572.397 6     -3404.272          39.000  
R14  18101187.073 5  96489440.124 5      -985.184          35.000  
R17  18148165.557 5  97114433.242 5      2910.308          32.000  
R23  22233260.134 4 118932930.501 4     -4218.775          26.000  
R24  18098418.499 5  96780393.820 5     -1397.526          30.000  
E10  23306740.535 7 122477747.040 7      1733.711          44.000  
E12  23671265.898 6 124393338.796 6       542.543          37.000  
> 2024 11 28  8 51 43.7930000  0 10                     
G18  22584995.229 6 118684939.772 6     -2099.872          40.000  
G26  20766803.331 6 109130296.991 6     -2466.617          38.000  
G27  17810135.740 4               4      -508.314          24.000  
G31  21596096.189 6 113488253.261 6     -3404.303          39.000  
R14  18101224.224 5  96489637.075 5      -985.742          35.000  
R17  18148055.813 5  97113851.236 5      2910.112          33.000  
R23  22233417.867 4 118933774.198 4     -4218.706          26.000  
R24  18098468.512 5  96780673.487 5     -1398.324          30.000  
E10  23306674.677 7 122477400.247 7      1733.980          44.000  
E12  23671245.150 6 124393230.380 6       542.010          37.000  
> 2024 11 28  8 51 43.9930000  0 10                     
G18  22585075.256 6 118685359.656 6     -2099.769          40.000  
G26  20766897.248 6 109130790.232 6     -2466.444          38.000  
G27  17810154.569 4               4      -507.278          24.000  
G31  21596225.879 6 113488934.052 6     -3404.498          39.000  
R14  18101261.149 5  96489833.954 5      -984.633          35.000  
R17  18147949.942 5  97113269.158 5      2910.334          33.000  
R23  22233574.936 4 118934617.902 4     -4218.469          26.000  
R24  18098522.834 5  96780953.072 5     -1398.195          30.000  
E10  23306608.681 7 122477053.423 7      1734.115          44.000  
E12  23671224.349 6 124393121.873 6       541.959          37.000  
> 2024 11 28  8 51 44.1930000  0 10                     
G18  22585155.143 6 118685779.545 6     -2099.385          40.000  
G26  20766991.130 6 109131283.506 6     -2465.969          38.000  
G27  17810173.293 4               4      -507.760          24.000  
G31  21596355.482 6 113489614.826 6     -3403.314          39.000  
R14  18101298.213 5  96490030.903 5      -984.466          34.000  
R17  18147841.960 5  97112687.130 5      2910.422          33.000  
R23  22233732.616 4 118935461.547 4     -4218.414          26.000  
R24  18098571.730 4  96781232.681 4     -1398.208          29.000  
E10  23306542.824 7 122476706.613 7      1734.272          44.000  
E12  23671203.618 6 124393013.384 6       542.689          37.000  
> 2024 11 28  8 51 44.3930000  0 10                     
G18  22585234.995 6 118686199.426 6     -2099.445          40.000  
G26  20767084.873 6 109131776.715 6     -2465.916          38.000  
G27  17810191.895 3               3      -508.279          23.000  
G31  21596485.119 6 113490295.615 6     -3403.833          39.000  
R14  18101335.225 5  96490227.780 5      -984.938          35.000  
R17  18147734.205 5  97112105.115 5      2909.970          32.000  
R23  22233890.087 4 118936305.173 4     -4218.098          26.000  
R24  18098620.608 4  96781512.301 4     -1398.025          29.000  
E10  23306476.687 7 122476359.781 7      1734.068          44.000  
E12  23671182.922 6 124392904.885 6       542.453          37.000  
> 2024 11 28  8 51 44.5930000  0 10                     
G18  22585314.935 6 118686619.293 6     -2099.530          40.000  
G26  20767178.738 6 109132269.937 6     -2466.299          38.000  
G27  17810211.142 3               3      -502.462          23.000  
G31  21596614.600 6 113490976.367 6     -3403.925          39.000  
R14  18101372.115 5  96490424.647 5      -983.898          35.000  
R17  18147625.979 5  97111523.028 5      2910.317          33.000  
R23  22234047.540 4 118937148.795 4     -4217.820          26.000  
R24  18098671.911 4  96781791.934 4     -1398.379          29.000  
E10  23306410.568 7 122476012.923 7      1734.189          44.000  
E12  23671162.139 6 124392796.364 6       542.806          37.000  
> 2024 11 28  8 51 44.7930000  0 10                     
G18  22585394.874 6 118687039.156 6     -2099.084          40.000  
G26  20767272.690 6 109132763.107 6     -2466.046          38.000  
G27  17810230.337 3               3      -512.199          23.000  
G31  21596744.150 6 113491657.100 6     -3403.589          39.000  
R14  18101409.075 5  96490621.557 5      -984.758          34.000  
R17  18147519.079 5  97110940.984 5      2910.670          33.000  
R23  22234204.488 4 118937992.397 4     -4218.122          26.000  
R24  18098721.453 4  96782071.575 4     -1398.302          29.000  
E10  23306344.537 7 122475666.072 7      1734.208          44.000  
E12  23671141.478 6 124392687.887 6       542.502          37.000  
> 2024 11 28  8 51 44.9930000  0 10                     
G18  22585474.779 6 118687459.019 6     -2099.249          40.000  
G26  20767366.537 6 109133256.233 6     -2465.444          38.000  
G27  17810250.301 3               3      -512.199          22.000  
G31  21596873.840 6 113492337.820 6     -3403.760          39.000  
R14  18101446.052 5  96490818.384 5      -984.250          34.000  
R17  18147408.532 5  97110358.965 5      2910.716          33.000  
R23  22234362.953 4 118938835.946 4     -4217.491          26.000  
R24  18098772.669 4  96782351.185 4     -1398.074          29.000  
E10  23306278.575 7 122475319.192 7      1734.361          44.000  
E12  23671120.939 6 124392579.347 6       542.688          37.000  
> 2024 11 28  8 51 45.1930000  0 10                     
G18  22585554.648 6 118687878.903 6     -2099.642          40.000  
G26  20767460.559 6 109133749.399 6     -2465.628          38.000  
G27  17810270.002 3               3      -508.156          22.000  
G31  21597003.356 6 113493018.513 6     -3403.656          39.000  
R14  18101482.941 5  96491015.269 5      -984.486          34.000  
R17  18147300.306 5  97109776.909 5      2910.439          33.000  
R23  22234520.651 4               4     -4218.309          25.000  
R24  18098824.269 4  96782630.794 4     -1397.737          29.000  
E10  23306212.526 7 122474972.337 7      1734.181          44.000  
E12  23671100.435 6 124392470.851 6       542.297          37.000  
> 2024 11 28  8 51 45.3930000  0 10                     
G18  22585634.535 6 118688298.762 6     -2099.115          40.000  
G26  20767554.301 6 109134242.551 6     -2465.615          38.000  
G27  17810291.204 3               3      -504.805          22.000  
G31  21597132.854 6 113493699.223 6     -3403.308          39.000  
R14  18101519.831 5  96491212.118 5      -984.099          34.000  
R17  18147190.439 5  97109194.924 5      2910.243          33.000  
R23  22234678.401 4               4     -4215.185          25.000  
R24  18098874.473 4  96782910.559 4     -1398.595          29.000  
E10  23306146.529 7 122474625.456 7      1734.576          44.000  
E12  23671079.774 6 124392362.346 6       542.430          37.000  
> 2024 11 28  8 51 45.5930000  0 10                     
G18  22585714.580 6 118688718.658 6     -2099.158          40.000  
G26  20767648.201 6 109134735.677 6     -2465.241          38.000  
G27  17810310.312 3               3      -506.475          22.000  
G31  21597262.526 6 113494379.933 6     -3403.418          39.000  
R14  18101556.808 5  96491409.022 5      -984.493          34.000  
R17  18147080.346 5  97108612.916 5      2910.588          33.000  
R23  22234835.557 4               4     -4217.449          25.000  
R24  18098925.742 4  96783190.201 4     -1398.152          28.000  
E10  23306080.567 7 122474278.614 7      1734.370          44.000  
E12  23671058.939 6 124392253.845 6       542.693          37.000  
> 2024 11 28  8 51 45.7930000  0 10                     
G18  22585794.554 6 118689138.553 6     -2099.848          40.000  
G26  20767742.136 6 109135228.828 6     -2466.092          38.000  
G27  17810328.861 3               3      -506.475          22.000  
G31  21597392.077 6 113495060.614 6     -3403.674          39.000  
R14  18101593.698 5  96491605.860 5      -984.508          34.000  
R17  18146971.142 5  97108030.927 5      2909.669          33.000  
R23  22234993.115 4               4     -4218.992          25.000  
R24  18098977.953 4  96783469.928 4     -1398.539          28.000  
E10  23306014.291 7 122473931.740 7      1734.169          44.000  
E12  23671038.382 6 124392145.353 6       542.141          37.000  
> 2024 11 28  8 51 45.9930000  0 11                     
G 8  18450854.425 4               4      1722.462          25.000  
G18  22585874.406 6 118689558.406 6     -2099.278          40.000  
G26  20767835.930 6 109135721.903 6     -2465.421          38.000  
G27  17810348.371 3               3      -506.700          22.000  
G31  21597521.697 6 113495741.269 6     -3403.192          39.000  
R14  18101630.727 5  96491802.685 5      -983.756          34.000  
R17  18146861.502 5  97107448.907 5      2910.318          33.000  
R23  22235151.528 4               4     -4217.866          25.000  
R24  18099026.029 4  96783749.634 4     -1398.766          28.000  
E10  23305948.190 7 122473584.851 7      1734.484          44.000  
E12  23671017.756 6 124392036.808 6       542.833          37.000  
> 2024 11 28  8 51 46.1930000  0 11                     
G 8  18450789.981 4               4      1722.463          25.000  
G18  22585954.311 6 118689978.296 6     -2099.301          40.000  
G26  20767929.987 6 109136215.020 6     -2465.907          38.000  
G27  17810367.601 3               3      -500.781          22.000  
G31  21597651.108 6 113496421.960 6     -3403.424          39.000  
R14  18101667.739 5  96491999.573 5      -984.575          34.000  
R17  18146753.276 5  97106866.941 5      2909.610          33.000  
R23  22235309.976 4               4     -4219.348          25.000  
R24  18099075.954 4  96784029.363 4     -1398.816          28.000  
E10  23305882.193 7 122473237.977 7      1734.532          44.000  
E12  23670996.956 6 124391928.326 6       542.937          37.000  
> 2024 11 28  8 51 46.3930000  0 11                     
G 8  18450724.421 4               4      1722.818          25.000  
G18  22586034.128 6 118690398.210 6     -2099.247          40.000  
G26  20768023.852 6 109136708.101 6     -2465.401          38.000  
G27  17810386.918 3               3      -504.639          22.000  
G31  21597780.780 6 113497102.608 6     -3403.076          39.000  
R14  18101704.611 5  96492196.418 5      -984.061          34.000  
R17  18146642.834 5  97106284.976 5      2909.486          33.000  
R23  22235467.848 4               4     -4218.016          25.000  
R24  18099126.507 4  96784309.136 4     -1398.623          28.000  
E10  23305816.022 7 122472891.129 7      1734.457          44.000  
E12  23670976.364 6 124391819.879 6       542.012          37.000  
> 2024 11 28  8 51 46.5930000  0 11                     
G 8  18450659.052 4               4      1722.601          25.000  
G18  22586113.945 6 118690818.078 6     -2099.420          40.000  
G26  20768117.734 6 109137201.147 6     -2464.837          38.000  
G27  17810404.875 3               3      -507.510          22.000  
G31  21597910.331 6 113497783.238 6     -3402.673          39.000  
R14  18101740.280 5  96492393.262 5      -983.708          34.000  
R17  18146535.236 5  97105702.961 5      2910.265          33.000  
R23  22235625.738 4               4     -4216.306          25.000  
R24  18099178.421 4  96784588.874 4     -1398.612          28.000  
E10  23305750.043 7 122472544.227 7      1734.473          44.000  
E12  23670955.790 6 124391711.348 6       542.441          37.000  
> 2024 11 28  8 51 46.7930000  0 11                     
G 8  18450593.370 4               4      1724.993          25.000  
G18  22586193.832 6 118691237.936 6     -2099.494          40.000  
G26  20768211.634 6 109137694.189 6     -2465.384          38.000  
G27  17810424.401 3               3      -507.692          22.000  
G31  21598039.899 6 113498463.864 6     -3403.247          39.000  
R14  18101777.379 5  96492590.077 5      -983.946          34.000  
R17  18146425.073 5  97105121.017 5      2909.418          34.000  
R23  22235784.291 4               4     -4218.367          26.000  
R24  18099232.360 4  96784868.596 4     -1397.222          28.000  
E10  23305684.063 7 122472197.322 7      1734.424          44.000  
E12  23670935.129 6 124391602.822 6       542.516          37.000  
> 2024 11 28  8 51 46.9930000  0 11                     
G 8  18450528.961 4               4      1724.667          25.000  
G18  22586273.685 6 118691657.775 6     -2099.125          40.000  
G26  20768305.498 6 109138187.169 6     -2464.889          38.000  
G27  17810444.609 3               3      -515.444          22.000  
G31  21598169.571 6 113499144.434 6     -3402.929          39.000  
R14  18101816.048 5  96492786.879 5      -984.161          34.000  
R17  18146316.305 5  97104538.989 5      2910.213          34.000  
R23  22235942.058 4               4     -4216.313          26.000  
R24  18099285.356 4  96785148.406 4     -1398.339          29.000  
E10  23305618.137 7 122471850.388 7      1734.454          44.000  
E12  23670914.416 6 124391494.266 6       542.665          37.000  
> 2024 11 28  8 51 47.1930000  0 11                     
G 8  18450463.086 4               4      1723.869          25.000  
G18  22586353.589 6 118692077.622 6     -2098.926          40.000  
G26  20768399.293 6 109138680.164 6     -2464.600          38.000  
G27  17810464.415 3               3      -502.680          21.000  
G31  21598299.052 6 113499824.993 6     -3402.331          39.000  
R14  18101853.217 5  96492983.679 5      -983.309          34.000  
R17  18146206.910 5  97103957.008 5      2910.034          34.000  
R23  22236099.337 4               4     -4210.460          26.000  
R24  18099342.070 4               4     -1398.803          29.000  
E10  23305552.349 7 122471503.447 7      1735.006          44.000  
E12  23670893.668 6 124391385.735 6       543.147          37.000  
> 2024 11 28  8 51 47.3930000  0 11                     
G 8  18450398.555 4               4      1725.265          25.000  
G18  22586433.284 6 118692497.452 6     -2099.310          40.000  
G26  20768493.175 6 109139173.094 6     -2464.523          38.000  
G27  17810483.540 3               3      -508.784          21.000  
G31  21598428.533 6 113500505.533 6     -3402.740          39.000  
R14  18101888.048 5  96493180.443 5      -983.673          35.000  
R17  18146097.846 5  97103375.013 5      2909.882          34.000  
R23  22236257.541 4               4     -4216.475          26.000  
R24  18099398.381 4               4     -1398.743          29.000  
E10  23305486.492 7 122471156.484 7      1734.875          44.000  
E12  23670872.954 6 124391277.172 6       542.929          37.000  
> 2024 11 28  8 51 47.5930000  0 11                     
G 8  18450332.279 4               4      1724.199          25.000  
G18  22586513.206 6 118692917.243 6     -2098.763          40.000  
G26  20768586.953 6 109139666.007 6     -2464.384          38.000  
G27  17810503.067 3               3      -515.327          21.000  
G31  21598558.153 6 113501186.031 6     -3402.191          39.000  
R14  18101924.781 5  96493377.178 5      -983.437          35.000  
R17  18145988.573 5  97102793.004 5      2909.514          34.000  
R23  22236415.989 4               4     -4215.238          26.000  
R24  18099449.947 4  96785864.67334     -1398.918          29.000  
E10  23305420.513 7 122470809.497 7      1735.179          44.000  
E12  23670852.380 6 124391168.572 6       543.313          37.000  
> 2024 11 28  8 51 47.7930000  0 11                     
G 8  18450265.934 4               4      1725.810          25.000  
G18  22586593.059 6 118693337.064 6     -2099.159          40.000  
G26  20768680.643 6 109140158.908 6     -2464.330          38.000  
G27  17810523.414 3               3      -511.338          21.000  
G31  21598687.651 6 113501866.530 6     -3402.289          39.000  
R14  18101961.932 5  96493573.918 5      -983.304          34.000  
R17  18145879.945 5  97102210.956 5      2910.339          35.000  
R23  22236573.023 4               4     -4215.860          26.000  
R24  18099503.938 5  96786144.44725     -1398.811          30.000  
E10  23305354.551 7 122470462.518 7      1734.995          44.000  
E12  23670831.754 6 124391060.014 6       542.886          37.000  
> 2024 11 28  8 51 47.9930000  0 11                     
G 8  18450200.321 4               4      1724.152          25.000  
G18  22586672.998 6 118693756.884 6     -2099.244          40.000  
G26  20768774.473 6 109140651.812 6     -2464.681          38.000  
G27  17810542.749 3               3      -508.826          21.000  
G31  21598817.254 6 113502547.008 6     -3402.197          39.000  
R14  18101998.648 5  96493770.700 5      -983.992          34.000  
R17  18145770.480 5  97101628.988 5      2910.043          35.000  
R23  22236730.616 4               4     -4217.146          27.000  
R24  18099557.772 4  96786424.20124     -1399.047          29.000  
E10  23305288.362 7 122470115.543 7      1734.638          44.000  
E12  23670811.006 6 124390951.420 6       543.116          37.000  
> 2024 11 28  8 51 48.1930000  0 11                     
G 8  18450134.097 4               4      1723.658          25.000  
G18  22586752.972 6 118694176.710 6     -2099.196          40.000  
G26  20768868.268 6 109141144.701 6     -2464.249          38.000  
G27  17810562.433 3               3      -508.826          21.000  
G31  21598946.856 6 113503227.531 6     -3402.740          39.000  
R14  18102034.996 5  96493967.433 5      -983.854          34.000  
R17  18145660.195 5  97101047.064 5      2909.198          35.000  
R23  22236887.633 4               4     -4216.525          26.000  
R24  18099611.100 5  96786722.07635     -1398.816          30.000  
E10  23305222.540 7 122469768.563 7      1734.832          44.000  
E12  23670790.467 6 124390842.884 6       542.589          37.000  
> 2024 11 28  8 51 48.3930000  0 11                     
G 8  18450068.921 4               4      1723.026          25.000  
G18  22586832.790 6 118694596.519 6     -2099.164          40.000  
G26  20768961.923 6 109141637.572 6     -2464.706          38.000  
G27  17810581.523 3               3      -508.888          21.000  
G31  21599076.372 6 113503907.969 6     -3402.167          39.000  
R14  18102072.514 5  96494164.168 5      -983.372          34.000  
R17  18145552.649 5  97100465.061 5      2909.284          34.000  
R23  22237044.266 4               4     -4216.156          26.000  
R24  18099666.940 5  96787001.89825     -1398.849          30.000  
E10  23305156.421 7 122469421.564 7      1735.031          44.000  
E12  23670769.946 6 124390734.310 6       542.729          37.000  
> 2024 11 28  8 51 48.5930000  0 11                     
G 8  18450003.360 4               4      1724.080          25.000  
G18  22586912.572 6 118695016.311 6     -2098.917          40.000  
G26  20769055.770 6 109142130.407 6     -2464.217          38.000  
G27  17810600.945 3               3      -508.888          21.000  
G31  21599205.922 6 113504588.435 6     -3402.399          39.000  
R14  18102108.357 5  96494360.920 5      -983.710          34.000  
R17  18145444.283 5  97099883.070 5      2910.224          34.000  
R23  22237201.999 4               4     -4217.248          26.000  
R24  18099718.558 5  96787281.73525     -1399.832          30.000  
E10  23305090.320 7 122469074.563 7      1735.033          44.000  
E12  23670749.354 6 124390625.722 6       542.673          37.000  
> 2024 11 28  8 51 48.7930000  0 11                     
G 8  18449937.643 4               4      1723.920          25.000  
G18  22586992.529 6 118695436.184 6     -2099.442          40.000  
G26  20769149.565 6 109142623.284 6     -2464.322          38.000  
G27  17810620.664 3               3      -521.464          21.000  
G31  21599335.403 6 113505268.908 6     -3402.759          39.000  
R14  18102143.589 5  96494557.701 5      -984.235          34.000  
R17  18145335.498 5  97099301.164 5      2909.384          35.000  
R23  22237360.342 4               4     -4216.643          26.000  
R24  18099769.251 5  96787561.67725     -1400.589          30.000  
E10  23305024.341 7 122468727.595 7      1734.708          44.000  
E12  23670728.676 6 124390517.187 6       542.497          37.000  
> 2024 11 28  8 51 48.9930000  0 11                     
G 8  18449872.414 4               4      1722.847          25.000  
G18  22587072.486 6 118695856.092 6     -2099.554          40.000  
G26  20769243.308 6 109143116.193 6     -2464.525          38.000  
G27  17810641.726 3               3      -505.193          20.000  
G31  21599465.006 6 113505949.435 6     -3402.893          39.000  
R14  18102179.589 5  96494754.508 5      -984.316          34.000  
R17  18145226.138 5  97098719.285 5      2909.137          34.000  
R23  22237516.870 4 118955700.67134     -4217.508          26.000  
R24  18099821.584 5  96787841.58125     -1399.617          30.000  
E10  23304958.518 7 122468380.682 7      1734.498          44.000  
E12  23670707.910 6 124390408.697 6       542.399          37.000  
> 2024 11 28  8 51 49.1930000  0 11                     
G 8  18449805.911 4               4      1724.008          25.000  
G18  22587152.512 6 118696276.021 6     -2099.596          40.000  
G26  20769337.225 6 109143609.123 6     -2464.504          38.000  
G27  17810660.101 3               3      -504.353          21.000  
G31  21599594.486 6 113506629.984 6     -3402.985          39.000  
R14  18102216.182 5  96494951.367 5      -984.022          34.000  
R17  18145117.877 5  97098137.477 5      2909.076          34.000  
R23  22237676.104 4 118956544.02624     -4216.876          26.000  
R24  18099874.737 5  96788121.61725     -1400.253          30.000  
E10  23304892.539 7 122468033.810 7      1734.156          44.000  
E12  23670687.371 6 124390300.248 6       542.150          37.000  
> 2024 11 28  8 51 49.3930000  0 11                     
G 8  18449741.432 4               4      1723.287          25.000  
G18  22587232.365 6 118696695.995 6     -2099.650          40.000  
G26  20769431.002 6 109144102.067 6     -2464.495          38.000  
G27  17810679.471 3               3      -509.879          21.000  
G31  21599724.089 6 113507310.545 6     -3402.844          39.000  
R14  18102251.344 5  96495148.263 5      -984.864          34.000  
R17  18145008.900 5  97097555.686 5      2909.152          34.000  
R23  22237833.452 4 118957387.52124     -4217.619          26.000  
R24  18099928.310 5  96788401.68825     -1401.196          30.000  
E10  23304826.368 7 122467686.943 7      1734.258          44.000  
E12  23670666.937 6 124390191.820 6       542.252          37.000  
> 2024 11 28  8 51 49.5930000  0 11                     
G 8  18449675.453 4               4      1724.981          24.000  
G18  22587312.287 6 118697116.049 6     -2100.422          40.000  
G26  20769524.832 6 109144595.097 6     -2465.215          38.000  
G27  17810699.539 3               3      -505.944          21.000  
G31  21599853.535 6 113507991.169 6     -3403.320          39.000  
R14  18102288.478 5  96495345.193 5      -984.640          34.000  
R17  18144900.273 5  97096973.995 5      2908.795          34.000  
R23  22237990.452 4 118958230.96124     -4217.486          26.000  
R24  18099980.032 5               5     -1401.134          30.000  
E10  23304760.319 7 122467340.162 7      1733.609          44.000  
E12  23670646.433 6 124390083.498 6       541.232          37.000  
> 2024 11 28  8 51 49.7930000  0 11                     
G 8  18449609.247 4               4      1722.774          24.000  
G18  22587392.052 6 118697536.172 6     -2100.757          40.000  
G26  20769618.662 6 109145088.142 6     -2465.220          38.000  
G27  17810718.717 3               3      -518.815          21.000  
G31  21599983.120 6 113508671.850 6     -3403.473          39.000  
R14  18102325.909 5  96495542.182 5      -985.090          34.000  
R17  18144791.819 5  97096392.391 5      2907.807          34.000  
R23  22238148.167 4 118959074.57724     -4218.146          26.000  
R24  18100031.894 4               4     -1401.422          29.000  
E10  23304694.409 7 122466993.416 7      1733.729          44.000  
E12  23670625.685 6 124389975.186 6       541.660          37.000  
> 2024 11 28  8 51 49.9930000  0 11                     
G 8  18449543.599 4               4      1721.802          24.000  
G18  22587472.026 6 118697956.272 6     -2100.937          39.000  
G26  20769712.213 6 109145581.182 6     -2465.119          38.000  
G27  17810738.837 3               3      -518.815          21.000  
G31  21600112.601 6 113509352.499 6     -3403.235          39.000  
R14  18102361.054 5  96495739.214 5      -985.265          34.000  
R17  18144682.913 5  97095810.770 5      2907.807          34.000  
R23  22238305.219 4 118959918.14124     -4217.690          26.000  
R24  18100083.250 4               4     -1401.264          29.000  
E10  23304628.465 7 122466646.673 7      1733.919          44.000  
E12  23670605.059 6 124389866.934 6       541.133          37.000  
> 2024 11 28  8 51 50.1930000  0 11                     
G 8  18449477.707 4               4      1723.052          24.000  
G18  22587551.843 6 118698376.323 6     -2100.010          39.000  
G26  20769805.833 6 109146074.158 6     -2464.429          38.000  
G27  17810758.974 3               3      -513.291          21.000  
G31  21600241.977 6 113510033.082 6     -3402.570          39.000  
R14  18102398.502 5  96495936.132 5      -984.219          33.000  
R17  18144574.093 5  97095229.080 5      2907.918          34.000  
R23  22238463.126 4 118960761.57824     -4217.131          26.000  
R24  18100135.426 4               4     -1400.984          29.000  
E10  23304562.555 7 122466299.908 7      1734.107          44.000  
E12  23670584.677 6 124389758.601 6       541.655          37.000  
> 2024 11 28  8 51 50.3930000  0 11                     
G 8  18449412.775 4               4      1720.771          24.000  
G18  22587631.818 6 118698796.404 6     -2100.414          39.000  
G26  20769899.680 6 109146567.151 6     -2464.663          38.000  
G27  17810778.990 3               3      -513.135          21.000  
G31  21600371.387 6 113510713.727 6     -3402.966          39.000  
R14  18102435.235 5  96496133.114 5      -984.775          33.000  
R17  18144465.343 5  97094647.431 5      2908.946          34.000  
R23  22238621.015 4 118961605.12524     -4217.876          26.000  
R24  18100191.180 4  96789805.72534     -1400.907          29.000  
E10  23304496.506 7 122465953.124 7      1733.849          43.000  
E12  23670564.120 6 124389650.280 6       541.657          37.000  
> 2024 11 28  8 51 50.5930000  0 11                     
G 8  18449346.028 3               3      1721.730          23.000  
G18  22587711.670 6 118699216.425 6     -2100.048          39.000  
G26  20769993.336 6 109147060.075 6     -2464.618          38.000  
G27  17810798.551 3               3      -513.135          21.000  
G31  21600500.903 6 113511394.256 6     -3402.942          39.000  
R14  18102472.700 5  96496329.963 5      -984.008          33.000  
R17  18144356.716 5  97094065.802 5      2907.959          33.000  
R23  22238779.760 4 118962448.52424     -4217.205          26.000  
R24  18100244.333 4  96790085.93024     -1401.115          29.000  
E10  23304430.405 7 122465606.294 7      1734.221          43.000  
E12  23670543.547 6 124389541.919 6       541.740          37.000  
> 2024 11 28  8 51 50.7930000  0 11                     
G 8  18449280.398 3               3      1722.710          23.000  
G18  22587791.592 6 118699636.440 6     -2100.006          40.000  
G26  20770087.148 6 109147552.959 6     -2464.507          38.000  
G27  17810818.706 3               3      -507.758          21.000  
G31  21600630.296 6 113512074.746 6     -3402.112          39.000  
R14  18102509.555 5  96496526.884 5      -984.555          34.000  
R17  18144248.106 5  97093484.089 5      2908.632          33.000  
R23  22238937.737 4 118963291.91324     -4216.672          26.000  
R24  18100299.074 4  96790366.12624     -1400.963          29.000  
E10  23304364.461 7 122465259.435 7      1734.308          43.000  
E12  23670522.833 6 124389433.526 6       541.882          37.000  
> 2024 11 28  8 51 50.9930000  0 11                     
G 8  18449214.610 3               3      1723.570          23.000  
G18  22587871.531 6 118700056.467 6     -2099.864          40.000  
G26  20770180.908 6 109148045.853 6     -2464.414          38.000  
G27  17810838.565 3               3      -510.740          21.000  
G31  21600759.760 6 113512755.288 6     -3402.337          39.000  
R14  18102546.427 5  96496723.761 5      -984.223          34.000  
R17  18144139.373 5  97092902.413 5      2908.726          34.000  
R23  22239095.504 4 118964135.37924     -4217.504          26.000  
R24  18100349.209 4  96790646.33024     -1401.149          29.000  
E10  23304298.551 7 122464912.611 7      1734.224          43.000  
E12  23670502.259 6 124389325.171 6       541.667          37.000  
> 2024 11 28  8 51 51.1930000  0 11                     
G 8  18449148.875 3               3      1722.346          23.000  
G18  22587951.488 6 118700476.463 6     -2100.106          40.000  
G26  20770274.651 6 109148538.686 6     -2464.266          38.000  
G27  17810858.964 3               3      -510.293          21.000  
G31  21600889.205 6 113513435.758 6     -3402.075          39.000  
R14  18102582.288 5  96496920.624 5      -984.186          34.000  
R17  18144030.658 5  97092320.728 5      2907.964          33.000  
R23  22239253.097 4 118964978.68124     -4216.121          27.000  
R24  18100402.275 4  96790926.52424     -1400.778          29.000  
E10  23304232.659 7 122464565.719 7      1734.273          43.000  
E12  23670481.616 6 124389216.745 6       541.876          37.000  
> 2024 11 28  8 51 51.3930000  0 11                     
G 8  18449083.350 3               3      1723.727          23.000  
G18  22588031.445 6 118700896.407 6     -2099.611          40.000  
G26  20770368.341 6 109149031.479 6     -2463.829          38.000  
G27  17810878.142 3               3      -518.718          21.000  
G31  21601018.808 6 113514116.195 6     -3401.971          39.000  
R14  18102620.085 5  96497117.417 5      -984.664          34.000  
R17  18143921.821 5  97091738.996 5      2908.076          33.000  
R23  22239410.673 4 118965822.04424     -4216.897          27.000  
R24  18100458.185 4  96791206.68024     -1400.483          29.000  
E10  23304166.645 7 122464218.802 7      1734.601          43.000  
E12  23670460.937 6 124389108.301 6       542.171          37.000  
> 2024 11 28  8 51 51.5930000  0 11                     
G 8  18449018.540 3               3      1725.061          23.000  
G18  22588111.489 6 118701316.334 6     -2099.556          40.000  
G26  20770462.136 6 109149524.219 6     -2463.479          38.000  
G27  17810899.449 3               3      -511.952          21.000  
G31  21601148.306 6 113514796.595 6     -3402.161          39.000  
R14  18102657.952 5  96497314.210 5      -984.050          34.000  
R17  18143813.019 5  97091157.234 5      2908.417          33.000  
R23  22239567.393 4 118966665.31324     -4216.181          27.000  
R24  18100510.082 4  96791486.81224     -1400.664          29.000  
E10  23304100.666 7 122463871.845 7      1734.885          43.000  
E12  23670440.259 6 124388999.822 6       542.559          38.000  
> 2024 11 28  8 51 51.7930000  0 11                     
G 8  18448952.997 3               3      1723.222          23.000  
G18  22588191.464 6 118701736.218 6     -2099.505          40.000  
G26  20770555.983 6 109150016.919 6     -2463.414          38.000  
G27  17810919.761 3               3      -509.932          21.000  
G31  21601277.665 6 113515476.916 6     -3401.453          39.000  
R14  18102694.266 5  96497510.904 5      -983.943          34.000  
R17  18143704.339 5  97090575.389 5      2909.379          33.000  
R23  22239725.754 4 118967508.52924     -4215.690          27.000  
R24  18100561.351 4  96791767.00124     -1400.907          29.000  
E10  23304034.686 7 122463524.842 7      1735.048          43.000  
E12  23670419.720 6 124388891.321 6       542.509          38.000  
> 2024 11 28  8 51 51.9930000  0 11                     
G 8  18448886.913 3               3      1721.318          23.000  
G18  22588271.368 6 118702156.080 6     -2099.305          40.000  
G26  20770649.743 6 109150509.566 6     -2463.076          38.000  
G27  17810940.282 3               3      -509.079          21.000  
G31  21601407.145 6 113516157.223 6     -3401.440          39.000  
R14  18102731.993 5  96497707.603 5      -983.471          34.000  
R17  18143595.398 5  97089993.580 5      2909.797          33.000  
R23  22239884.062 4 118968351.76524     -4216.114          27.000  
R24  18100615.447 4  96792047.09224     -1400.667          29.000  
E10  23303968.585 7 122463177.825 7      1735.217          43.000  
E12  23670399.181 6 124388782.781 6       542.667          38.000  
> 2024 11 28  8 51 52.1930000  0 11                     
G 8  18448822.382 3               3      1724.111          23.000  
G18  22588351.273 6 118702575.900 6     -2098.759          40.000  
G26  20770743.503 6 109151002.189 6     -2463.052          38.000  
G27  17810961.153 3               3      -505.944          21.000  
G31  21601536.626 6 113516837.475 6     -3400.812          39.000  
R14  18102770.052 5  96497904.233 5      -982.547          34.000  
R17  18143486.508 5  97089411.758 5      2909.693          33.000  
R23  22240041.446 4 118969194.80924     -4214.951          27.000  
R24  18100666.541 4  96792327.18024     -1400.427          29.000  
E10  23303902.553 7 122462830.772 7      1735.227          43.000  
E12  23670378.555 6 124388674.217 6       542.883          38.000  
> 2024 11 28  8 51 52.3930000  0 11                     
G 8  18448756.263 3               3      1722.768          23.000  
G18  22588431.003 6 118702995.742 6     -2099.191          40.000  
G26  20770837.176 6 109151494.766 6     -2462.430          38.000  
G27  17810981.011 3               3      -505.944          21.000  
G31  21601666.037 6 113517517.722 6     -3401.275          39.000  
R14  18102807.901 5  96498100.910 5      -983.071          34.000  
R17  18143377.863 5  97088829.908 5      2909.193          33.000  
R23  22240199.545 4 118970037.99624     -4215.452          28.000  
R24  18100722.068 4  96792607.22524     -1399.783          29.000  
E10  23303836.452 7 122462483.678 7      1735.556          43.000  
E12  23670357.981 6 124388565.628 6       543.184          38.000  
> 2024 11 28  8 51 52.5930000  0 11                     
G 8  18448689.708 3               3      1721.906          23.000  
G18  22588510.872 6 118703415.557 6     -2099.181          40.000  
G26  20770930.831 6 109151987.350 6     -2463.353          38.000  
G27  17811000.608 3               3      -511.217          21.000  
G31  21601795.570 6 113518197.932 6     -3401.141          39.000  
R14  18102844.617 5  96498297.569 5      -983.610          34.000  
R17  18143269.078 5  97088248.111 5      2909.143          33.000  
R23  22240358.464 4 118970881.10624     -4215.328          28.000  
R24  18100772.795 4  96792887.41324     -1400.868          29.000  
E10  23303770.438 7 122462136.601 7      1735.450          43.000  
E12  23670337.355 6 124388457.062 6       542.848          38.000  
